$GPGGA,144005.00,3144.97797,N,03459.21954,E,1,08,0.00,295.9,M,,,,*01
$GPRMC,144005.00,A,3144.97797,N,03459.21954,E,0.000,306.4,020416,,,A*5F
$GPGGA,144007.00,3144.97528,N,03459.22693,E,1,08,0.00,295.9,M,,,,*02
$GPRMC,144007.00,A,3144.97528,N,03459.22693,E,21.116,72.8,020416,,,A*55
$GPGGA,144008.00,3144.97269,N,03459.22065,E,1,08,0.00,316.5,M,,,,*06
$GPRMC,144008.00,A,3144.97269,N,03459.22065,E,8.642,15.4,020416,,,A*67
$GPGGA,144010.00,3144.97421,N,03459.22121,E,1,08,0.00,310.1,M,,,,*06
$GPRMC,144010.00,A,3144.97421,N,03459.22121,E,3.413,36.8,020416,,,A*65
$GPGGA,144012.00,3144.97581,N,03459.22238,E,1,08,0.00,307.6,M,,,,*05
$GPRMC,144012.00,A,3144.97581,N,03459.22238,E,1.867,85.5,020416,,,A*6F
$GPGGA,144013.00,3144.97637,N,03459.22287,E,1,08,0.00,309.3,M,,,,*05
$GPRMC,144013.00,A,3144.97637,N,03459.22287,E,1.615,66.0,020416,,,A*67
$GPGGA,144015.00,3144.97727,N,03459.22390,E,1,08,0.00,308.0,M,,,,*06
$GPRMC,144015.00,A,3144.97727,N,03459.22390,E,1.468,14.3,020416,,,A*68
$GPGGA,144016.00,3144.97773,N,03459.22452,E,1,08,0.00,306.1,M,,,,*02
$GPRMC,144016.00,A,3144.97773,N,03459.22452,E,1.489,14.9,020416,,,A*66
$GPGGA,144018.00,3144.97863,N,03459.22592,E,1,08,0.00,306.2,M,,,,*0C
$GPRMC,144018.00,A,3144.97863,N,03459.22592,E,1.607,350.2,020416,,,A*57
$GPGGA,144020.00,3144.97924,N,03459.22776,E,1,08,0.00,305.2,M,,,,*0E
$GPRMC,144020.00,A,3144.97924,N,03459.22776,E,1.796,62.2,020416,,,A*6D
$GPGGA,144021.00,3144.97961,N,03459.22863,E,1,08,0.00,303.9,M,,,,*08
$GPRMC,144021.00,A,3144.97961,N,03459.22863,E,1.864,50.7,020416,,,A*60
$GPGGA,144023.00,3144.98029,N,03459.23035,E,1,08,0.00,302.4,M,,,,*06
$GPRMC,144023.00,A,3144.98029,N,03459.23035,E,1.982,93.1,020416,,,A*62
$GPGGA,144025.00,3144.98077,N,03459.23258,E,1,08,0.00,299.7,M,,,,*02
$GPRMC,144025.00,A,3144.98077,N,03459.23258,E,2.140,136.4,020416,,,A*58
$GPGGA,144026.00,3144.98102,N,03459.23383,E,1,08,0.00,299.7,M,,,,*05
$GPRMC,144026.00,A,3144.98102,N,03459.23383,E,2.229,121.9,020416,,,A*58
$GPGGA,144028.00,3144.98150,N,03459.23603,E,1,08,0.00,300.6,M,,,,*01
$GPRMC,144028.00,A,3144.98150,N,03459.23603,E,2.342,99.5,020416,,,A*6E
$GPGGA,144030.00,3144.98236,N,03459.23747,E,1,08,0.00,298.0,M,,,,*0C
$GPRMC,144030.00,A,3144.98236,N,03459.23747,E,2.356,66.2,020416,,,A*67
$GPGGA,144032.00,3144.98332,N,03459.23861,E,1,08,0.00,298.2,M,,,,*02
$GPRMC,144032.00,A,3144.98332,N,03459.23861,E,2.343,63.7,020416,,,A*6F
$GPGGA,144033.00,3144.98393,N,03459.23894,E,1,08,0.00,298.2,M,,,,*02
$GPRMC,144033.00,A,3144.98393,N,03459.23894,E,2.317,151.9,020416,,,A*50
$GPGGA,144035.00,3144.98502,N,03459.23923,E,1,08,0.00,298.4,M,,,,*01
$GPRMC,144035.00,A,3144.98502,N,03459.23923,E,2.237,174.5,020416,,,A*5D
$GPGGA,144037.00,3144.98603,N,03459.23930,E,1,08,0.00,297.2,M,,,,*0A
$GPRMC,144037.00,A,3144.98603,N,03459.23930,E,2.147,153.3,020416,,,A*58
$GPGGA,144038.00,3144.98649,N,03459.23939,E,1,08,0.00,295.7,M,,,,*05
$GPRMC,144038.00,A,3144.98649,N,03459.23939,E,2.111,156.4,020416,,,A*51
$GPGGA,144040.00,3144.98708,N,03459.23980,E,1,08,0.00,295.1,M,,,,*0A
$GPRMC,144040.00,A,3144.98708,N,03459.23980,E,2.050,185.1,020416,,,A*57
$GPGGA,144041.00,3144.98699,N,03459.24072,E,1,08,0.00,295.0,M,,,,*00
$GPRMC,144041.00,A,3144.98699,N,03459.24072,E,2.058,191.4,020416,,,A*54
$GPGGA,144042.00,3144.98670,N,03459.24180,E,1,08,0.00,294.4,M,,,,*0D
$GPRMC,144042.00,A,3144.98670,N,03459.24180,E,2.070,164.8,020416,,,A*50
$GPGGA,144044.00,3144.98594,N,03459.24417,E,1,08,0.00,293.5,M,,,,*0F
$GPRMC,144044.00,A,3144.98594,N,03459.24417,E,2.109,147.3,020416,,,A*51
$GPGGA,144045.00,3144.98558,N,03459.24546,E,1,08,0.00,293.8,M,,,,*06
$GPRMC,144045.00,A,3144.98558,N,03459.24546,E,2.138,174.8,020416,,,A*5C
$GPGGA,144047.00,3144.98510,N,03459.24794,E,1,08,0.00,293.8,M,,,,*05
$GPRMC,144047.00,A,3144.98510,N,03459.24794,E,2.200,128.1,020416,,,A*57
$GPGGA,144049.00,3144.98503,N,03459.25050,E,1,08,0.00,293.0,M,,,,*0F
$GPRMC,144049.00,A,3144.98503,N,03459.25050,E,2.272,157.5,020416,,,A*5C
$GPGGA,144050.00,3144.98505,N,03459.25137,E,1,08,0.00,293.0,M,,,,*01
$GPRMC,144050.00,A,3144.98505,N,03459.25137,E,2.279,115.2,020416,,,A*58
$GPGGA,144051.00,3144.98549,N,03459.25305,E,1,08,0.00,290.4,M,,,,*0C
$GPRMC,144051.00,A,3144.98549,N,03459.25305,E,2.347,110.2,020416,,,A*5B
$GPGGA,144052.00,3144.98568,N,03459.25455,E,1,08,0.00,290.6,M,,,,*0C
$GPRMC,144052.00,A,3144.98568,N,03459.25455,E,2.396,115.4,020416,,,A*56
$GPGGA,144054.00,3144.98592,N,03459.25787,E,1,08,0.00,292.0,M,,,,*07
$GPRMC,144054.00,A,3144.98592,N,03459.25787,E,2.505,135.7,020416,,,A*54
$GPGGA,144056.00,3144.98599,N,03459.26069,E,1,08,0.00,294.0,M,,,,*0C
$GPRMC,144056.00,A,3144.98599,N,03459.26069,E,2.574,140.4,020416,,,A*5E
$GPGGA,144057.00,3144.98612,N,03459.26317,E,1,08,0.00,293.4,M,,,,*04
$GPRMC,144057.00,A,3144.98612,N,03459.26317,E,2.670,145.0,020416,,,A*53
$GPGGA,144059.00,3144.98595,N,03459.26625,E,1,08,0.00,295.2,M,,,,*02
$GPRMC,144059.00,A,3144.98595,N,03459.26625,E,2.741,150.7,020416,,,A*55
$GPGGA,144100.00,3144.98555,N,03459.26771,E,1,08,0.00,295.9,M,,,,*08
$GPRMC,144100.00,A,3144.98555,N,03459.26771,E,2.764,147.2,020416,,,A*50
$GPGGA,144102.00,3144.98445,N,03459.27056,E,1,08,0.00,298.3,M,,,,*0E
$GPRMC,144102.00,A,3144.98445,N,03459.27056,E,2.810,139.3,020416,,,A*55
$GPGGA,144103.00,3144.98394,N,03459.27182,E,1,08,0.00,298.5,M,,,,*0A
$GPRMC,144103.00,A,3144.98394,N,03459.27182,E,2.822,132.9,020416,,,A*57
$GPGGA,144104.00,3144.98368,N,03459.27285,E,1,08,0.00,298.8,M,,,,*07
$GPRMC,144104.00,A,3144.98368,N,03459.27285,E,2.825,145.5,020416,,,A*5C
$GPGGA,144106.00,3144.98270,N,03459.27532,E,1,08,0.00,300.5,M,,,,*0B
$GPRMC,144106.00,A,3144.98270,N,03459.27532,E,2.850,154.2,020416,,,A*58
$GPGGA,144108.00,3144.98208,N,03459.27826,E,1,08,0.00,302.0,M,,,,*05
$GPRMC,144108.00,A,3144.98208,N,03459.27826,E,2.898,151.0,020416,,,A*52
$GPGGA,144109.00,3144.98152,N,03459.27968,E,1,08,0.00,301.8,M,,,,*08
$GPRMC,144109.00,A,3144.98152,N,03459.27968,E,2.919,152.6,020416,,,A*59
$GPGGA,144111.00,3144.98003,N,03459.28189,E,1,08,0.00,303.9,M,,,,*0F
$GPRMC,144111.00,A,3144.98003,N,03459.28189,E,2.929,158.9,020416,,,A*5B
$GPGGA,144113.00,3144.97772,N,03459.28365,E,1,08,0.00,301.6,M,,,,*0E
$GPRMC,144113.00,A,3144.97772,N,03459.28365,E,2.919,162.3,020416,,,A*57
$GPGGA,144115.00,3144.97605,N,03459.28488,E,1,08,0.00,302.1,M,,,,*09
$GPRMC,144115.00,A,3144.97605,N,03459.28488,E,2.892,173.2,020416,,,A*57
$GPGGA,144116.00,3144.97527,N,03459.28542,E,1,08,0.00,301.2,M,,,,*0E
$GPRMC,144116.00,A,3144.97527,N,03459.28542,E,2.876,156.6,020416,,,A*59
$GPGGA,144117.00,3144.97469,N,03459.28619,E,1,08,0.00,299.4,M,,,,*0F
$GPRMC,144117.00,A,3144.97469,N,03459.28619,E,2.870,135.9,020416,,,A*52
$GPGGA,144119.00,3144.97362,N,03459.28750,E,1,08,0.00,297.5,M,,,,*0E
$GPRMC,144119.00,A,3144.97362,N,03459.28750,E,2.850,110.3,020416,,,A*53
$GPGGA,144121.00,3144.97284,N,03459.28847,E,1,08,0.00,294.6,M,,,,*05
$GPRMC,144121.00,A,3144.97284,N,03459.28847,E,2.816,118.6,020416,,,A*57
$GPGGA,144123.00,3144.97193,N,03459.28928,E,1,08,0.00,294.3,M,,,,*0F
$GPRMC,144123.00,A,3144.97193,N,03459.28928,E,2.780,113.7,020416,,,A*52
$GPGGA,144124.00,3144.97147,N,03459.28964,E,1,08,0.00,294.2,M,,,,*08
$GPRMC,144124.00,A,3144.97147,N,03459.28964,E,2.760,166.4,020416,,,A*5B
$GPGGA,144125.00,3144.97106,N,03459.28997,E,1,08,0.00,295.0,M,,,,*03
$GPRMC,144125.00,A,3144.97106,N,03459.28997,E,2.739,156.6,020416,,,A*5E
$GPGGA,144127.00,3144.96997,N,03459.29118,E,1,08,0.00,295.1,M,,,,*0F
$GPRMC,144127.00,A,3144.96997,N,03459.29118,E,2.725,140.5,020416,,,A*5A
$GPGGA,144128.00,3144.96983,N,03459.29141,E,1,08,0.00,296.0,M,,,,*0B
$GPRMC,144128.00,A,3144.96983,N,03459.29141,E,2.700,159.2,020416,,,A*54
$GPGGA,144129.00,3144.96923,N,03459.29217,E,1,08,0.00,296.5,M,,,,*05
$GPRMC,144129.00,A,3144.96923,N,03459.29217,E,2.698,173.4,020416,,,A*51
$GPGGA,144130.00,3144.96869,N,03459.29297,E,1,08,0.00,295.1,M,,,,*0D
$GPRMC,144130.00,A,3144.96869,N,03459.29297,E,2.698,131.1,020416,,,A*5D
$GPGGA,144132.00,3144.96770,N,03459.29484,E,1,08,0.00,296.7,M,,,,*09
$GPRMC,144132.00,A,3144.96770,N,03459.29484,E,2.708,128.1,020416,,,A*5C
$GPGGA,144134.00,3144.96661,N,03459.29661,E,1,08,0.00,299.5,M,,,,*0A
$GPRMC,144134.00,A,3144.96661,N,03459.29661,E,2.715,130.5,020416,,,A*53
$GPGGA,144135.00,3144.96585,N,03459.29724,E,1,08,0.00,299.3,M,,,,*04
$GPRMC,144135.00,A,3144.96585,N,03459.29724,E,2.711,109.6,020416,,,A*56
$GPGGA,144137.00,3144.96456,N,03459.29828,E,1,08,0.00,296.2,M,,,,*04
$GPRMC,144137.00,A,3144.96456,N,03459.29828,E,2.696,135.2,020416,,,A*5D
$GPGGA,144138.00,3144.96453,N,03459.29901,E,1,08,0.00,295.5,M,,,,*00
$GPRMC,144138.00,A,3144.96453,N,03459.29901,E,2.691,128.9,020416,,,A*5D
$GPGGA,144140.00,3144.96513,N,03459.30057,E,1,08,0.00,296.4,M,,,,*0A
$GPRMC,144140.00,A,3144.96513,N,03459.30057,E,2.679,117.7,020416,,,A*51
$GPGGA,144141.00,3144.96517,N,03459.30119,E,1,08,0.00,296.6,M,,,,*06
$GPRMC,144141.00,A,3144.96517,N,03459.30119,E,2.670,118.4,020416,,,A*5A
$GPGGA,144143.00,3144.96492,N,03459.30232,E,1,08,0.00,293.9,M,,,,*08
$GPRMC,144143.00,A,3144.96492,N,03459.30232,E,2.652,132.6,020416,,,A*54
$GPGGA,144144.00,3144.96481,N,03459.30305,E,1,08,0.00,294.8,M,,,,*0E
$GPRMC,144144.00,A,3144.96481,N,03459.30305,E,2.648,110.4,020416,,,A*5D
$GPGGA,144146.00,3144.96479,N,03459.30459,E,1,08,0.00,295.7,M,,,,*0B
$GPRMC,144146.00,A,3144.96479,N,03459.30459,E,2.642,92.0,020416,,,A*63
$GPGGA,144147.00,3144.96476,N,03459.30533,E,1,08,0.00,295.3,M,,,,*0C
$GPRMC,144147.00,A,3144.96476,N,03459.30533,E,2.638,118.1,020416,,,A*5F
$GPGGA,144149.00,3144.96478,N,03459.30702,E,1,08,0.00,296.0,M,,,,*0C
$GPRMC,144149.00,A,3144.96478,N,03459.30702,E,2.636,81.0,020416,,,A*61
$GPGGA,144150.00,3144.96469,N,03459.30792,E,1,08,0.00,296.7,M,,,,*0A
$GPRMC,144150.00,A,3144.96469,N,03459.30792,E,2.638,91.5,020416,,,A*6A
$GPGGA,144152.00,3144.96417,N,03459.30962,E,1,08,0.00,297.9,M,,,,*0F
$GPRMC,144152.00,A,3144.96417,N,03459.30962,E,2.639,105.0,020416,,,A*58
$GPGGA,144153.00,3144.96398,N,03459.31059,E,1,08,0.00,299.0,M,,,,*09
$GPRMC,144153.00,A,3144.96398,N,03459.31059,E,2.643,122.9,020416,,,A*58
$GPGGA,144155.00,3144.96369,N,03459.31262,E,1,08,0.00,298.8,M,,,,*02
$GPRMC,144155.00,A,3144.96369,N,03459.31262,E,2.652,112.2,020416,,,A*52
$GPGGA,144157.00,3144.96347,N,03459.31463,E,1,08,0.00,299.7,M,,,,*05
$GPRMC,144157.00,A,3144.96347,N,03459.31463,E,2.660,101.0,020416,,,A*5A
$GPGGA,144158.00,3144.96330,N,03459.31564,E,1,08,0.00,299.9,M,,,,*02
$GPRMC,144158.00,A,3144.96330,N,03459.31564,E,2.665,115.4,020416,,,A*57
$GPGGA,144159.00,3144.96306,N,03459.31668,E,1,08,0.00,299.4,M,,,,*04
$GPRMC,144159.00,A,3144.96306,N,03459.31668,E,2.670,105.0,020416,,,A*5D
$GPGGA,144201.00,3144.96318,N,03459.31896,E,1,08,0.00,300.3,M,,,,*0C
$GPRMC,144201.00,A,3144.96318,N,03459.31896,E,2.683,78.4,020416,,,A*60
$GPGGA,144202.00,3144.96333,N,03459.32007,E,1,08,0.00,300.8,M,,,,*0E
$GPRMC,144202.00,A,3144.96333,N,03459.32007,E,2.688,75.2,020416,,,A*69
$GPGGA,144203.00,3144.96326,N,03459.32114,E,1,08,0.00,301.9,M,,,,*08
$GPRMC,144203.00,A,3144.96326,N,03459.32114,E,2.693,63.7,020416,,,A*67
$GPGGA,144205.00,3144.96265,N,03459.32376,E,1,08,0.00,302.8,M,,,,*0C
$GPRMC,144205.00,A,3144.96265,N,03459.32376,E,2.717,72.9,020416,,,A*62
$GPGGA,144206.00,3144.96235,N,03459.32504,E,1,08,0.00,302.1,M,,,,*00
$GPRMC,144206.00,A,3144.96235,N,03459.32504,E,2.727,67.1,020416,,,A*68
$GPGGA,144208.00,3144.96174,N,03459.32747,E,1,08,0.00,303.2,M,,,,*0F
$GPRMC,144208.00,A,3144.96174,N,03459.32747,E,2.746,79.3,020416,,,A*6F
$GPGGA,144210.00,3144.96147,N,03459.32946,E,1,08,0.00,301.6,M,,,,*0F
$GPRMC,144210.00,A,3144.96147,N,03459.32946,E,2.752,123.9,020416,,,A*58
$GPGGA,144211.00,3144.96165,N,03459.33044,E,1,08,0.00,301.6,M,,,,*04
$GPRMC,144211.00,A,3144.96165,N,03459.33044,E,2.753,97.2,020416,,,A*67
$GPGGA,144212.00,3144.96127,N,03459.33144,E,1,08,0.00,302.1,M,,,,*04
$GPRMC,144212.00,A,3144.96127,N,03459.33144,E,2.756,140.6,020416,,,A*59
$GPGGA,144214.00,3144.96026,N,03459.33338,E,1,08,0.00,301.2,M,,,,*0B
$GPRMC,144214.00,A,3144.96026,N,03459.33338,E,2.765,134.5,020416,,,A*56
$GPGGA,144216.00,3144.95901,N,03459.33558,E,1,08,0.00,300.6,M,,,,*03
$GPRMC,144216.00,A,3144.95901,N,03459.33558,E,2.779,126.3,020416,,,A*53
$GPGGA,144217.00,3144.95798,N,03459.33767,E,1,08,0.00,302.5,M,,,,*03
$GPRMC,144217.00,A,3144.95798,N,03459.33767,E,2.811,125.1,020416,,,A*52
$GPGGA,144218.00,3144.95748,N,03459.33879,E,1,08,0.00,302.7,M,,,,*03
$GPRMC,144218.00,A,3144.95748,N,03459.33879,E,2.818,132.4,020416,,,A*5A
$GPGGA,144220.00,3144.95696,N,03459.34085,E,1,08,0.00,306.5,M,,,,*00
$GPRMC,144220.00,A,3144.95696,N,03459.34085,E,2.825,117.6,020416,,,A*54
$GPGGA,144222.00,3144.95678,N,03459.34268,E,1,08,0.00,307.5,M,,,,*02
$GPRMC,144222.00,A,3144.95678,N,03459.34268,E,2.825,118.7,020416,,,A*59
$GPGGA,144224.00,3144.95704,N,03459.34441,E,1,08,0.00,309.9,M,,,,*01
$GPRMC,144224.00,A,3144.95704,N,03459.34441,E,2.820,104.5,020416,,,A*52
$GPGGA,144226.00,3144.95716,N,03459.34614,E,1,08,0.00,310.3,M,,,,*00
$GPRMC,144226.00,A,3144.95716,N,03459.34614,E,2.817,90.3,020416,,,A*6F
$GPGGA,144228.00,3144.95774,N,03459.34790,E,1,08,0.00,307.9,M,,,,*0B
$GPRMC,144228.00,A,3144.95774,N,03459.34790,E,2.811,95.6,020416,,,A*6E
$GPGGA,144230.00,3144.95807,N,03459.34932,E,1,08,0.00,305.4,M,,,,*00
$GPRMC,144230.00,A,3144.95807,N,03459.34932,E,2.801,62.9,020416,,,A*6C
$GPGGA,144231.00,3144.95834,N,03459.35016,E,1,08,0.00,305.5,M,,,,*0E
$GPRMC,144231.00,A,3144.95834,N,03459.35016,E,2.798,47.6,020416,,,A*64
$GPGGA,144232.00,3144.95856,N,03459.35115,E,1,08,0.00,306.0,M,,,,*0D
$GPRMC,144232.00,A,3144.95856,N,03459.35115,E,2.798,42.9,020416,,,A*6B
$GPGGA,144233.00,3144.95879,N,03459.35228,E,1,08,0.00,307.0,M,,,,*0D
$GPRMC,144233.00,A,3144.95879,N,03459.35228,E,2.801,73.7,020416,,,A*69
$GPGGA,144235.00,3144.95929,N,03459.35499,E,1,08,0.00,307.1,M,,,,*02
$GPRMC,144235.00,A,3144.95929,N,03459.35499,E,2.817,60.8,020416,,,A*6D
$GPGGA,144236.00,3144.95961,N,03459.35641,E,1,08,0.00,307.2,M,,,,*09
$GPRMC,144236.00,A,3144.95961,N,03459.35641,E,2.825,53.8,020416,,,A*64
$GPGGA,144238.00,3144.96032,N,03459.35876,E,1,08,0.00,307.5,M,,,,*06
$GPRMC,144238.00,A,3144.96032,N,03459.35876,E,2.832,80.5,020416,,,A*69
$GPGGA,144239.00,3144.96140,N,03459.35987,E,1,08,0.00,307.3,M,,,,*0A
$GPRMC,144239.00,A,3144.96140,N,03459.35987,E,2.832,25.3,020416,,,A*6A
$GPGGA,144241.00,3144.96194,N,03459.36170,E,1,08,0.00,312.3,M,,,,*0B
$GPRMC,144241.00,A,3144.96194,N,03459.36170,E,2.830,28.4,020416,,,A*67
$GPGGA,144242.00,3144.96207,N,03459.36239,E,1,08,0.00,311.4,M,,,,*0B
$GPRMC,144242.00,A,3144.96207,N,03459.36239,E,2.824,24.5,020416,,,A*6B
$GPGGA,144244.00,3144.96232,N,03459.36397,E,1,08,0.00,311.4,M,,,,*0E
$GPRMC,144244.00,A,3144.96232,N,03459.36397,E,2.819,22.6,020416,,,A*65
$GPGGA,144246.00,3144.96194,N,03459.36555,E,1,08,0.00,317.0,M,,,,*09
$GPRMC,144246.00,A,3144.96194,N,03459.36555,E,2.815,31.4,020416,,,A*6C
$GPGGA,144247.00,3144.96146,N,03459.36634,E,1,08,0.00,318.5,M,,,,*09
$GPRMC,144247.00,A,3144.96146,N,03459.36634,E,2.813,106.7,020416,,,A*56
$GPGGA,144249.00,3144.96068,N,03459.36800,E,1,08,0.00,320.5,M,,,,*08
$GPRMC,144249.00,A,3144.96068,N,03459.36800,E,2.812,112.4,020416,,,A*5B
$GPGGA,144251.00,3144.96074,N,03459.37039,E,1,08,0.00,315.6,M,,,,*0A
$GPRMC,144251.00,A,3144.96074,N,03459.37039,E,2.822,34.2,020416,,,A*6C
$GPGGA,144252.00,3144.96088,N,03459.37161,E,1,08,0.00,315.9,M,,,,*09
$GPRMC,144252.00,A,3144.96088,N,03459.37161,E,2.826,16.1,020416,,,A*67
$GPGGA,144254.00,3144.96184,N,03459.37360,E,1,08,0.00,314.1,M,,,,*08
$GPRMC,144254.00,A,3144.96184,N,03459.37360,E,2.827,347.0,020416,,,A*58
$GPGGA,144256.00,3144.96270,N,03459.37566,E,1,08,0.00,311.9,M,,,,*0F
$GPRMC,144256.00,A,3144.96270,N,03459.37566,E,2.828,84.7,020416,,,A*66
$GPGGA,144258.00,3144.96365,N,03459.37790,E,1,08,0.00,312.2,M,,,,*07
$GPRMC,144258.00,A,3144.96365,N,03459.37790,E,2.833,67.0,020416,,,A*66
$GPGGA,144300.00,3144.96476,N,03459.38050,E,1,08,0.00,311.2,M,,,,*09
$GPRMC,144300.00,A,3144.96476,N,03459.38050,E,2.842,31.5,020416,,,A*6B
$GPGGA,144302.00,3144.96617,N,03459.38299,E,1,08,0.00,308.8,M,,,,*0B
$GPRMC,144302.00,A,3144.96617,N,03459.38299,E,2.851,45.5,020416,,,A*6A
$GPGGA,144303.00,3144.96690,N,03459.38414,E,1,08,0.00,308.0,M,,,,*0E
$GPRMC,144303.00,A,3144.96690,N,03459.38414,E,2.853,50.6,020416,,,A*62
$GPGGA,144304.00,3144.96760,N,03459.38528,E,1,08,0.00,307.2,M,,,,*04
$GPRMC,144304.00,A,3144.96760,N,03459.38528,E,2.856,68.4,020416,,,A*69
$GPGGA,144306.00,3144.96873,N,03459.38730,E,1,08,0.00,307.7,M,,,,*05
$GPRMC,144306.00,A,3144.96873,N,03459.38730,E,2.857,20.0,020416,,,A*64
$GPGGA,144308.00,3144.96992,N,03459.38929,E,1,08,0.00,311.0,M,,,,*03
$GPRMC,144308.00,A,3144.96992,N,03459.38929,E,2.858,16.8,020416,,,A*60
$GPGGA,144310.00,3144.97080,N,03459.39189,E,1,08,0.00,310.1,M,,,,*02
$GPRMC,144310.00,A,3144.97080,N,03459.39189,E,2.869,35.7,020416,,,A*6D
$GPGGA,144311.00,3144.97139,N,03459.39303,E,1,08,0.00,305.9,M,,,,*0C
$GPRMC,144311.00,A,3144.97139,N,03459.39303,E,2.871,17.5,020416,,,A*64
$GPGGA,144313.00,3144.97266,N,03459.39525,E,1,08,0.00,305.9,M,,,,*05
$GPRMC,144313.00,A,3144.97266,N,03459.39525,E,2.877,60.1,020416,,,A*6F
$GPGGA,144314.00,3144.97307,N,03459.39662,E,1,08,0.00,305.8,M,,,,*05
$GPRMC,144314.00,A,3144.97307,N,03459.39662,E,2.883,11.6,020416,,,A*64
$GPGGA,144315.00,3144.97370,N,03459.39828,E,1,08,0.00,303.9,M,,,,*03
$GPRMC,144315.00,A,3144.97370,N,03459.39828,E,2.894,12.7,020416,,,A*61
$GPGGA,144317.00,3144.97563,N,03459.40144,E,1,08,0.00,302.8,M,,,,*08
$GPRMC,144317.00,A,3144.97563,N,03459.40144,E,2.914,19.0,020416,,,A*6F
$GPGGA,144319.00,3144.97712,N,03459.40439,E,1,08,0.00,300.2,M,,,,*05
$GPRMC,144319.00,A,3144.97712,N,03459.40439,E,2.930,47.3,020416,,,A*64
$GPGGA,144321.00,3144.97830,N,03459.40672,E,1,08,0.00,297.8,M,,,,*09
$GPRMC,144321.00,A,3144.97830,N,03459.40672,E,2.937,15.1,020416,,,A*6F
$GPGGA,144322.00,3144.97891,N,03459.40794,E,1,08,0.00,297.5,M,,,,*05
$GPRMC,144322.00,A,3144.97891,N,03459.40794,E,2.941,30.0,020416,,,A*69
$GPGGA,144323.00,3144.97953,N,03459.40905,E,1,08,0.00,295.6,M,,,,*0C
$GPRMC,144323.00,A,3144.97953,N,03459.40905,E,2.943,49.5,020416,,,A*68
$GPGGA,144325.00,3144.98049,N,03459.41053,E,1,08,0.00,294.9,M,,,,*02
$GPRMC,144325.00,A,3144.98049,N,03459.41053,E,2.937,30.8,020416,,,A*68
$GPGGA,144326.00,3144.98069,N,03459.41126,E,1,08,0.00,296.4,M,,,,*0F
$GPRMC,144326.00,A,3144.98069,N,03459.41126,E,2.933,22.3,020416,,,A*66
$GPGGA,144327.00,3144.98085,N,03459.41200,E,1,08,0.00,296.3,M,,,,*0C
$GPRMC,144327.00,A,3144.98085,N,03459.41200,E,2.930,26.0,020416,,,A*66
$GPGGA,144329.00,3144.98166,N,03459.41460,E,1,08,0.00,297.7,M,,,,*0B
$GPRMC,144329.00,A,3144.98166,N,03459.41460,E,2.941,41.7,020416,,,A*64
$GPGGA,144330.00,3144.98177,N,03459.41447,E,1,08,0.00,297.7,M,,,,*06
$GPRMC,144330.00,A,3144.98177,N,03459.41447,E,2.924,61.1,020416,,,A*6E
$GPGGA,144332.00,3144.98078,N,03459.41574,E,1,08,0.00,299.0,M,,,,*02
$GPRMC,144332.00,A,3144.98078,N,03459.41574,E,2.914,27.3,020416,,,A*60
$GPGGA,144334.00,3144.98069,N,03459.41630,E,1,08,0.00,299.7,M,,,,*00
$GPRMC,144334.00,A,3144.98069,N,03459.41630,E,2.895,45.6,020416,,,A*6C
$GPGGA,144336.00,3144.98097,N,03459.41649,E,1,08,0.00,305.7,M,,,,*09
$GPRMC,144336.00,A,3144.98097,N,03459.41649,E,2.870,87.0,020416,,,A*62
$GPGGA,144338.00,3144.98048,N,03459.41703,E,1,08,0.00,309.7,M,,,,*06
$GPRMC,144338.00,A,3144.98048,N,03459.41703,E,2.851,9.3,020416,,,A*57
$GPGGA,144339.00,3144.98015,N,03459.41786,E,1,08,0.00,310.3,M,,,,*0E
$GPRMC,144339.00,A,3144.98015,N,03459.41786,E,2.849,33.8,020416,,,A*68
$GPGGA,144341.00,3144.97964,N,03459.41978,E,1,08,0.00,310.3,M,,,,*0E
$GPRMC,144341.00,A,3144.97964,N,03459.41978,E,2.850,45.5,020416,,,A*6C
$GPGGA,144342.00,3144.97925,N,03459.42046,E,1,08,0.00,308.5,M,,,,*00
$GPRMC,144342.00,A,3144.97925,N,03459.42046,E,2.846,55.9,020416,,,A*67
$GPGGA,144344.00,3144.97892,N,03459.42218,E,1,08,0.00,306.6,M,,,,*0F
$GPRMC,144344.00,A,3144.97892,N,03459.42218,E,2.844,60.7,020416,,,A*6F
$GPGGA,144346.00,3144.97845,N,03459.42396,E,1,08,0.00,304.3,M,,,,*07
$GPRMC,144346.00,A,3144.97845,N,03459.42396,E,2.843,76.4,020416,,,A*63
$GPGGA,144348.00,3144.97861,N,03459.42591,E,1,08,0.00,304.1,M,,,,*0C
$GPRMC,144348.00,A,3144.97861,N,03459.42591,E,2.845,11.9,020416,,,A*60
$GPGGA,144350.00,3144.97875,N,03459.42775,E,1,08,0.00,303.3,M,,,,*0D
$GPRMC,144350.00,A,3144.97875,N,03459.42775,E,2.844,13.7,020416,,,A*69
$GPGGA,144352.00,3144.97856,N,03459.42927,E,1,08,0.00,301.4,M,,,,*02
$GPRMC,144352.00,A,3144.97856,N,03459.42927,E,2.840,48.4,020416,,,A*6A
$GPGGA,144354.00,3144.97858,N,03459.43023,E,1,08,0.00,301.5,M,,,,*07
$GPRMC,144354.00,A,3144.97858,N,03459.43023,E,2.828,61.9,020416,,,A*66
$GPGGA,144355.00,3144.97874,N,03459.43061,E,1,08,0.00,304.0,M,,,,*0E
$GPRMC,144355.00,A,3144.97874,N,03459.43061,E,2.820,72.0,020416,,,A*6C
$GPGGA,144357.00,3144.97881,N,03459.43129,E,1,08,0.00,301.3,M,,,,*0D
$GPRMC,144357.00,A,3144.97881,N,03459.43129,E,2.805,51.0,020416,,,A*6F
$GPGGA,144358.00,3144.97868,N,03459.43161,E,1,08,0.00,302.6,M,,,,*0F
$GPRMC,144358.00,A,3144.97868,N,03459.43161,E,2.797,19.3,020416,,,A*60
$GPGGA,144400.00,3144.97794,N,03459.43250,E,1,08,0.00,305.3,M,,,,*0A
$GPRMC,144400.00,A,3144.97794,N,03459.43250,E,2.785,90.1,020416,,,A*67
$GPGGA,144402.00,3144.97673,N,03459.43372,E,1,08,0.00,309.2,M,,,,*0C
$GPRMC,144402.00,A,3144.97673,N,03459.43372,E,2.777,87.5,020416,,,A*63
$GPGGA,144404.00,3144.97560,N,03459.43595,E,1,08,0.00,308.9,M,,,,*0E
$GPRMC,144404.00,A,3144.97560,N,03459.43595,E,2.782,115.3,020416,,,A*5D
$GPGGA,144405.00,3144.97524,N,03459.43673,E,1,08,0.00,308.2,M,,,,*0F
$GPRMC,144405.00,A,3144.97524,N,03459.43673,E,2.781,191.4,020416,,,A*5F
$GPGGA,144407.00,3144.97418,N,03459.43822,E,1,08,0.00,311.1,M,,,,*02
$GPRMC,144407.00,A,3144.97418,N,03459.43822,E,2.777,123.1,020416,,,A*5C
$GPGGA,144408.00,3144.97373,N,03459.43878,E,1,08,0.00,311.1,M,,,,*08
$GPRMC,144408.00,A,3144.97373,N,03459.43878,E,2.773,142.5,020416,,,A*51
$GPGGA,144410.00,3144.97268,N,03459.43971,E,1,08,0.00,312.8,M,,,,*08
$GPRMC,144410.00,A,3144.97268,N,03459.43971,E,2.763,168.1,020416,,,A*56
$GPGGA,144411.00,3144.97227,N,03459.44012,E,1,08,0.00,311.8,M,,,,*0A
$GPRMC,144411.00,A,3144.97227,N,03459.44012,E,2.756,182.2,020416,,,A*56
$GPGGA,144413.00,3144.97198,N,03459.44122,E,1,08,0.00,311.2,M,,,,*07
$GPRMC,144413.00,A,3144.97198,N,03459.44122,E,2.748,204.5,020416,,,A*54
$GPGGA,144414.00,3144.97250,N,03459.44139,E,1,08,0.00,310.3,M,,,,*0D
$GPRMC,144414.00,A,3144.97250,N,03459.44139,E,2.738,151.9,020416,,,A*56
$GPGGA,144416.00,3144.97265,N,03459.44288,E,1,08,0.00,308.2,M,,,,*08
$GPRMC,144416.00,A,3144.97265,N,03459.44288,E,2.735,143.0,020416,,,A*5C
$GPGGA,144417.00,3144.97215,N,03459.44376,E,1,08,0.00,307.1,M,,,,*02
$GPRMC,144417.00,A,3144.97215,N,03459.44376,E,2.735,160.1,020416,,,A*5A
$GPGGA,144418.00,3144.97151,N,03459.44462,E,1,08,0.00,306.8,M,,,,*04
$GPRMC,144418.00,A,3144.97151,N,03459.44462,E,2.735,162.7,020416,,,A*50
$GPGGA,144420.00,3144.96975,N,03459.44664,E,1,08,0.00,307.6,M,,,,*0B
$GPRMC,144420.00,A,3144.96975,N,03459.44664,E,2.739,208.7,020416,,,A*53
$GPGGA,144422.00,3144.96816,N,03459.44849,E,1,08,0.00,306.0,M,,,,*0B
$GPRMC,144422.00,A,3144.96816,N,03459.44849,E,2.741,130.3,020416,,,A*57
$GPGGA,144423.00,3144.96748,N,03459.44937,E,1,08,0.00,306.8,M,,,,*0E
$GPRMC,144423.00,A,3144.96748,N,03459.44937,E,2.741,171.5,020416,,,A*59
$GPGGA,144425.00,3144.96602,N,03459.45117,E,1,08,0.00,308.7,M,,,,*0D
$GPRMC,144425.00,A,3144.96602,N,03459.45117,E,2.742,170.4,020416,,,A*58
$GPGGA,144426.00,3144.96518,N,03459.45188,E,1,08,0.00,309.0,M,,,,*06
$GPRMC,144426.00,A,3144.96518,N,03459.45188,E,2.741,148.8,020416,,,A*51
$GPGGA,144427.00,3144.96428,N,03459.45245,E,1,08,0.00,310.1,M,,,,*0E
$GPRMC,144427.00,A,3144.96428,N,03459.45245,E,2.738,183.0,020416,,,A*51
$GPGGA,144429.00,3144.96268,N,03459.45365,E,1,08,0.00,310.6,M,,,,*06
$GPRMC,144429.00,A,3144.96268,N,03459.45365,E,2.732,166.1,020416,,,A*5E
$GPGGA,144430.00,3144.96197,N,03459.45432,E,1,08,0.00,309.6,M,,,,*00
$GPRMC,144430.00,A,3144.96197,N,03459.45432,E,2.731,85.5,020416,,,A*6B
$GPGGA,144431.00,3144.96134,N,03459.45518,E,1,08,0.00,310.0,M,,,,*0F
$GPRMC,144431.00,A,3144.96134,N,03459.45518,E,2.731,102.4,020416,,,A*55
$GPGGA,144433.00,3144.96023,N,03459.45702,E,1,08,0.00,309.9,M,,,,*02
$GPRMC,144433.00,A,3144.96023,N,03459.45702,E,2.733,99.3,020416,,,A*6F
$GPGGA,144435.00,3144.95888,N,03459.45865,E,1,08,0.00,311.4,M,,,,*04
$GPRMC,144435.00,A,3144.95888,N,03459.45865,E,2.733,102.5,020416,,,A*58
$GPGGA,144436.00,3144.95822,N,03459.45947,E,1,08,0.00,311.5,M,,,,*07
$GPRMC,144436.00,A,3144.95822,N,03459.45947,E,2.732,81.5,020416,,,A*61
$GPGGA,144438.00,3144.95747,N,03459.46141,E,1,08,0.00,306.6,M,,,,*0D
$GPRMC,144438.00,A,3144.95747,N,03459.46141,E,2.735,228.8,020416,,,A*55
$GPGGA,144439.00,3144.95720,N,03459.46268,E,1,08,0.00,304.4,M,,,,*05
$GPRMC,144439.00,A,3144.95720,N,03459.46268,E,2.740,208.1,020416,,,A*54
$GPGGA,144440.00,3144.95682,N,03459.46395,E,1,08,0.00,304.7,M,,,,*02
$GPRMC,144440.00,A,3144.95682,N,03459.46395,E,2.744,180.4,020416,,,A*52
$GPGGA,144442.00,3144.95553,N,03459.46604,E,1,08,0.00,305.1,M,,,,*05
$GPRMC,144442.00,A,3144.95553,N,03459.46604,E,2.749,197.6,020416,,,A*5B
$GPGGA,144444.00,3144.95400,N,03459.46776,E,1,08,0.00,302.7,M,,,,*01
$GPRMC,144444.00,A,3144.95400,N,03459.46776,E,2.750,199.4,020416,,,A*5A
$GPGGA,144446.00,3144.95295,N,03459.46967,E,1,08,0.00,302.2,M,,,,*02
$GPRMC,144446.00,A,3144.95295,N,03459.46967,E,2.753,196.6,020416,,,A*52
$GPGGA,144448.00,3144.95236,N,03459.47175,E,1,08,0.00,299.9,M,,,,*07
$GPRMC,144448.00,A,3144.95236,N,03459.47175,E,2.757,193.9,020416,,,A*51
$GPGGA,144450.00,3144.95184,N,03459.47387,E,1,08,0.00,298.0,M,,,,*03
$GPRMC,144450.00,A,3144.95184,N,03459.47387,E,2.761,187.8,020416,,,A*5C
$GPGGA,144451.00,3144.95127,N,03459.47477,E,1,08,0.00,300.6,M,,,,*05
$GPRMC,144451.00,A,3144.95127,N,03459.47477,E,2.762,178.2,020416,,,A*55
$GPGGA,144453.00,3144.95034,N,03459.47654,E,1,08,0.00,300.7,M,,,,*06
$GPRMC,144453.00,A,3144.95034,N,03459.47654,E,2.763,163.4,020416,,,A*5A
$GPGGA,144454.00,3144.94982,N,03459.47745,E,1,08,0.00,300.3,M,,,,*01
$GPRMC,144454.00,A,3144.94982,N,03459.47745,E,2.763,168.5,020416,,,A*53
$GPGGA,144455.00,3144.94919,N,03459.47822,E,1,08,0.00,300.5,M,,,,*0A
$GPRMC,144455.00,A,3144.94919,N,03459.47822,E,2.763,163.1,020416,,,A*51
$GPGGA,144457.00,3144.94809,N,03459.47938,E,1,08,0.00,304.3,M,,,,*00
$GPRMC,144457.00,A,3144.94809,N,03459.47938,E,2.758,150.4,020416,,,A*54
$GPGGA,144458.00,3144.94755,N,03459.47978,E,1,08,0.00,305.6,M,,,,*09
$GPRMC,144458.00,A,3144.94755,N,03459.47978,E,2.753,180.5,020416,,,A*5E
$GPGGA,144459.00,3144.94720,N,03459.48015,E,1,08,0.00,307.0,M,,,,*03
$GPRMC,144459.00,A,3144.94720,N,03459.48015,E,2.748,156.9,020416,,,A*5D
$GPGGA,144501.00,3144.94718,N,03459.48133,E,1,08,0.00,307.0,M,,,,*01
$GPRMC,144501.00,A,3144.94718,N,03459.48133,E,2.742,145.8,020416,,,A*56
$GPGGA,144502.00,3144.94725,N,03459.48210,E,1,08,0.00,307.2,M,,,,*0C
$GPRMC,144502.00,A,3144.94725,N,03459.48210,E,2.740,144.2,020416,,,A*50
$GPGGA,144504.00,3144.94751,N,03459.48387,E,1,08,0.00,307.0,M,,,,*04
$GPRMC,144504.00,A,3144.94751,N,03459.48387,E,2.740,66.2,020416,,,A*6B
$GPGGA,144506.00,3144.94745,N,03459.48554,E,1,08,0.00,307.3,M,,,,*08
$GPRMC,144506.00,A,3144.94745,N,03459.48554,E,2.738,101.3,020416,,,A*5A
$GPGGA,144508.00,3144.94723,N,03459.48705,E,1,08,0.00,307.5,M,,,,*06
$GPRMC,144508.00,A,3144.94723,N,03459.48705,E,2.736,70.4,020416,,,A*6C
$GPGGA,144509.00,3144.94728,N,03459.48797,E,1,08,0.00,308.2,M,,,,*0F
$GPRMC,144509.00,A,3144.94728,N,03459.48797,E,2.735,77.9,020416,,,A*64
$GPGGA,144511.00,3144.94730,N,03459.48993,E,1,08,0.00,307.3,M,,,,*0B
$GPRMC,144511.00,A,3144.94730,N,03459.48993,E,2.738,74.7,020416,,,A*6E
$GPGGA,144512.00,3144.94778,N,03459.49112,E,1,08,0.00,309.0,M,,,,*09
$GPRMC,144512.00,A,3144.94778,N,03459.49112,E,2.740,153.9,020416,,,A*54
$GPGGA,144513.00,3144.94785,N,03459.49215,E,1,08,0.00,309.2,M,,,,*0C
$GPRMC,144513.00,A,3144.94785,N,03459.49215,E,2.741,152.8,020416,,,A*52
$GPGGA,144514.00,3144.94774,N,03459.49308,E,1,08,0.00,308.8,M,,,,*03
$GPRMC,144514.00,A,3144.94774,N,03459.49308,E,2.741,145.9,020416,,,A*51
$GPGGA,144516.00,3144.94735,N,03459.49518,E,1,08,0.00,307.7,M,,,,*03
$GPRMC,144516.00,A,3144.94735,N,03459.49518,E,2.745,153.4,020416,,,A*5F
$GPGGA,144518.00,3144.94730,N,03459.49680,E,1,08,0.00,306.3,M,,,,*0F
$GPRMC,144518.00,A,3144.94730,N,03459.49680,E,2.743,146.6,020416,,,A*56
$GPGGA,144520.00,3144.94769,N,03459.49809,E,1,08,0.00,305.4,M,,,,*03
$GPRMC,144520.00,A,3144.94769,N,03459.49809,E,2.738,162.0,020416,,,A*52
$GPGGA,144522.00,3144.94862,N,03459.49857,E,1,08,0.00,304.6,M,,,,*0D
$GPRMC,144522.00,A,3144.94862,N,03459.49857,E,2.724,177.2,020416,,,A*54
$GPGGA,144523.00,3144.94914,N,03459.49848,E,1,08,0.00,304.1,M,,,,*05
$GPRMC,144523.00,A,3144.94914,N,03459.49848,E,2.713,156.0,020416,,,A*5E
$GPGGA,144525.00,3144.95001,N,03459.49857,E,1,08,0.00,302.2,M,,,,*04
$GPRMC,144525.00,A,3144.95001,N,03459.49857,E,2.696,156.3,020416,,,A*55
$GPGGA,144526.00,3144.95024,N,03459.49869,E,1,08,0.00,302.3,M,,,,*0C
$GPRMC,144526.00,A,3144.95024,N,03459.49869,E,2.688,158.9,020416,,,A*57
$GPGGA,144528.00,3144.94991,N,03459.49973,E,1,08,0.00,300.7,M,,,,*08
$GPRMC,144528.00,A,3144.94991,N,03459.49973,E,2.682,140.7,020416,,,A*58
$GPGGA,144530.00,3144.94839,N,03459.50140,E,1,08,0.00,299.6,M,,,,*02
$GPRMC,144530.00,A,3144.94839,N,03459.50140,E,2.683,136.9,020416,,,A*5C
$GPGGA,144531.00,3144.94759,N,03459.50220,E,1,08,0.00,299.4,M,,,,*0D
$GPRMC,144531.00,A,3144.94759,N,03459.50220,E,2.683,152.0,020416,,,A*5A
$GPGGA,144532.00,3144.94688,N,03459.50309,E,1,08,0.00,298.7,M,,,,*0B
$GPRMC,144532.00,A,3144.94688,N,03459.50309,E,2.684,181.9,020416,,,A*5E
$GPGGA,144533.00,3144.94642,N,03459.50411,E,1,08,0.00,298.0,M,,,,*05
$GPRMC,144533.00,A,3144.94642,N,03459.50411,E,2.686,152.2,020416,,,A*50
$GPGGA,144535.00,3144.94575,N,03459.50591,E,1,08,0.00,295.2,M,,,,*02
$GPRMC,144535.00,A,3144.94575,N,03459.50591,E,2.688,136.9,020416,,,A*5F
$GPGGA,144536.00,3144.94531,N,03459.50707,E,1,08,0.00,296.3,M,,,,*0E
$GPRMC,144536.00,A,3144.94531,N,03459.50707,E,2.691,113.9,020416,,,A*5E
$GPGGA,144537.00,3144.94502,N,03459.50828,E,1,08,0.00,297.1,M,,,,*0E
$GPRMC,144537.00,A,3144.94502,N,03459.50828,E,2.694,130.7,020416,,,A*57
$GPGGA,144539.00,3144.94460,N,03459.51123,E,1,08,0.00,299.1,M,,,,*08
$GPRMC,144539.00,A,3144.94460,N,03459.51123,E,2.705,110.2,020416,,,A*51
$GPGGA,144540.00,3144.94446,N,03459.51281,E,1,08,0.00,297.4,M,,,,*02
$GPRMC,144540.00,A,3144.94446,N,03459.51281,E,2.712,125.4,020416,,,A*56
$GPGGA,144541.00,3144.94429,N,03459.51442,E,1,08,0.00,297.4,M,,,,*03
$GPRMC,144541.00,A,3144.94429,N,03459.51442,E,2.718,135.3,020416,,,A*5B
$GPGGA,144543.00,3144.94409,N,03459.51759,E,1,08,0.00,295.1,M,,,,*0D
$GPRMC,144543.00,A,3144.94409,N,03459.51759,E,2.731,125.4,020416,,,A*5F
$GPGGA,144545.00,3144.94405,N,03459.52046,E,1,08,0.00,295.0,M,,,,*0C
$GPRMC,144545.00,A,3144.94405,N,03459.52046,E,2.741,142.9,020416,,,A*54
$GPGGA,144547.00,3144.94389,N,03459.52272,E,1,08,0.00,295.1,M,,,,*09
$GPRMC,144547.00,A,3144.94389,N,03459.52272,E,2.745,73.7,020416,,,A*69
$GPGGA,144548.00,3144.94394,N,03459.52388,E,1,08,0.00,295.5,M,,,,*0A
$GPRMC,144548.00,A,3144.94394,N,03459.52388,E,2.748,63.2,020416,,,A*67
$GPGGA,144549.00,3144.94415,N,03459.52540,E,1,08,0.00,294.2,M,,,,*01
$GPRMC,144549.00,A,3144.94415,N,03459.52540,E,2.753,57.6,020416,,,A*63
$GPGGA,144551.00,3144.94475,N,03459.52767,E,1,08,0.00,298.5,M,,,,*02
$GPRMC,144551.00,A,3144.94475,N,03459.52767,E,2.756,152.4,020416,,,A*58
$GPGGA,144552.00,3144.94497,N,03459.52878,E,1,08,0.00,298.0,M,,,,*09
$GPRMC,144552.00,A,3144.94497,N,03459.52878,E,2.757,163.8,020416,,,A*59
$GPGGA,144554.00,3144.94524,N,03459.53079,E,1,08,0.00,298.2,M,,,,*0C
$GPRMC,144554.00,A,3144.94524,N,03459.53079,E,2.759,181.8,020416,,,A*5C
$GPGGA,144555.00,3144.94523,N,03459.53186,E,1,08,0.00,298.1,M,,,,*08
$GPRMC,144555.00,A,3144.94523,N,03459.53186,E,2.760,163.8,020416,,,A*5D
$GPGGA,144557.00,3144.94525,N,03459.53384,E,1,08,0.00,296.9,M,,,,*0A
$GPRMC,144557.00,A,3144.94525,N,03459.53384,E,2.762,152.5,020416,,,A*54
$GPGGA,144558.00,3144.94534,N,03459.53489,E,1,08,0.00,296.5,M,,,,*03
$GPRMC,144558.00,A,3144.94534,N,03459.53489,E,2.762,132.9,020416,,,A*5B
$GPGGA,144559.00,3144.94538,N,03459.53580,E,1,08,0.00,297.2,M,,,,*00
$GPRMC,144559.00,A,3144.94538,N,03459.53580,E,2.762,164.3,020416,,,A*57
$GPGGA,144601.00,3144.94550,N,03459.53732,E,1,08,0.00,298.4,M,,,,*02
$GPRMC,144601.00,A,3144.94550,N,03459.53732,E,2.760,119.6,020416,,,A*51
$GPGGA,144602.00,3144.94560,N,03459.53802,E,1,08,0.00,298.9,M,,,,*03
$GPRMC,144602.00,A,3144.94560,N,03459.53802,E,2.758,121.2,020416,,,A*59
$GPGGA,144604.00,3144.94619,N,03459.53938,E,1,08,0.00,297.7,M,,,,*01
$GPRMC,144604.00,A,3144.94619,N,03459.53938,E,2.753,134.0,020416,,,A*57
$GPGGA,144606.00,3144.94685,N,03459.54093,E,1,08,0.00,297.2,M,,,,*0C
$GPRMC,144606.00,A,3144.94685,N,03459.54093,E,2.750,123.5,020416,,,A*5F
$GPGGA,144607.00,3144.94691,N,03459.54165,E,1,08,0.00,298.1,M,,,,*0C
$GPRMC,144607.00,A,3144.94691,N,03459.54165,E,2.749,128.0,020416,,,A*55
$GPGGA,144609.00,3144.94709,N,03459.54288,E,1,08,0.00,294.5,M,,,,*0A
$GPRMC,144609.00,A,3144.94709,N,03459.54288,E,2.744,38.2,020416,,,A*64
$GPGGA,144610.00,3144.94728,N,03459.54346,E,1,08,0.00,295.4,M,,,,*02
$GPRMC,144610.00,A,3144.94728,N,03459.54346,E,2.741,43.4,020416,,,A*63
$GPGGA,144611.00,3144.94749,N,03459.54426,E,1,08,0.00,295.2,M,,,,*03
$GPRMC,144611.00,A,3144.94749,N,03459.54426,E,2.740,43.0,020416,,,A*61
$GPGGA,144613.00,3144.94779,N,03459.54618,E,1,08,0.00,296.7,M,,,,*0B
$GPRMC,144613.00,A,3144.94779,N,03459.54618,E,2.741,96.9,020416,,,A*6F
$GPGGA,144614.00,3144.94783,N,03459.54717,E,1,08,0.00,295.6,M,,,,*05
$GPRMC,144614.00,A,3144.94783,N,03459.54717,E,2.741,125.8,020416,,,A*5B
$GPGGA,144616.00,3144.94779,N,03459.54932,E,1,08,0.00,293.9,M,,,,*02
$GPRMC,144616.00,A,3144.94779,N,03459.54932,E,2.744,98.4,020416,,,A*6B
$GPGGA,144617.00,3144.94804,N,03459.55040,E,1,08,0.00,293.3,M,,,,*01
$GPRMC,144617.00,A,3144.94804,N,03459.55040,E,2.746,102.1,020416,,,A*57
$GPGGA,144619.00,3144.94893,N,03459.55244,E,1,08,0.00,294.6,M,,,,*05
$GPRMC,144619.00,A,3144.94893,N,03459.55244,E,2.747,114.3,020416,,,A*55
$GPGGA,144621.00,3144.94935,N,03459.55446,E,1,08,0.00,299.2,M,,,,*0E
$GPRMC,144621.00,A,3144.94935,N,03459.55446,E,2.748,103.4,020416,,,A*59
$GPGGA,144622.00,3144.94953,N,03459.55541,E,1,08,0.00,298.6,M,,,,*0E
$GPRMC,144622.00,A,3144.94953,N,03459.55541,E,2.748,107.3,020416,,,A*5F
$GPGGA,144624.00,3144.95016,N,03459.55675,E,1,08,0.00,302.9,M,,,,*08
$GPRMC,144624.00,A,3144.95016,N,03459.55675,E,2.744,112.6,020416,,,A*59
$GPGGA,144625.00,3144.95040,N,03459.55743,E,1,08,0.00,303.0,M,,,,*06
$GPRMC,144625.00,A,3144.95040,N,03459.55743,E,2.742,111.7,020416,,,A*5B
$GPGGA,144626.00,3144.95051,N,03459.55824,E,1,08,0.00,300.6,M,,,,*0E
$GPRMC,144626.00,A,3144.95051,N,03459.55824,E,2.741,103.1,020416,,,A*50
$GPGGA,144627.00,3144.95049,N,03459.55907,E,1,08,0.00,301.8,M,,,,*09
$GPRMC,144627.00,A,3144.95049,N,03459.55907,E,2.740,120.4,020416,,,A*5D
$GPGGA,144629.00,3144.95061,N,03459.56079,E,1,08,0.00,302.4,M,,,,*01
$GPRMC,144629.00,A,3144.95061,N,03459.56079,E,2.740,121.5,020416,,,A*5A
$GPGGA,144631.00,3144.95077,N,03459.56264,E,1,08,0.00,303.2,M,,,,*06
$GPRMC,144631.00,A,3144.95077,N,03459.56264,E,2.740,71.9,020416,,,A*62
$GPGGA,144632.00,3144.95086,N,03459.56354,E,1,08,0.00,303.2,M,,,,*09
$GPRMC,144632.00,A,3144.95086,N,03459.56354,E,2.740,124.0,020416,,,A*55
$GPGGA,144634.00,3144.95140,N,03459.56558,E,1,08,0.00,302.1,M,,,,*0C
$GPRMC,144634.00,A,3144.95140,N,03459.56558,E,2.741,46.0,020416,,,A*66
$GPGGA,144636.00,3144.95210,N,03459.56766,E,1,08,0.00,300.6,M,,,,*02
$GPRMC,144636.00,A,3144.95210,N,03459.56766,E,2.743,12.1,020416,,,A*6F
$GPGGA,144637.00,3144.95238,N,03459.56873,E,1,08,0.00,301.2,M,,,,*07
$GPRMC,144637.00,A,3144.95238,N,03459.56873,E,2.744,5.4,020416,,,A*5B
$GPGGA,144638.00,3144.95279,N,03459.56956,E,1,08,0.00,299.8,M,,,,*01
$GPRMC,144638.00,A,3144.95279,N,03459.56956,E,2.743,26.3,020416,,,A*66
$GPGGA,144640.00,3144.95346,N,03459.57111,E,1,08,0.00,299.7,M,,,,*06
$GPRMC,144640.00,A,3144.95346,N,03459.57111,E,2.741,64.9,020416,,,A*60
$GPGGA,144642.00,3144.95410,N,03459.57282,E,1,08,0.00,298.9,M,,,,*06
$GPRMC,144642.00,A,3144.95410,N,03459.57282,E,2.740,72.1,020416,,,A*61
$GPGGA,144644.00,3144.95463,N,03459.57464,E,1,08,0.00,300.0,M,,,,*03
$GPRMC,144644.00,A,3144.95463,N,03459.57464,E,2.740,58.5,020416,,,A*61
$GPGGA,144646.00,3144.95505,N,03459.57644,E,1,08,0.00,301.1,M,,,,*00
$GPRMC,144646.00,A,3144.95505,N,03459.57644,E,2.739,61.8,020416,,,A*6B
$GPGGA,144648.00,3144.95540,N,03459.57852,E,1,08,0.00,305.9,M,,,,*0A
$GPRMC,144648.00,A,3144.95540,N,03459.57852,E,2.741,169.0,020416,,,A*53
$GPGGA,144649.00,3144.95558,N,03459.57966,E,1,08,0.00,307.2,M,,,,*0D
$GPRMC,144649.00,A,3144.95558,N,03459.57966,E,2.743,160.5,020416,,,A*53
$GPGGA,144651.00,3144.95594,N,03459.58187,E,1,08,0.00,305.8,M,,,,*04
$GPRMC,144651.00,A,3144.95594,N,03459.58187,E,2.746,142.9,020416,,,A*5B
$GPGGA,144653.00,3144.95590,N,03459.58414,E,1,08,0.00,304.6,M,,,,*02
$GPRMC,144653.00,A,3144.95590,N,03459.58414,E,2.750,139.4,020416,,,A*54
$GPGGA,144655.00,3144.95616,N,03459.58619,E,1,08,0.00,304.2,M,,,,*02
$GPRMC,144655.00,A,3144.95616,N,03459.58619,E,2.751,126.2,020416,,,A*59
$GPGGA,144656.00,3144.95650,N,03459.58707,E,1,08,0.00,303.3,M,,,,*0B
$GPRMC,144656.00,A,3144.95650,N,03459.58707,E,2.751,105.3,020416,,,A*56
$GPGGA,144658.00,3144.95733,N,03459.58885,E,1,08,0.00,302.2,M,,,,*04
$GPRMC,144658.00,A,3144.95733,N,03459.58885,E,2.750,117.5,020416,,,A*5D
$GPGGA,144659.00,3144.95777,N,03459.58967,E,1,08,0.00,300.8,M,,,,*00
$GPRMC,144659.00,A,3144.95777,N,03459.58967,E,2.749,116.2,020416,,,A*5F
$GPGGA,144701.00,3144.95843,N,03459.59121,E,1,08,0.00,299.4,M,,,,*02
$GPRMC,144701.00,A,3144.95843,N,03459.59121,E,2.747,119.5,020416,,,A*56
$GPGGA,144703.00,3144.95895,N,03459.59281,E,1,08,0.00,302.4,M,,,,*01
$GPRMC,144703.00,A,3144.95895,N,03459.59281,E,2.745,113.1,020416,,,A*5A
$GPGGA,144704.00,3144.95902,N,03459.59372,E,1,08,0.00,305.0,M,,,,*07
$GPRMC,144704.00,A,3144.95902,N,03459.59372,E,2.745,119.2,020416,,,A*56
$GPGGA,144706.00,3144.95894,N,03459.59558,E,1,08,0.00,309.2,M,,,,*0B
$GPRMC,144706.00,A,3144.95894,N,03459.59558,E,2.746,109.5,020416,,,A*51
$GPGGA,144707.00,3144.95904,N,03459.59651,E,1,08,0.00,309.2,M,,,,*08
$GPRMC,144707.00,A,3144.95904,N,03459.59651,E,2.746,111.7,020416,,,A*59
$GPGGA,144708.00,3144.95931,N,03459.59739,E,1,08,0.00,306.4,M,,,,*07
$GPRMC,144708.00,A,3144.95931,N,03459.59739,E,2.746,116.3,020416,,,A*5C
$GPGGA,144710.00,3144.95981,N,03459.59907,E,1,08,0.00,306.2,M,,,,*00
$GPRMC,144710.00,A,3144.95981,N,03459.59907,E,2.745,117.7,020416,,,A*5B
$GPGGA,144711.00,3144.96003,N,03459.59994,E,1,08,0.00,309.3,M,,,,*05
$GPRMC,144711.00,A,3144.96003,N,03459.59994,E,2.745,106.2,020416,,,A*55
$GPGGA,144713.00,3144.96024,N,03459.60176,E,1,08,0.00,311.4,M,,,,*02
$GPRMC,144713.00,A,3144.96024,N,03459.60176,E,2.745,117.3,020416,,,A*5D
$GPGGA,144714.00,3144.96020,N,03459.60280,E,1,08,0.00,313.4,M,,,,*09
$GPRMC,144714.00,A,3144.96020,N,03459.60280,E,2.746,126.4,020416,,,A*52
$GPGGA,144716.00,3144.96041,N,03459.60484,E,1,08,0.00,314.0,M,,,,*0D
$GPRMC,144716.00,A,3144.96041,N,03459.60484,E,2.747,100.8,020416,,,A*5C
$GPGGA,144717.00,3144.96052,N,03459.60583,E,1,08,0.00,315.0,M,,,,*09
$GPRMC,144717.00,A,3144.96052,N,03459.60583,E,2.748,52.7,020416,,,A*6F
$GPGGA,144719.00,3144.96080,N,03459.60794,E,1,08,0.00,319.4,M,,,,*04
$GPRMC,144719.00,A,3144.96080,N,03459.60794,E,2.750,153.4,020416,,,A*50
$GPGGA,144721.00,3144.96119,N,03459.61014,E,1,08,0.00,320.7,M,,,,*09
$GPRMC,144721.00,A,3144.96119,N,03459.61014,E,2.753,114.3,020416,,,A*53
$GPGGA,144722.00,3144.96128,N,03459.61136,E,1,08,0.00,321.9,M,,,,*06
$GPRMC,144722.00,A,3144.96128,N,03459.61136,E,2.755,120.8,020416,,,A*59
$GPGGA,144724.00,3144.96149,N,03459.61371,E,1,08,0.00,322.1,M,,,,*0D
$GPRMC,144724.00,A,3144.96149,N,03459.61371,E,2.759,117.7,020416,,,A*5E
$GPGGA,144726.00,3144.96159,N,03459.61591,E,1,08,0.00,323.4,M,,,,*02
$GPRMC,144726.00,A,3144.96159,N,03459.61591,E,2.761,132.1,020416,,,A*5F
$GPGGA,144728.00,3144.96191,N,03459.61806,E,1,08,0.00,323.3,M,,,,*0C
$GPRMC,144728.00,A,3144.96191,N,03459.61806,E,2.764,150.9,020416,,,A*5F
$GPGGA,144730.00,3144.96287,N,03459.62006,E,1,08,0.00,318.0,M,,,,*01
$GPRMC,144730.00,A,3144.96287,N,03459.62006,E,2.765,161.0,020416,,,A*53
$GPGGA,144731.00,3144.96324,N,03459.62113,E,1,08,0.00,316.8,M,,,,*0B
$GPRMC,144731.00,A,3144.96324,N,03459.62113,E,2.766,167.7,020416,,,A*5D
$GPGGA,144732.00,3144.96332,N,03459.62221,E,1,08,0.00,315.9,M,,,,*0F
$GPRMC,144732.00,A,3144.96332,N,03459.62221,E,2.767,146.2,020416,,,A*5C
$GPGGA,144734.00,3144.96290,N,03459.62443,E,1,08,0.00,314.3,M,,,,*09
$GPRMC,144734.00,A,3144.96290,N,03459.62443,E,2.770,329.2,020416,,,A*5C
$GPGGA,144736.00,3144.96245,N,03459.62729,E,1,08,0.00,315.6,M,,,,*08
$GPRMC,144736.00,A,3144.96245,N,03459.62729,E,2.777,157.2,020416,,,A*55
$GPGGA,144738.00,3144.96215,N,03459.62921,E,1,08,0.00,312.9,M,,,,*0D
$GPRMC,144738.00,A,3144.96215,N,03459.62921,E,2.778,157.9,020416,,,A*5C
$GPGGA,144739.00,3144.96209,N,03459.62985,E,1,08,0.00,312.2,M,,,,*04
$GPRMC,144739.00,A,3144.96209,N,03459.62985,E,2.776,175.5,020416,,,A*5C
$GPGGA,144741.00,3144.96210,N,03459.63108,E,1,08,0.00,311.8,M,,,,*06
$GPRMC,144741.00,A,3144.96210,N,03459.63108,E,2.772,188.4,020416,,,A*50
$GPGGA,144742.00,3144.96210,N,03459.63164,E,1,08,0.00,311.6,M,,,,*01
$GPRMC,144742.00,A,3144.96210,N,03459.63164,E,2.770,161.7,020416,,,A*5F
$GPGGA,144744.00,3144.96201,N,03459.63273,E,1,08,0.00,309.4,M,,,,*09
$GPRMC,144744.00,A,3144.96201,N,03459.63273,E,2.765,190.2,020416,,,A*53
$GPGGA,144746.00,3144.96198,N,03459.63401,E,1,08,0.00,307.1,M,,,,*00
$GPRMC,144746.00,A,3144.96198,N,03459.63401,E,2.762,142.3,020416,,,A*58
$GPGGA,144747.00,3144.96203,N,03459.63387,E,1,08,0.00,306.7,M,,,,*0E
$GPRMC,144747.00,A,3144.96203,N,03459.63387,E,2.754,155.4,020416,,,A*55
$GPGGA,144748.00,3144.96191,N,03459.63441,E,1,08,0.00,307.0,M,,,,*02
$GPRMC,144748.00,A,3144.96191,N,03459.63441,E,2.752,129.7,020416,,,A*51
$GPGGA,144749.00,3144.96175,N,03459.63497,E,1,08,0.00,306.9,M,,,,*0A
$GPRMC,144749.00,A,3144.96175,N,03459.63497,E,2.750,22.3,020416,,,A*6D
$GPGGA,144750.00,3144.96153,N,03459.63547,E,1,08,0.00,301.2,M,,,,*06
$GPRMC,144750.00,A,3144.96153,N,03459.63547,E,2.747,158.4,020416,,,A*50
$GPGGA,144752.00,3144.96124,N,03459.63638,E,1,08,0.00,300.0,M,,,,*0C
$GPRMC,144752.00,A,3144.96124,N,03459.63638,E,2.742,137.7,020416,,,A*56
$GPGGA,144754.00,3144.96125,N,03459.63752,E,1,08,0.00,299.8,M,,,,*0F
$GPRMC,144754.00,A,3144.96125,N,03459.63752,E,2.738,110.9,020416,,,A*5A
$GPGGA,144756.00,3144.96117,N,03459.63926,E,1,08,0.00,300.1,M,,,,*09
$GPRMC,144756.00,A,3144.96117,N,03459.63926,E,2.737,141.8,020416,,,A*5E
$GPGGA,144758.00,3144.96039,N,03459.64117,E,1,08,0.00,299.2,M,,,,*05
$GPRMC,144758.00,A,3144.96039,N,03459.64117,E,2.738,70.6,020416,,,A*62
$GPGGA,144800.00,3144.95990,N,03459.64263,E,1,08,0.00,297.7,M,,,,*05
$GPRMC,144800.00,A,3144.95990,N,03459.64263,E,2.736,39.2,020416,,,A*6E
$GPGGA,144802.00,3144.95896,N,03459.64378,E,1,08,0.00,308.5,M,,,,*0E
$GPRMC,144802.00,A,3144.95896,N,03459.64378,E,2.733,200.2,020416,,,A*5D
$GPGGA,144804.00,3144.95763,N,03459.64588,E,1,08,0.00,308.9,M,,,,*08
$GPRMC,144804.00,A,3144.95763,N,03459.64588,E,2.735,152.7,020416,,,A*50
$GPGGA,144805.00,3144.95695,N,03459.64724,E,1,08,0.00,308.1,M,,,,*0D
$GPRMC,144805.00,A,3144.95695,N,03459.64724,E,2.738,148.2,020416,,,A*5E
$GPGGA,144806.00,3144.95640,N,03459.64856,E,1,08,0.00,306.6,M,,,,*05
$GPRMC,144806.00,A,3144.95640,N,03459.64856,E,2.741,162.8,020416,,,A*53
$GPGGA,144808.00,3144.95535,N,03459.65096,E,1,08,0.00,307.0,M,,,,*08
$GPRMC,144808.00,A,3144.95535,N,03459.65096,E,2.746,168.4,020416,,,A*58
$GPGGA,144809.00,3144.95459,N,03459.65205,E,1,08,0.00,311.7,M,,,,*0A
$GPRMC,144809.00,A,3144.95459,N,03459.65205,E,2.747,191.5,020416,,,A*5C
$GPGGA,144811.00,3144.95314,N,03459.65428,E,1,08,0.00,310.9,M,,,,*0B
$GPRMC,144811.00,A,3144.95314,N,03459.65428,E,2.751,168.9,020416,,,A*5F
$GPGGA,144813.00,3144.95190,N,03459.65640,E,1,08,0.00,310.5,M,,,,*07
$GPRMC,144813.00,A,3144.95190,N,03459.65640,E,2.753,157.5,020416,,,A*5D
$GPGGA,144814.00,3144.95151,N,03459.65766,E,1,08,0.00,309.1,M,,,,*04
$GPRMC,144814.00,A,3144.95151,N,03459.65766,E,2.755,165.5,020416,,,A*55
$GPGGA,144816.00,3144.95088,N,03459.65956,E,1,08,0.00,309.3,M,,,,*0C
$GPRMC,144816.00,A,3144.95088,N,03459.65956,E,2.757,163.7,020416,,,A*59
$GPGGA,144818.00,3144.95045,N,03459.66175,E,1,08,0.00,310.0,M,,,,*02
$GPRMC,144818.00,A,3144.95045,N,03459.66175,E,2.759,164.7,020416,,,A*55
$GPGGA,144819.00,3144.95020,N,03459.66284,E,1,08,0.00,311.2,M,,,,*0E
$GPRMC,144819.00,A,3144.95020,N,03459.66284,E,2.761,176.7,020416,,,A*52
$GPGGA,144820.00,3144.94989,N,03459.66381,E,1,08,0.00,310.4,M,,,,*0C
$GPRMC,144820.00,A,3144.94989,N,03459.66381,E,2.761,170.7,020416,,,A*51
$GPGGA,144822.00,3144.94901,N,03459.66519,E,1,08,0.00,311.4,M,,,,*08
$GPRMC,144822.00,A,3144.94901,N,03459.66519,E,2.759,82.7,020416,,,A*63
$GPGGA,144824.00,3144.94751,N,03459.66554,E,1,08,0.00,311.2,M,,,,*0A
$GPRMC,144824.00,A,3144.94751,N,03459.66554,E,2.751,153.7,020416,,,A*52
$GPGGA,144826.00,3144.94685,N,03459.66778,E,1,08,0.00,312.3,M,,,,*0E
$GPRMC,144826.00,A,3144.94685,N,03459.66778,E,2.754,171.1,020416,,,A*57
$GPGGA,144827.00,3144.94674,N,03459.66910,E,1,08,0.00,313.7,M,,,,*04
$GPRMC,144827.00,A,3144.94674,N,03459.66910,E,2.757,167.2,020416,,,A*5F
$GPGGA,144828.00,3144.94648,N,03459.67052,E,1,08,0.00,314.9,M,,,,*03
$GPRMC,144828.00,A,3144.94648,N,03459.67052,E,2.760,164.8,020416,,,A*5C
$GPGGA,144830.00,3144.94580,N,03459.67311,E,1,08,0.00,317.0,M,,,,*03
$GPRMC,144830.00,A,3144.94580,N,03459.67311,E,2.765,144.9,020416,,,A*50
$GPGGA,144831.00,3144.94556,N,03459.67428,E,1,08,0.00,316.2,M,,,,*07
$GPRMC,144831.00,A,3144.94556,N,03459.67428,E,2.767,154.7,020416,,,A*5A
$GPGGA,144833.00,3144.94481,N,03459.67661,E,1,08,0.00,318.1,M,,,,*0C
$GPRMC,144833.00,A,3144.94481,N,03459.67661,E,2.770,149.4,020416,,,A*55
$GPGGA,144834.00,3144.94434,N,03459.67786,E,1,08,0.00,318.4,M,,,,*08
$GPRMC,144834.00,A,3144.94434,N,03459.67786,E,2.772,155.6,020416,,,A*59
$GPGGA,144836.00,3144.94346,N,03459.68007,E,1,08,0.00,318.3,M,,,,*0E
$GPRMC,144836.00,A,3144.94346,N,03459.68007,E,2.775,142.5,020416,,,A*5A
$GPGGA,144837.00,3144.94308,N,03459.68096,E,1,08,0.00,316.9,M,,,,*09
$GPRMC,144837.00,A,3144.94308,N,03459.68096,E,2.775,169.5,020416,,,A*50
$GPGGA,144839.00,3144.94242,N,03459.68289,E,1,08,0.00,318.2,M,,,,*01
$GPRMC,144839.00,A,3144.94242,N,03459.68289,E,2.777,121.1,020416,,,A*57
$GPGGA,144841.00,3144.94205,N,03459.68467,E,1,08,0.00,319.3,M,,,,*0B
$GPRMC,144841.00,A,3144.94205,N,03459.68467,E,2.777,99.6,020416,,,A*68
$GPGGA,144843.00,3144.94319,N,03459.68615,E,1,08,0.00,315.3,M,,,,*0E
$GPRMC,144843.00,A,3144.94319,N,03459.68615,E,2.774,115.5,020416,,,A*54
$GPGGA,144845.00,3144.94273,N,03459.68804,E,1,08,0.00,315.1,M,,,,*09
$GPRMC,144845.00,A,3144.94273,N,03459.68804,E,2.775,99.1,020416,,,A*61
$GPGGA,144847.00,3144.94217,N,03459.68975,E,1,08,0.00,313.7,M,,,,*0E
$GPRMC,144847.00,A,3144.94217,N,03459.68975,E,2.774,95.5,020416,,,A*6F
$GPGGA,144848.00,3144.94095,N,03459.69005,E,1,08,0.00,311.9,M,,,,*0A
$GPRMC,144848.00,A,3144.94095,N,03459.69005,E,2.772,138.2,020416,,,A*50
$GPGGA,144849.00,3144.94032,N,03459.69078,E,1,08,0.00,311.6,M,,,,*03
$GPRMC,144849.00,A,3144.94032,N,03459.69078,E,2.771,110.2,020416,,,A*5F
$GPGGA,144851.00,3144.93930,N,03459.69250,E,1,08,0.00,310.7,M,,,,*0E
$GPRMC,144851.00,A,3144.93930,N,03459.69250,E,2.771,103.8,020416,,,A*5A
$GPGGA,144852.00,3144.93885,N,03459.69336,E,1,08,0.00,309.3,M,,,,*0F
$GPRMC,144852.00,A,3144.93885,N,03459.69336,E,2.771,76.3,020416,,,A*6F
$GPGGA,144853.00,3144.93853,N,03459.69420,E,1,08,0.00,308.4,M,,,,*03
$GPRMC,144853.00,A,3144.93853,N,03459.69420,E,2.771,89.0,020416,,,A*66
$GPGGA,144854.00,3144.93837,N,03459.69505,E,1,08,0.00,308.9,M,,,,*0D
$GPRMC,144854.00,A,3144.93837,N,03459.69505,E,2.770,94.3,020416,,,A*6B
$GPGGA,144855.00,3144.93849,N,03459.69609,E,1,08,0.00,308.2,M,,,,*01
$GPRMC,144855.00,A,3144.93849,N,03459.69609,E,2.771,67.5,020416,,,A*67
$GPGGA,144857.00,3144.93914,N,03459.69830,E,1,08,0.00,310.1,M,,,,*04
$GPRMC,144857.00,A,3144.93914,N,03459.69830,E,2.773,95.5,020416,,,A*67
$GPGGA,144858.00,3144.93945,N,03459.69945,E,1,08,0.00,309.8,M,,,,*0D
$GPRMC,144858.00,A,3144.93945,N,03459.69945,E,2.774,111.7,020416,,,A*57
$GPGGA,144859.00,3144.93964,N,03459.70067,E,1,08,0.00,310.1,M,,,,*0F
$GPRMC,144859.00,A,3144.93964,N,03459.70067,E,2.776,87.1,020416,,,A*6E
$GPGGA,144901.00,3144.93939,N,03459.70351,E,1,08,0.00,310.3,M,,,,*0F
$GPRMC,144901.00,A,3144.93939,N,03459.70351,E,2.782,101.8,020416,,,A*51
$GPGGA,144903.00,3144.93794,N,03459.70649,E,1,08,0.00,311.1,M,,,,*0B
$GPRMC,144903.00,A,3144.93794,N,03459.70649,E,2.789,98.9,020416,,,A*6D
$GPGGA,144904.00,3144.93694,N,03459.70782,E,1,08,0.00,311.2,M,,,,*08
$GPRMC,144904.00,A,3144.93694,N,03459.70782,E,2.792,103.9,020416,,,A*54
$GPGGA,144906.00,3144.93421,N,03459.71103,E,1,08,0.00,314.8,M,,,,*07
$GPRMC,144906.00,A,3144.93421,N,03459.71103,E,2.802,144.8,020416,,,A*50
$GPGGA,144907.00,3144.93305,N,03459.71214,E,1,08,0.00,315.1,M,,,,*0A
$GPRMC,144907.00,A,3144.93305,N,03459.71214,E,2.804,200.0,020416,,,A*58
$GPGGA,144908.00,3144.93214,N,03459.71244,E,1,08,0.00,314.1,M,,,,*00
$GPRMC,144908.00,A,3144.93214,N,03459.71244,E,2.801,182.4,020416,,,A*5B
$GPGGA,144909.00,3144.93147,N,03459.71253,E,1,08,0.00,317.4,M,,,,*04
$GPRMC,144909.00,A,3144.93147,N,03459.71253,E,2.796,212.4,020416,,,A*52
$GPGGA,144911.00,3144.93126,N,03459.71247,E,1,08,0.00,314.1,M,,,,*09
$GPRMC,144911.00,A,3144.93126,N,03459.71247,E,2.786,199.2,020416,,,A*5E
$GPGGA,144913.00,3144.93091,N,03459.71264,E,1,08,0.00,315.0,M,,,,*07
$GPRMC,144913.00,A,3144.93091,N,03459.71264,E,2.777,216.3,020416,,,A*5B
$GPGGA,144915.00,3144.93002,N,03459.71268,E,1,08,0.00,316.5,M,,,,*01
$GPRMC,144915.00,A,3144.93002,N,03459.71268,E,2.768,128.3,020416,,,A*5B
$GPGGA,144917.00,3144.92826,N,03459.71225,E,1,08,0.00,316.1,M,,,,*01
$GPRMC,144917.00,A,3144.92826,N,03459.71225,E,2.757,108.0,020416,,,A*52
$GPGGA,144919.00,3144.92671,N,03459.71204,E,1,08,0.00,315.3,M,,,,*01
$GPRMC,144919.00,A,3144.92671,N,03459.71204,E,2.747,116.3,020416,,,A*5E
$GPGGA,144921.00,3144.92546,N,03459.71266,E,1,08,0.00,314.7,M,,,,*0C
$GPRMC,144921.00,A,3144.92546,N,03459.71266,E,2.742,106.6,020416,,,A*57
$GPGGA,144923.00,3144.92442,N,03459.71375,E,1,08,0.00,315.8,M,,,,*06
$GPRMC,144923.00,A,3144.92442,N,03459.71375,E,2.739,91.3,020416,,,A*65
$GPGGA,144924.00,3144.92390,N,03459.71417,E,1,08,0.00,316.2,M,,,,*03
$GPRMC,144924.00,A,3144.92390,N,03459.71417,E,2.737,70.5,020416,,,A*6E
$GPGGA,144926.00,3144.92243,N,03459.71554,E,1,08,0.00,316.5,M,,,,*0F
$GPRMC,144926.00,A,3144.92243,N,03459.71554,E,2.735,206.4,020416,,,A*55
$GPGGA,144927.00,3144.92139,N,03459.71600,E,1,08,0.00,313.6,M,,,,*04
$GPRMC,144927.00,A,3144.92139,N,03459.71600,E,2.734,232.8,020416,,,A*52
$GPGGA,144929.00,3144.91922,N,03459.71673,E,1,08,0.00,312.1,M,,,,*09
$GPRMC,144929.00,A,3144.91922,N,03459.71673,E,2.730,147.8,020416,,,A*5C
$GPGGA,144931.00,3144.91760,N,03459.71795,E,1,08,0.00,309.9,M,,,,*03
$GPRMC,144931.00,A,3144.91760,N,03459.71795,E,2.728,149.7,020416,,,A*5C
$GPGGA,144932.00,3144.91689,N,03459.71853,E,1,08,0.00,309.8,M,,,,*02
$GPRMC,144932.00,A,3144.91689,N,03459.71853,E,2.727,133.7,020416,,,A*5E
$GPGGA,144934.00,3144.91532,N,03459.71942,E,1,08,0.00,307.3,M,,,,*03
$GPRMC,144934.00,A,3144.91532,N,03459.71942,E,2.724,196.0,020416,,,A*51
$GPGGA,144935.00,3144.91447,N,03459.71946,E,1,08,0.00,306.5,M,,,,*02
$GPRMC,144935.00,A,3144.91447,N,03459.71946,E,2.720,224.8,020416,,,A*51
$GPGGA,144936.00,3144.91367,N,03459.71934,E,1,08,0.00,304.5,M,,,,*03
$GPRMC,144936.00,A,3144.91367,N,03459.71934,E,2.715,221.9,020416,,,A*50
$GPGGA,144938.00,3144.91254,N,03459.71871,E,1,08,0.00,307.3,M,,,,*09
$GPRMC,144938.00,A,3144.91254,N,03459.71871,E,2.704,256.0,020416,,,A*56
$GPGGA,144940.00,3144.91167,N,03459.71766,E,1,08,0.00,310.7,M,,,,*0E
$GPRMC,144940.00,A,3144.91167,N,03459.71766,E,2.690,276.5,020416,,,A*58
$GPGGA,144941.00,3144.91105,N,03459.71711,E,1,08,0.00,310.1,M,,,,*0D
$GPRMC,144941.00,A,3144.91105,N,03459.71711,E,2.683,291.2,020416,,,A*51
$GPGGA,144942.00,3144.91032,N,03459.71661,E,1,08,0.00,309.6,M,,,,*02
$GPRMC,144942.00,A,3144.91032,N,03459.71661,E,2.676,303.2,020416,,,A*51
$GPGGA,144944.00,3144.90855,N,03459.71549,E,1,08,0.00,312.8,M,,,,*01
$GPRMC,144944.00,A,3144.90855,N,03459.71549,E,2.663,154.3,020416,,,A*53
$GPGGA,144946.00,3144.90688,N,03459.71411,E,1,08,0.00,314.0,M,,,,*0F
$GPRMC,144946.00,A,3144.90688,N,03459.71411,E,2.648,184.2,020416,,,A*56
$GPGGA,144948.00,3144.90532,N,03459.71276,E,1,08,0.00,315.1,M,,,,*04
$GPRMC,144948.00,A,3144.90532,N,03459.71276,E,2.634,154.4,020416,,,A*5D
$GPGGA,144949.00,3144.90434,N,03459.71201,E,1,08,0.00,314.1,M,,,,*03
$GPRMC,144949.00,A,3144.90434,N,03459.71201,E,2.626,151.0,020416,,,A*59
$GPGGA,144950.00,3144.90385,N,03459.71151,E,1,08,0.00,310.9,M,,,,*0C
$GPRMC,144950.00,A,3144.90385,N,03459.71151,E,2.619,141.0,020416,,,A*57
$GPGGA,144952.00,3144.90293,N,03459.71072,E,1,08,0.00,310.7,M,,,,*06
$GPRMC,144952.00,A,3144.90293,N,03459.71072,E,2.608,283.0,020416,,,A*5E
$GPGGA,144953.00,3144.90266,N,03459.71079,E,1,08,0.00,317.3,M,,,,*05
$GPRMC,144953.00,A,3144.90266,N,03459.71079,E,2.604,284.7,020416,,,A*52
$GPGGA,144954.00,3144.90204,N,03459.71061,E,1,08,0.00,319.2,M,,,,*00
$GPRMC,144954.00,A,3144.90204,N,03459.71061,E,2.599,283.7,020416,,,A*58
$GPGGA,144955.00,3144.90133,N,03459.71057,E,1,08,0.00,320.3,M,,,,*08
$GPRMC,144955.00,A,3144.90133,N,03459.71057,E,2.595,273.5,020416,,,A*5A
$GPGGA,144957.00,3144.89970,N,03459.71018,E,1,08,0.00,321.1,M,,,,*05
$GPRMC,144957.00,A,3144.89970,N,03459.71018,E,2.586,257.1,020416,,,A*54
$GPGGA,144959.00,3144.89808,N,03459.70886,E,1,08,0.00,321.4,M,,,,*0E
$GPRMC,144959.00,A,3144.89808,N,03459.70886,E,2.573,222.2,020416,,,A*51
$GPGGA,145001.00,3144.89657,N,03459.70743,E,1,08,0.00,322.9,M,,,,*07
$GPRMC,145001.00,A,3144.89657,N,03459.70743,E,2.559,222.3,020416,,,A*5F
$GPGGA,145003.00,3144.89525,N,03459.70527,E,1,08,0.00,322.7,M,,,,*0D
$GPRMC,145003.00,A,3144.89525,N,03459.70527,E,2.541,207.1,020416,,,A*57
$GPGGA,145004.00,3144.89457,N,03459.70427,E,1,08,0.00,322.7,M,,,,*0F
$GPRMC,145004.00,A,3144.89457,N,03459.70427,E,2.532,219.6,020416,,,A*59
$GPGGA,145006.00,3144.89306,N,03459.70208,E,1,08,0.00,323.1,M,,,,*02
$GPRMC,145006.00,A,3144.89306,N,03459.70208,E,2.515,223.4,020416,,,A*5D
$GPGGA,145007.00,3144.89226,N,03459.70094,E,1,08,0.00,322.2,M,,,,*05
$GPRMC,145007.00,A,3144.89226,N,03459.70094,E,2.506,229.3,020416,,,A*57
$GPGGA,145009.00,3144.89048,N,03459.69836,E,1,08,0.00,322.2,M,,,,*09
$GPRMC,145009.00,A,3144.89048,N,03459.69836,E,2.487,232.9,020416,,,A*53
$GPGGA,145010.00,3144.88932,N,03459.69687,E,1,08,0.00,322.1,M,,,,*03
$GPRMC,145010.00,A,3144.88932,N,03459.69687,E,2.477,227.8,020416,,,A*50
$GPGGA,145012.00,3144.88674,N,03459.69348,E,1,08,0.00,322.2,M,,,,*09
$GPRMC,145012.00,A,3144.88674,N,03459.69348,E,2.455,262.0,020416,,,A*50
$GPGGA,145014.00,3144.88328,N,03459.68883,E,1,08,0.00,321.2,M,,,,*0D
$GPRMC,145014.00,A,3144.88328,N,03459.68883,E,2.429,261.0,020416,,,A*5F
$GPGGA,145016.00,3144.87999,N,03459.68387,E,1,08,0.00,319.5,M,,,,*03
$GPRMC,145016.00,A,3144.87999,N,03459.68387,E,2.402,286.6,020416,,,A*5B
$GPGGA,145017.00,3144.87876,N,03459.68148,E,1,08,0.00,318.3,M,,,,*04
$GPRMC,145017.00,A,3144.87876,N,03459.68148,E,2.388,287.8,020416,,,A*51
$GPGGA,145019.00,3144.87751,N,03459.67706,E,1,08,0.00,316.7,M,,,,*09
$GPRMC,145019.00,A,3144.87751,N,03459.67706,E,2.360,312.5,020416,,,A*50
$GPGGA,145021.00,3144.87681,N,03459.67385,E,1,08,0.00,315.0,M,,,,*05
$GPRMC,145021.00,A,3144.87681,N,03459.67385,E,2.338,324.5,020416,,,A*50
$GPGGA,145022.00,3144.87756,N,03459.67464,E,1,08,0.00,314.3,M,,,,*07
$GPRMC,145022.00,A,3144.87756,N,03459.67464,E,2.337,330.6,020416,,,A*59
$GPGGA,145024.00,3144.87777,N,03459.67424,E,1,08,0.00,315.8,M,,,,*0C
$GPRMC,145024.00,A,3144.87777,N,03459.67424,E,2.327,298.6,020416,,,A*5A
$GPGGA,145026.00,3144.87689,N,03459.67388,E,1,08,0.00,315.6,M,,,,*01
$GPRMC,145026.00,A,3144.87689,N,03459.67388,E,2.319,278.7,020416,,,A*5B
$GPGGA,145027.00,3144.87612,N,03459.67402,E,1,08,0.00,315.4,M,,,,*05
$GPRMC,145027.00,A,3144.87612,N,03459.67402,E,2.318,296.1,020416,,,A*5A
$GPGGA,145029.00,3144.87474,N,03459.67404,E,1,08,0.00,316.5,M,,,,*0D
$GPRMC,145029.00,A,3144.87474,N,03459.67404,E,2.312,182.3,020416,,,A*5E
$GPGGA,145031.00,3144.87431,N,03459.67302,E,1,08,0.00,315.0,M,,,,*02
$GPRMC,145031.00,A,3144.87431,N,03459.67302,E,2.301,183.7,020416,,,A*50
$GPGGA,145033.00,3144.87357,N,03459.67286,E,1,08,0.00,313.5,M,,,,*09
$GPRMC,145033.00,A,3144.87357,N,03459.67286,E,2.294,194.2,020416,,,A*56
$GPGGA,145035.00,3144.87274,N,03459.67258,E,1,08,0.00,314.6,M,,,,*08
$GPRMC,145035.00,A,3144.87274,N,03459.67258,E,2.286,306.9,020416,,,A*52
$GPGGA,145037.00,3144.87190,N,03459.67250,E,1,08,0.00,313.6,M,,,,*0C
$GPRMC,145037.00,A,3144.87190,N,03459.67250,E,2.280,277.0,020416,,,A*59
$GPGGA,145039.00,3144.87100,N,03459.67203,E,1,08,0.00,307.3,M,,,,*0D
$GPRMC,145039.00,A,3144.87100,N,03459.67203,E,2.272,268.1,020416,,,A*5A
$GPGGA,145041.00,3144.87029,N,03459.67165,E,1,08,0.00,304.7,M,,,,*0C
$GPRMC,145041.00,A,3144.87029,N,03459.67165,E,2.264,322.8,020416,,,A*5D
$GPGGA,145043.00,3144.86972,N,03459.67117,E,1,08,0.00,302.5,M,,,,*09
$GPRMC,145043.00,A,3144.86972,N,03459.67117,E,2.256,303.2,020416,,,A*54
$GPGGA,145045.00,3144.86903,N,03459.67039,E,1,08,0.00,305.0,M,,,,*06
$GPRMC,145045.00,A,3144.86903,N,03459.67039,E,2.246,293.2,020416,,,A*50
$GPGGA,145047.00,3144.86821,N,03459.66946,E,1,08,0.00,305.0,M,,,,*05
$GPRMC,145047.00,A,3144.86821,N,03459.66946,E,2.236,279.3,020416,,,A*51
$GPGGA,145048.00,3144.86796,N,03459.66872,E,1,08,0.00,303.2,M,,,,*0B
$GPRMC,145048.00,A,3144.86796,N,03459.66872,E,2.230,224.8,020416,,,A*5E
$GPGGA,145050.00,3144.86741,N,03459.66693,E,1,08,0.00,302.8,M,,,,*02
$GPRMC,145050.00,A,3144.86741,N,03459.66693,E,2.215,324.3,020416,,,A*51
$GPGGA,145051.00,3144.86705,N,03459.66603,E,1,08,0.00,303.4,M,,,,*07
$GPRMC,145051.00,A,3144.86705,N,03459.66603,E,2.208,289.5,020416,,,A*55
$GPGGA,145052.00,3144.86714,N,03459.66548,E,1,08,0.00,302.9,M,,,,*04
$GPRMC,145052.00,A,3144.86714,N,03459.66548,E,2.202,294.5,020416,,,A*5C
$GPGGA,145053.00,3144.86716,N,03459.66479,E,1,08,0.00,300.4,M,,,,*0B
$GPRMC,145053.00,A,3144.86716,N,03459.66479,E,2.196,295.8,020416,,,A*5E
$GPGGA,145054.00,3144.86721,N,03459.66441,E,1,08,0.00,301.3,M,,,,*05
$GPRMC,145054.00,A,3144.86721,N,03459.66441,E,2.190,308.8,020416,,,A*55
$GPGGA,145056.00,3144.86622,N,03459.66457,E,1,08,0.00,299.5,M,,,,*04
$GPRMC,145056.00,A,3144.86622,N,03459.66457,E,2.186,307.1,020416,,,A*53
$GPGGA,145058.00,3144.86647,N,03459.66688,E,1,08,0.00,296.4,M,,,,*07
$GPRMC,145058.00,A,3144.86647,N,03459.66688,E,2.189,290.8,020416,,,A*57
$GPGGA,145100.00,3144.86576,N,03459.66784,E,1,08,0.00,295.9,M,,,,*09
$GPRMC,145100.00,A,3144.86576,N,03459.66784,E,2.188,269.4,020416,,,A*5C
$GPGGA,145101.00,3144.86591,N,03459.66533,E,1,08,0.00,300.4,M,,,,*0F
$GPRMC,145101.00,A,3144.86591,N,03459.66533,E,2.173,291.6,020416,,,A*5B
$GPGGA,145103.00,3144.86607,N,03459.66243,E,1,08,0.00,300.7,M,,,,*02
$GPRMC,145103.00,A,3144.86607,N,03459.66243,E,2.154,256.8,020416,,,A*55
