1459411044381;$GPGSV,3,1,10,03,21,147,31,23,42,071,25,30,42,243,31,02,12,293,
1459411044384;$GPGSV,3,2,10,05,,,,06,23,248,,07,70,279,,09,61,022,
1459411044385;$GPGSV,3,3,10,16,17,043,,28,02,189,
1459411044385;$GLGSV,2,1,06,65,64,357,24,74,27,028,,66,13,324,,75,80,340,
1459411044386;$GLGSV,2,2,06,71,02,133,,72,49,116,
1459411044386;$GPGGA,,,,,,0,,,,,,,,
1459411044386;$GNGNS,,,,,,NN,,,,,,
1459411044400;$GPVTG,,T,,M,,N,,K,N
1459411044400;$GPRMC,,V,,,,,,,,,,N
1459411044414;$GPGSA,A,1,,,,,,,,,,,,,,,
1459411044415;$GNGSA,A,1,,,,,,,,,,,,,,,
1459411045381;$GPGSV,3,1,10,03,21,147,30,06,23,248,19,07,70,279,29,09,61,022,29
1459411045382;$GPGSV,3,2,10,23,42,071,23,28,02,189,18,30,42,243,29,02,12,293,
1459411045382;$GPGSV,3,3,10,05,,,,16,17,043,
1459411045382;$GLGSV,2,1,06,66,13,324,28,65,64,357,23,72,49,116,24,74,27,028,
1459411045384;$GLGSV,2,2,06,75,80,341,,71,02,133,
1459411045398;$GPGGA,075726.0,3205.973219,N,03512.309201,E,1,06,1.0,705.1,M,19.0,M,,
1459411045399;$GNGNS,075726.0,3205.973219,N,03512.309201,E,AA,09,1.0,705.1,19.0,,
1459411045401;$GPVTG,131.7,T,128.7,M,0.0,N,0.0,K,A
1459411045412;$GPRMC,075726.0,A,3205.973219,N,03512.309201,E,0.0,131.7,310316,3.0,E,A
1459411045413;$GPGSA,A,2,03,06,07,09,23,30,,,,,,,1.3,1.0,0.8
1459411045421;$GNGSA,A,2,03,06,07,09,23,30,,,,,,,1.3,1.0,0.8
1459411045422;$GNGSA,A,2,65,66,72,,,,,,,,,,1.3,1.0,0.8
1459411046347;$GPGSV,3,1,10,03,21,147,27,06,23,248,24,07,70,279,29,09,61,022,26
1459411046350;$GPGSV,3,2,10,16,17,043,16,23,42,071,22,28,02,189,19,30,42,243,30
1459411046350;$GPGSV,3,3,10,02,12,293,,05,,,
1459411046352;$GLGSV,2,1,06,66,13,324,24,65,64,357,25,72,49,116,25,74,27,028,
1459411046354;$GLGSV,2,2,06,75,80,341,,71,02,133,
1459411046354;$GPGGA,075727.0,3205.973677,N,03512.309163,E,1,07,0.9,704.2,M,19.0,M,,
1459411046355;$GNGNS,075727.0,3205.973677,N,03512.309163,E,AA,10,0.9,704.2,19.0,,
1459411046355;$GPVTG,131.7,T,128.7,M,0.0,N,0.0,K,A
1459411046355;$GPRMC,075727.0,A,3205.973677,N,03512.309163,E,0.0,131.7,310316,3.0,E,A
1459411046355;$GPGSA,A,2,03,06,07,09,16,23,30,,,,,,1.2,0.9,0.8
1459411046355;$GNGSA,A,2,03,06,07,09,16,23,30,,,,,,1.2,0.9,0.8
1459411046355;$GNGSA,A,2,65,66,72,,,,,,,,,,1.2,0.9,0.8
1459411047346;$GPGSV,3,1,10,03,21,147,29,06,23,248,31,07,70,279,32,09,61,022,27
1459411047348;$GPGSV,3,2,10,16,17,043,18,23,42,071,26,28,02,189,20,30,42,243,33
1459411047349;$GPGSV,3,3,10,02,12,293,,05,,,
1459411047349;$GLGSV,2,1,06,66,13,324,28,75,80,341,18,65,64,357,25,72,49,116,28
1459411047349;$GLGSV,2,2,06,74,27,028,,71,02,133,
1459411047350;$GPGGA,075728.0,3205.973664,N,03512.309159,E,1,07,0.9,705.0,M,19.0,M,,
1459411047352;$GNGNS,075728.0,3205.973664,N,03512.309159,E,AA,11,0.9,705.0,19.0,,
1459411047352;$GPVTG,131.7,T,128.7,M,0.0,N,0.0,K,A
1459411047353;$GPRMC,075728.0,A,3205.973664,N,03512.309159,E,0.0,131.7,310316,3.0,E,A
1459411047353;$GPGSA,A,2,03,06,07,09,16,23,30,,,,,,1.2,0.9,0.8
1459411047353;$GNGSA,A,2,03,06,07,09,16,23,30,,,,,,1.2,0.9,0.8
1459411047366;$GNGSA,A,2,65,66,72,75,,,,,,,,,1.2,0.9,0.8
1459411048499;$GPGSV,3,1,10,03,21,147,17,06,23,248,26,07,70,279,23,09,61,022,29
1459411048499;$GPGSV,3,2,10,16,17,043,17,23,42,071,20,28,02,189,19,30,42,243,30
1459411048503;$GPGSV,3,3,10,02,12,293,,05,,,
1459411048517;$GLGSV,2,1,06,66,13,324,22,75,80,341,17,65,64,357,22,72,49,116,19
1459411048518;$GLGSV,2,2,06,74,27,028,,71,02,133,
1459411048518;$GPGGA,075729.0,3205.973618,N,03512.309134,E,1,07,0.9,704.6,M,19.0,M,,
1459411048537;$GNGNS,075729.0,3205.973618,N,03512.309134,E,AA,11,0.9,704.6,19.0,,
1459411048543;$GPVTG,131.7,T,128.7,M,0.0,N,0.0,K,A
1459411048546;$GPRMC,075729.0,A,3205.973618,N,03512.309134,E,0.0,131.7,310316,3.0,E,A
1459411048546;$GPGSA,A,2,03,06,07,09,16,23,30,,,,,,1.2,0.9,0.8
1459411048547;$GNGSA,A,2,03,06,07,09,16,23,30,,,,,,1.2,0.9,0.8
1459411048547;$GNGSA,A,2,65,66,72,75,,,,,,,,,1.2,0.9,0.8
1459411049352;$GPGSV,3,1,10,03,21,147,17,06,23,248,22,07,70,279,24,09,61,022,24
1459411049352;$GPGSV,3,2,10,16,17,043,16,23,42,071,18,28,02,189,18,30,42,243,28
1459411049353;$GPGSV,3,3,10,02,12,293,,05,,,
1459411049355;$GLGSV,2,1,06,66,13,324,16,75,80,341,17,65,64,357,22,72,49,116,21
1459411049378;$GLGSV,2,2,06,74,27,028,,71,02,133,
1459411049379;$GPGGA,075730.0,3205.973601,N,03512.309204,E,1,07,0.9,704.4,M,19.0,M,,
1459411049379;$GNGNS,075730.0,3205.973601,N,03512.309204,E,AA,11,0.9,704.4,19.0,,
1459411049379;$GPVTG,131.7,T,128.7,M,0.0,N,0.0,K,A
1459411049380;$GPRMC,075730.0,A,3205.973601,N,03512.309204,E,0.0,131.7,310316,3.0,E,A
1459411049380;$GPGSA,A,2,03,06,07,09,16,23,30,,,,,,1.2,0.9,0.8
1459411049380;$GNGSA,A,2,03,06,07,09,16,23,30,,,,,,1.2,0.9,0.8
1459411049381;$GNGSA,A,2,65,66,72,75,,,,,,,,,1.2,0.9,0.8
1459411050347;$GPGSV,3,1,10,03,21,147,22,06,23,248,28,07,70,279,29,09,61,022,29
1459411050348;$GPGSV,3,2,10,16,17,043,16,23,42,071,18,28,02,189,18,30,42,243,34
1459411050349;$GPGSV,3,3,10,02,12,293,,05,,,
1459411050352;$GLGSV,2,1,06,66,13,324,28,75,80,341,16,65,64,357,22,72,49,116,23
1459411050361;$GLGSV,2,2,06,74,27,028,,71,02,133,
1459411050361;$GPGGA,075731.0,3205.973522,N,03512.309194,E,1,07,0.9,705.3,M,19.0,M,,
1459411050361;$GNGNS,075731.0,3205.973522,N,03512.309194,E,AA,11,0.9,705.3,19.0,,
1459411050369;$GPVTG,131.7,T,128.7,M,0.0,N,0.0,K,A
1459411050374;$GPRMC,075731.0,A,3205.973522,N,03512.309194,E,0.0,131.7,310316,3.0,E,A
1459411050376;$GPGSA,A,2,03,06,07,09,16,23,30,,,,,,1.2,0.9,0.8
1459411050376;$GNGSA,A,2,03,06,07,09,16,23,30,,,,,,1.2,0.9,0.8
1459411050404;$GNGSA,A,2,65,66,72,75,,,,,,,,,1.2,0.9,0.8
1459411051350;$GPGSV,3,1,10,03,21,147,30,06,23,248,31,07,70,279,30,09,61,022,32
1459411051351;$GPGSV,3,2,10,16,17,043,16,23,42,071,18,28,02,189,18,30,42,243,37
1459411051351;$GPGSV,3,3,10,02,12,293,,05,,,
1459411051352;$GLGSV,2,1,06,66,13,324,29,75,80,341,16,65,64,357,26,72,49,116,21
1459411051391;$GLGSV,2,2,06,74,27,028,,71,02,133,
1459411051396;$GPGGA,075732.0,3205.973442,N,03512.309209,E,1,07,0.9,705.1,M,19.0,M,,
1459411051404;$GNGNS,075732.0,3205.973442,N,03512.309209,E,AA,11,0.9,705.1,19.0,,
1459411051404;$GPVTG,131.7,T,128.7,M,0.0,N,0.0,K,A
1459411051404;$GPRMC,075732.0,A,3205.973442,N,03512.309209,E,0.0,131.7,310316,3.0,E,A
1459411051405;$GPGSA,A,2,03,06,07,09,16,23,30,,,,,,1.2,0.9,0.8
1459411051405;$GNGSA,A,2,03,06,07,09,16,23,30,,,,,,1.2,0.9,0.8
1459411051405;$GNGSA,A,2,65,66,72,75,,,,,,,,,1.2,0.9,0.8
1459411052352;$GPGSV,3,1,10,03,21,147,29,06,23,248,30,07,70,279,29,09,61,022,31
1459411052361;$GPGSV,3,2,10,16,17,043,16,23,42,071,15,28,02,189,18,30,42,243,36
1459411052378;$GPGSV,3,3,10,02,12,293,,05,,,
1459411052401;$GLGSV,2,1,06,66,13,324,30,75,80,341,18,65,64,357,25,72,49,116,19
1459411052423;$GLGSV,2,2,06,74,27,028,,71,02,133,
1459411052440;$GPGGA,075733.0,3205.973320,N,03512.309132,E,1,07,0.9,705.1,M,19.0,M,,
1459411052444;$GNGNS,075733.0,3205.973320,N,03512.309132,E,AA,11,0.9,705.1,19.0,,
1459411052450;$GPVTG,131.7,T,128.7,M,0.0,N,0.0,K,A
1459411052451;$GPRMC,075733.0,A,3205.973320,N,03512.309132,E,0.0,131.7,310316,3.0,E,A
1459411052451;$GPGSA,A,2,03,06,07,09,16,23,30,,,,,,1.2,0.9,0.8
1459411052452;$GNGSA,A,2,03,06,07,09,16,23,30,,,,,,1.2,0.9,0.8
1459411052452;$GNGSA,A,2,65,66,72,75,,,,,,,,,1.2,0.9,0.8
1459411053361;$GPGSV,3,1,10,03,21,147,29,06,23,248,29,07,70,279,29,09,61,022,28
1459411053361;$GPGSV,3,2,10,16,17,043,17,23,42,071,24,28,02,189,18,30,42,243,37
1459411053361;$GPGSV,3,3,10,02,12,293,,05,,,
1459411053364;$GLGSV,2,1,06,74,27,028,13,66,13,324,30,75,80,341,23,65,64,357,27
1459411053365;$GLGSV,2,2,06,72,49,116,25,71,02,133,
1459411053366;$GPGGA,075734.0,3205.973215,N,03512.309043,E,1,07,0.9,705.5,M,19.0,M,,
1459411053366;$GNGNS,075734.0,3205.973215,N,03512.309043,E,AA,11,0.9,705.5,19.0,,
1459411053387;$GPVTG,131.7,T,128.7,M,0.0,N,0.0,K,A
1459411053391;$GPRMC,075734.0,A,3205.973215,N,03512.309043,E,0.0,131.7,310316,3.0,E,A
1459411053394;$GPGSA,A,2,03,06,07,09,16,23,30,,,,,,1.2,0.9,0.8
1459411053399;$GNGSA,A,2,03,06,07,09,16,23,30,,,,,,1.2,0.9,0.8
1459411053401;$GNGSA,A,2,65,66,72,75,,,,,,,,,1.2,0.9,0.8
1459411053938;$GPGSV,3,1,10,03,21,147,28,06,23,248,31,07,70,279,27,09,61,022,28
1459411053940;$GPGSV,3,2,10,16,17,043,18,23,42,071,20,28,02,189,17,30,42,243,36
1459411053941;$GPGSV,3,3,10,02,12,293,,05,,,
1459411053941;$GLGSV,2,1,06,74,27,028,14,66,13,324,29,75,80,341,23,65,64,357,28
1459411053941;$GLGSV,2,2,06,72,49,116,25,71,02,133,
1459411053942;$GPGGA,075735.0,3205.973076,N,03512.309031,E,1,07,0.9,705.9,M,19.0,M,,
1459411053942;$GNGNS,075735.0,3205.973076,N,03512.309031,E,AA,11,0.9,705.9,19.0,,
1459411053942;$GPVTG,131.7,T,128.7,M,0.0,N,0.0,K,A
1459411053944;$GPRMC,075735.0,A,3205.973076,N,03512.309031,E,0.0,131.7,310316,3.0,E,A
1459411053983;$GPGSA,A,2,03,06,07,09,16,23,30,,,,,,1.2,0.9,0.8
1459411053985;$GNGSA,A,2,03,06,07,09,16,23,30,,,,,,1.2,0.9,0.8
1459411053986;$GNGSA,A,2,65,66,72,75,,,,,,,,,1.2,0.9,0.8
1459411054934;$GPGSV,3,1,10,03,21,147,28,06,23,248,33,07,70,279,26,09,61,022,27
1459411054935;$GPGSV,3,2,10,16,17,043,22,23,42,071,23,28,02,189,17,30,42,243,36
1459411054935;$GPGSV,3,3,10,02,12,293,,05,,,
1459411054936;$GLGSV,2,1,06,74,27,028,15,66,13,324,29,75,80,341,15,65,64,357,27
1459411054947;$GLGSV,2,2,06,72,49,116,18,71,02,133,
1459411054954;$GPGGA,075736.0,3205.973017,N,03512.308963,E,1,07,0.9,706.2,M,19.0,M,,
1459411054958;$GNGNS,075736.0,3205.973017,N,03512.308963,E,AA,11,0.9,706.2,19.0,,
1459411054958;$GPVTG,131.7,T,128.7,M,0.0,N,0.0,K,A
1459411054958;$GPRMC,075736.0,A,3205.973017,N,03512.308963,E,0.0,131.7,310316,3.0,E,A
1459411054959;$GPGSA,A,2,03,06,07,09,16,23,30,,,,,,1.2,0.9,0.8
1459411054964;$GNGSA,A,2,03,06,07,09,16,23,30,,,,,,1.2,0.9,0.8
1459411054974;$GNGSA,A,2,65,66,72,75,,,,,,,,,1.2,0.9,0.8
1459411055933;$GPGSV,3,1,10,03,21,147,28,06,23,248,33,07,70,279,26,09,61,022,23
1459411055939;$GPGSV,3,2,10,16,17,043,22,23,42,071,23,28,02,189,17,30,42,243,37
1459411055940;$GPGSV,3,3,10,02,12,293,,05,,,
1459411055940;$GLGSV,2,1,06,74,27,028,15,66,13,324,28,75,80,341,15,65,64,357,28
1459411055940;$GLGSV,2,2,06,72,49,116,18,71,02,133,
1459411055942;$GPGGA,075737.0,3205.973021,N,03512.308959,E,1,07,0.9,706.2,M,19.0,M,,
1459411055964;$GNGNS,075737.0,3205.973021,N,03512.308959,E,AA,11,0.9,706.2,19.0,,
1459411055965;$GPVTG,131.7,T,128.7,M,0.0,N,0.0,K,A
1459411055966;$GPRMC,075737.0,A,3205.973021,N,03512.308959,E,0.0,131.7,310316,3.0,E,A
1459411055978;$GPGSA,A,2,03,06,07,09,16,23,30,,,,,,1.2,0.9,0.8
1459411056014;$GNGSA,A,2,03,06,07,09,16,23,30,,,,,,1.2,0.9,0.8
1459411056021;$GNGSA,A,2,65,66,72,75,,,,,,,,,1.2,0.9,0.8
1459411057080;$GPGSV,3,1,10,03,21,147,31,06,23,248,33,07,70,279,27,09,61,022,24
1459411057086;$GPGSV,3,2,10,16,17,043,22,23,42,071,25,28,02,189,17,30,42,243,36
1459411057114;$GPGSV,3,3,10,02,12,293,,05,,,
1459411057116;$GLGSV,2,1,06,74,27,028,19,66,13,324,30,75,80,341,17,65,64,357,29
1459411057116;$GLGSV,2,2,06,72,49,116,23,71,02,133,
1459411057143;$GPGGA,075738.0,3205.973011,N,03512.308954,E,1,07,0.9,706.4,M,19.0,M,,
1459411057192;$GNGNS,075738.0,3205.973011,N,03512.308954,E,AA,11,0.9,706.4,19.0,,
1459411057208;$GPVTG,131.7,T,128.7,M,0.0,N,0.0,K,A
1459411057209;$GPRMC,075738.0,A,3205.973011,N,03512.308954,E,0.0,131.7,310316,3.0,E,A
1459411057224;$GPGSA,A,2,03,06,07,09,16,23,30,,,,,,1.2,0.9,0.8
1459411057232;$GNGSA,A,2,03,06,07,09,16,23,30,,,,,,1.2,0.9,0.8
1459411057232;$GNGSA,A,2,65,66,72,75,,,,,,,,,1.2,0.9,0.8
1459411058017;$GPGSV,3,1,10,02,12,293,16,03,21,147,32,06,23,248,33,07,70,279,27
1459411058053;$GPGSV,3,2,10,09,61,022,27,16,17,043,23,23,42,071,23,28,02,189,22
1459411058066;$GPGSV,3,3,10,30,42,243,37,05,,,
1459411058067;$GLGSV,2,1,06,74,27,028,19,66,13,324,30,75,80,341,17,65,64,357,29
1459411058067;$GLGSV,2,2,06,72,49,116,24,71,02,133,
1459411058069;$GPGGA,075739.0,3205.972965,N,03512.308975,E,1,07,0.9,706.3,M,19.0,M,,
1459411058073;$GNGNS,075739.0,3205.972965,N,03512.308975,E,AA,11,0.9,706.3,19.0,,
1459411058073;$GPVTG,131.7,T,128.7,M,0.0,N,0.0,K,A
1459411058074;$GPRMC,075739.0,A,3205.972965,N,03512.308975,E,0.0,131.7,310316,3.0,E,A
1459411058074;$GPGSA,A,2,03,06,07,09,16,23,30,,,,,,1.2,0.9,0.8
1459411058075;$GNGSA,A,2,03,06,07,09,16,23,30,,,,,,1.2,0.9,0.8
1459411058076;$GNGSA,A,2,65,66,72,75,,,,,,,,,1.2,0.9,0.8
1459411058934;$GPGSV,3,1,10,02,12,293,15,03,21,147,31,06,23,248,27,07,70,279,25
1459411058935;$GPGSV,3,2,10,09,61,022,27,16,17,043,23,23,42,071,25,28,02,189,23
1459411058935;$GPGSV,3,3,10,30,42,243,36,05,,,
1459411058936;$GLGSV,2,1,06,74,27,028,19,66,13,324,30,75,80,341,18,65,64,357,27
1459411058936;$GLGSV,2,2,06,72,49,116,27,71,02,133,
1459411058936;$GPGGA,075740.0,3205.972960,N,03512.308977,E,1,07,0.9,706.3,M,19.0,M,,
1459411058936;$GNGNS,075740.0,3205.972960,N,03512.308977,E,AA,11,0.9,706.3,19.0,,
1459411058936;$GPVTG,131.7,T,128.7,M,0.0,N,0.0,K,A
1459411058944;$GPRMC,075740.0,A,3205.972960,N,03512.308977,E,0.0,131.7,310316,3.0,E,A
1459411058945;$GPGSA,A,2,03,06,07,09,16,23,30,,,,,,1.2,0.9,0.8
1459411058946;$GNGSA,A,2,03,06,07,09,16,23,30,,,,,,1.2,0.9,0.8
1459411058948;$GNGSA,A,2,65,66,72,75,,,,,,,,,1.2,0.9,0.8
1459411059933;$GPGSV,3,1,10,02,12,293,15,03,21,147,31,06,23,248,27,07,70,279,27
1459411059934;$GPGSV,3,2,10,09,61,022,26,16,17,043,22,23,42,071,29,28,02,189,24
1459411059936;$GPGSV,3,3,10,30,42,243,36,05,,,
1459411059942;$GLGSV,2,1,06,74,27,028,15,66,13,324,29,75,80,341,21,65,64,357,27
1459411059953;$GLGSV,2,2,06,72,49,116,30,71,02,133,
1459411059995;$GPGGA,075741.0,3205.972959,N,03512.308976,E,1,07,0.9,706.4,M,19.0,M,,
1459411059997;$GNGNS,075741.0,3205.972959,N,03512.308976,E,AA,11,0.9,706.4,19.0,,
1459411060004;$GPVTG,131.7,T,128.7,M,0.0,N,0.0,K,A
1459411060004;$GPRMC,075741.0,A,3205.972959,N,03512.308976,E,0.0,131.7,310316,3.0,E,A
1459411060005;$GPGSA,A,2,03,06,07,09,16,23,30,,,,,,1.2,0.9,0.8
1459411060006;$GNGSA,A,2,03,06,07,09,16,23,30,,,,,,1.2,0.9,0.8
1459411060006;$GNGSA,A,2,65,66,72,75,,,,,,,,,1.2,0.9,0.8
1459411060934;$GPGSV,3,1,10,02,12,293,16,03,21,147,30,06,23,248,28,07,70,279,28
1459411060934;$GPGSV,3,2,10,09,61,022,27,16,17,043,23,23,42,071,28,28,02,189,22
1459411060940;$GPGSV,3,3,10,30,42,243,36,05,,,
1459411060940;$GLGSV,2,1,06,74,27,028,15,66,13,324,28,75,80,341,21,65,64,357,27
1459411060940;$GLGSV,2,2,06,72,49,116,29,71,02,133,
1459411060941;$GPGGA,075742.0,3205.972956,N,03512.308977,E,1,07,0.9,706.4,M,19.0,M,,
1459411060941;$GNGNS,075742.0,3205.972956,N,03512.308977,E,AA,11,0.9,706.4,19.0,,
1459411060941;$GPVTG,131.7,T,128.7,M,0.0,N,0.0,K,A
1459411060942;$GPRMC,075742.0,A,3205.972956,N,03512.308977,E,0.0,131.7,310316,3.0,E,A
1459411060942;$GPGSA,A,2,03,06,07,09,16,23,30,,,,,,1.2,0.9,0.8
1459411060942;$GNGSA,A,2,03,06,07,09,16,23,30,,,,,,1.2,0.9,0.8
1459411060942;$GNGSA,A,2,65,66,72,75,,,,,,,,,1.2,0.9,0.8
1459411061934;$GPGSV,3,1,10,02,12,293,15,03,21,147,30,06,23,248,29,07,70,279,28
1459411061935;$GPGSV,3,2,10,09,61,022,27,16,17,043,22,23,42,071,29,28,02,189,25
1459411061939;$GPGSV,3,3,10,30,42,243,36,05,,,
1459411061946;$GLGSV,2,1,06,74,27,028,15,66,13,324,29,75,80,341,21,65,64,357,27
1459411061947;$GLGSV,2,2,06,72,49,116,29,71,02,133,
1459411061966;$GPGGA,075743.0,3205.972955,N,03512.308976,E,1,07,0.9,706.4,M,19.0,M,,
1459411062006;$GNGNS,075743.0,3205.972955,N,03512.308976,E,AA,11,0.9,706.4,19.0,,
1459411062006;$GPVTG,131.7,T,128.7,M,0.0,N,0.0,K,A
1459411062007;$GPRMC,075743.0,A,3205.972955,N,03512.308976,E,0.0,131.7,310316,3.0,E,A
1459411062007;$GPGSA,A,2,03,06,07,09,16,23,30,,,,,,1.2,0.9,0.8
1459411062007;$GNGSA,A,2,03,06,07,09,16,23,30,,,,,,1.2,0.9,0.8
1459411062008;$GNGSA,A,2,65,66,72,75,,,,,,,,,1.2,0.9,0.8
1459411062935;$GPGSV,3,1,10,02,12,293,15,03,21,147,30,06,23,248,28,07,70,279,29
1459411062939;$GPGSV,3,2,10,09,61,022,27,16,17,043,21,23,42,071,29,28,02,189,24
1459411062940;$GPGSV,3,3,10,30,42,243,36,05,,,
1459411062941;$GLGSV,2,1,06,74,27,028,15,66,13,324,28,75,80,341,22,65,64,357,26
1459411062942;$GLGSV,2,2,06,72,49,116,28,71,02,133,
1459411062955;$GPGGA,075744.0,3205.972951,N,03512.308976,E,1,07,0.9,706.4,M,19.0,M,,
1459411062957;$GNGNS,075744.0,3205.972951,N,03512.308976,E,AA,11,0.9,706.4,19.0,,
1459411062958;$GPVTG,131.7,T,128.7,M,0.0,N,0.0,K,A
1459411062958;$GPRMC,075744.0,A,3205.972951,N,03512.308976,E,0.0,131.7,310316,3.0,E,A
1459411062959;$GPGSA,A,2,03,06,07,09,16,23,30,,,,,,1.2,0.9,0.8
1459411062961;$GNGSA,A,2,03,06,07,09,16,23,30,,,,,,1.2,0.9,0.8
1459411062966;$GNGSA,A,2,65,66,72,75,,,,,,,,,1.2,0.9,0.8
1459411063934;$GPGSV,3,1,10,02,12,293,15,03,21,147,28,06,23,248,28,07,70,279,27
1459411063935;$GPGSV,3,2,10,09,61,022,28,16,17,043,21,23,42,071,27,28,02,189,21
1459411063936;$GPGSV,3,3,10,30,42,243,37,05,,,
1459411063936;$GLGSV,2,1,06,74,27,028,15,66,13,324,29,75,80,341,19,65,64,357,23
1459411063937;$GLGSV,2,2,06,72,49,116,27,71,02,133,
1459411063937;$GPGGA,075745.0,3205.972950,N,03512.308972,E,1,07,0.9,706.4,M,19.0,M,,
1459411063937;$GNGNS,075745.0,3205.972950,N,03512.308972,E,AA,11,0.9,706.4,19.0,,
1459411063938;$GPVTG,131.7,T,128.7,M,0.0,N,0.0,K,A
1459411063945;$GPRMC,075745.0,A,3205.972950,N,03512.308972,E,0.0,131.7,310316,3.0,E,A
1459411063945;$GPGSA,A,2,03,06,07,09,16,23,30,,,,,,1.2,0.9,0.8
1459411063948;$GNGSA,A,2,03,06,07,09,16,23,30,,,,,,1.2,0.9,0.8
1459411063949;$GNGSA,A,2,65,66,72,75,,,,,,,,,1.2,0.9,0.8
1459411064935;$GPGSV,3,1,10,02,12,293,14,03,21,147,31,06,23,248,28,07,70,279,24
1459411064936;$GPGSV,3,2,10,09,61,022,27,16,17,043,21,23,42,071,24,28,02,189,23
1459411064936;$GPGSV,3,3,10,30,42,243,36,05,,,
1459411064936;$GLGSV,2,1,06,74,27,028,15,66,13,324,28,75,80,341,16,65,64,357,23
1459411064945;$GLGSV,2,2,06,72,49,116,27,71,02,133,
1459411064948;$GPGGA,075746.0,3205.972948,N,03512.308971,E,1,07,0.9,706.4,M,19.0,M,,
1459411064949;$GNGNS,075746.0,3205.972948,N,03512.308971,E,AA,11,0.9,706.4,19.0,,
1459411064950;$GPVTG,131.7,T,128.7,M,0.0,N,0.0,K,A
1459411064950;$GPRMC,075746.0,A,3205.972948,N,03512.308971,E,0.0,131.7,310316,3.0,E,A
1459411064951;$GPGSA,A,2,03,06,07,09,16,23,30,,,,,,1.2,0.9,0.8
1459411064951;$GNGSA,A,2,03,06,07,09,16,23,30,,,,,,1.2,0.9,0.8
1459411064951;$GNGSA,A,2,65,66,72,75,,,,,,,,,1.2,0.9,0.8
1459411065934;$GPGSV,3,1,10,02,12,293,14,03,21,147,31,06,23,248,29,07,70,279,24
1459411065936;$GPGSV,3,2,10,09,61,022,30,16,17,043,20,23,42,071,20,28,02,189,23
1459411065945;$GPGSV,3,3,10,30,42,243,36,05,,,
1459411065948;$GLGSV,2,1,06,74,27,028,15,66,13,324,28,75,80,341,19,65,64,357,26
1459411065950;$GLGSV,2,2,06,72,49,116,25,71,02,133,
1459411065951;$GPGGA,075747.0,3205.972951,N,03512.308968,E,1,07,0.9,706.4,M,19.0,M,,
1459411065953;$GNGNS,075747.0,3205.972951,N,03512.308968,E,AA,11,0.9,706.4,19.0,,
1459411065954;$GPVTG,131.7,T,128.7,M,0.0,N,0.0,K,A
1459411065954;$GPRMC,075747.0,A,3205.972951,N,03512.308968,E,0.0,131.7,310316,3.0,E,A
1459411065954;$GPGSA,A,2,03,06,07,09,16,23,30,,,,,,1.2,0.9,0.8
1459411065954;$GNGSA,A,2,03,06,07,09,16,23,30,,,,,,1.2,0.9,0.8
1459411065954;$GNGSA,A,2,65,66,72,75,,,,,,,,,1.2,0.9,0.8
1459411066933;$GPGSV,3,1,10,02,12,293,14,03,21,147,31,06,23,248,29,07,70,279,22
1459411066934;$GPGSV,3,2,10,09,61,022,29,16,17,043,22,23,42,071,18,28,02,189,23
1459411066955;$GPGSV,3,3,10,30,42,243,36,05,,,
1459411066955;$GLGSV,2,1,06,74,27,028,15,66,13,324,29,75,80,341,17,65,64,357,26
1459411066956;$GLGSV,2,2,06,72,49,116,26,71,02,133,
1459411066956;$GPGGA,075748.0,3205.972948,N,03512.308968,E,1,07,0.9,706.4,M,19.0,M,,
1459411066964;$GNGNS,075748.0,3205.972948,N,03512.308968,E,AA,11,0.9,706.4,19.0,,
1459411066973;$GPVTG,131.7,T,128.7,M,0.0,N,0.0,K,A
1459411066973;$GPRMC,075748.0,A,3205.972948,N,03512.308968,E,0.0,131.7,310316,3.0,E,A
1459411066973;$GPGSA,A,2,03,06,07,09,16,23,30,,,,,,1.2,0.9,0.8
1459411066973;$GNGSA,A,2,03,06,07,09,16,23,30,,,,,,1.2,0.9,0.8
1459411066974;$GNGSA,A,2,65,66,72,75,,,,,,,,,1.2,0.9,0.8
1459411067933;$GPGSV,3,1,10,02,12,293,14,03,21,147,31,06,23,248,30,07,70,279,24
1459411067940;$GPGSV,3,2,10,09,61,022,26,16,17,043,22,23,42,071,21,28,02,189,19
1459411067965;$GPGSV,3,3,10,30,42,243,36,05,,,
1459411067973;$GLGSV,2,1,06,74,27,028,13,66,13,324,29,75,80,341,17,65,64,357,26
1459411067980;$GLGSV,2,2,06,72,49,116,26,71,02,133,
1459411067983;$GPGGA,075749.0,3205.972946,N,03512.308966,E,1,07,0.9,706.4,M,19.0,M,,
1459411067986;$GNGNS,075749.0,3205.972946,N,03512.308966,E,AA,11,0.9,706.4,19.0,,
1459411068005;$GPVTG,131.7,T,128.7,M,0.0,N,0.0,K,A
1459411068009;$GPRMC,075749.0,A,3205.972946,N,03512.308966,E,0.0,131.7,310316,3.0,E,A
1459411068015;$GPGSA,A,2,03,06,07,09,16,23,30,,,,,,1.2,0.9,0.8
1459411068016;$GNGSA,A,2,03,06,07,09,16,23,30,,,,,,1.2,0.9,0.8
1459411068016;$GNGSA,A,2,65,66,72,75,,,,,,,,,1.2,0.9,0.8
1459411068934;$GPGSV,3,1,10,02,12,293,14,03,21,147,30,06,23,248,28,07,70,279,27
1459411068934;$GPGSV,3,2,10,09,61,022,25,16,17,043,22,23,42,071,21,28,02,189,23
1459411068941;$GPGSV,3,3,10,30,42,243,36,05,,,
1459411068942;$GLGSV,2,1,06,74,27,028,13,66,13,324,29,75,80,341,17,65,64,357,25
1459411068942;$GLGSV,2,2,06,72,49,116,27,71,02,133,
1459411068942;$GPGGA,075750.0,3205.972943,N,03512.308967,E,1,07,0.9,706.4,M,19.0,M,,
1459411068942;$GNGNS,075750.0,3205.972943,N,03512.308967,E,AA,11,0.9,706.4,19.0,,
1459411068942;$GPVTG,131.7,T,128.7,M,0.0,N,0.0,K,A
1459411068943;$GPRMC,075750.0,A,3205.972943,N,03512.308967,E,0.0,131.7,310316,3.0,E,A
1459411068943;$GPGSA,A,2,03,06,07,09,16,23,30,,,,,,1.2,0.9,0.8
1459411068943;$GNGSA,A,2,03,06,07,09,16,23,30,,,,,,1.2,0.9,0.8
1459411068943;$GNGSA,A,2,65,66,72,75,,,,,,,,,1.2,0.9,0.8
1459411069933;$GPGSV,3,1,10,02,12,293,14,03,21,147,29,06,23,248,28,07,70,279,28
1459411069936;$GPGSV,3,2,10,09,61,022,24,16,17,043,22,23,42,071,24,28,02,189,24
1459411069936;$GPGSV,3,3,10,30,42,243,34,05,,,
1459411069937;$GLGSV,2,1,06,74,27,028,16,66,13,324,27,75,80,341,19,65,64,357,25
1459411069944;$GLGSV,2,2,06,72,49,116,26,71,02,133,
1459411069947;$GPGGA,075751.0,3205.972979,N,03512.308980,E,1,07,0.9,706.3,M,19.0,M,,
1459411069948;$GNGNS,075751.0,3205.972979,N,03512.308980,E,AA,12,0.9,706.3,19.0,,
1459411069948;$GPVTG,131.7,T,128.7,M,0.0,N,0.0,K,A
1459411069954;$GPRMC,075751.0,A,3205.972979,N,03512.308980,E,0.0,131.7,310316,3.0,E,A
1459411069954;$GPGSA,A,2,03,06,07,09,16,23,30,,,,,,1.1,0.9,0.8
1459411069956;$GNGSA,A,2,03,06,07,09,16,23,30,,,,,,1.1,0.9,0.8
1459411069957;$GNGSA,A,2,65,66,72,74,75,,,,,,,,1.1,0.9,0.8
1459411070934;$GPGSV,3,1,10,02,12,293,14,03,21,147,32,06,23,248,27,07,70,279,24
1459411070935;$GPGSV,3,2,10,09,61,022,24,16,17,043,16,23,42,071,24,28,02,189,26
1459411070936;$GPGSV,3,3,10,30,42,243,27,05,,,
1459411070937;$GLGSV,2,1,06,74,27,028,16,66,13,324,20,75,80,341,19,65,64,357,19
1459411070948;$GLGSV,2,2,06,72,49,116,31,71,02,133,
1459411070951;$GPGGA,075752.0,3205.972917,N,03512.309160,E,1,07,0.9,706.3,M,19.0,M,,
1459411070955;$GNGNS,075752.0,3205.972917,N,03512.309160,E,AA,12,0.9,706.3,19.0,,
1459411070971;$GPVTG,131.7,T,128.7,M,1.0,N,1.9,K,A
1459411070971;$GPRMC,075752.0,A,3205.972917,N,03512.309160,E,1.0,131.7,310316,3.0,E,A
1459411070972;$GPGSA,A,2,03,06,07,09,16,23,30,,,,,,1.1,0.9,0.8
1459411070972;$GNGSA,A,2,03,06,07,09,16,23,30,,,,,,1.1,0.9,0.8
1459411070973;$GNGSA,A,2,65,66,72,74,75,,,,,,,,1.1,0.9,0.8
1459411071934;$GPGSV,3,1,10,02,12,293,14,03,21,147,29,06,23,248,28,07,70,279,20
1459411071935;$GPGSV,3,2,10,09,61,022,30,16,17,043,17,23,42,071,23,28,02,189,23
1459411071938;$GPGSV,3,3,10,30,42,243,29,05,,,
1459411071939;$GLGSV,2,1,06,74,27,028,16,66,13,324,25,75,80,341,18,65,64,357,22
1459411071939;$GLGSV,2,2,06,72,49,116,33,71,02,133,
1459411071939;$GPGGA,075753.0,3205.972836,N,03512.309910,E,1,07,0.9,707.2,M,19.0,M,,
1459411071942;$GNGNS,075753.0,3205.972836,N,03512.309910,E,AA,12,0.9,707.2,19.0,,
1459411071962;$GPVTG,131.7,T,128.7,M,0.0,N,0.0,K,A
1459411071962;$GPRMC,075753.0,A,3205.972836,N,03512.309910,E,0.0,131.7,310316,3.0,E,A
1459411071963;$GPGSA,A,2,03,06,07,09,16,23,30,,,,,,1.1,0.9,0.8
1459411071963;$GNGSA,A,2,03,06,07,09,16,23,30,,,,,,1.1,0.9,0.8
1459411071964;$GNGSA,A,2,65,66,72,74,75,,,,,,,,1.1,0.9,0.8
1459411072934;$GPGSV,3,1,10,02,12,293,14,03,21,147,31,06,23,248,26,07,70,279,23
1459411072936;$GPGSV,3,2,10,09,61,022,23,16,17,043,22,23,42,071,21,28,02,189,30
1459411072937;$GPGSV,3,3,10,30,42,243,32,05,,,
1459411072937;$GLGSV,2,1,06,74,27,028,15,66,13,324,28,75,80,341,18,65,64,357,22
1459411072937;$GLGSV,2,2,06,72,49,116,30,71,02,133,
1459411072938;$GPGGA,075754.0,3205.972562,N,03512.310158,E,1,08,0.8,707.8,M,19.0,M,,
1459411072938;$GNGNS,075754.0,3205.972562,N,03512.310158,E,AA,13,0.8,707.8,19.0,,
1459411072960;$GPVTG,131.7,T,128.7,M,0.0,N,0.0,K,A
1459411072961;$GPRMC,075754.0,A,3205.972562,N,03512.310158,E,0.0,131.7,310316,3.0,E,A
1459411072962;$GPGSA,A,2,02,03,06,07,09,16,23,30,,,,,1.1,0.8,0.7
1459411072966;$GNGSA,A,2,02,03,06,07,09,16,23,30,,,,,1.1,0.8,0.7
1459411072993;$GNGSA,A,2,65,66,72,74,75,,,,,,,,1.1,0.8,0.7
1459411074151;$GPGSV,3,1,10,02,12,293,14,03,21,147,29,06,23,248,29,07,70,279,24
1459411074151;$GPGSV,3,2,10,09,61,022,23,16,17,043,24,23,42,071,28,28,02,189,27
1459411074152;$GPGSV,3,3,10,30,42,243,36,05,,,
1459411074200;$GLGSV,2,1,06,74,27,028,15,66,13,324,33,75,80,341,22,65,64,357,22
1459411074206;$GLGSV,2,2,06,72,49,116,28,71,02,133,
1459411074207;$GPGGA,075755.0,3205.972068,N,03512.310102,E,1,08,0.8,708.5,M,19.0,M,,
1459411074207;$GNGNS,075755.0,3205.972068,N,03512.310102,E,AA,13,0.8,708.5,19.0,,
1459411074207;$GPVTG,131.7,T,128.7,M,0.0,N,0.0,K,A
1459411074216;$GPRMC,075755.0,A,3205.972068,N,03512.310102,E,0.0,131.7,310316,3.0,E,A
1459411074234;$GPGSA,A,2,02,03,06,07,09,16,23,30,,,,,1.1,0.8,0.7
1459411074235;$GNGSA,A,2,02,03,06,07,09,16,23,30,,,,,1.1,0.8,0.7
1459411074235;$GNGSA,A,2,65,66,72,74,75,,,,,,,,1.1,0.8,0.7
1459411074932;$GPGSV,3,1,10,02,12,293,14,03,21,147,20,06,23,248,24,07,70,279,26
1459411074933;$GPGSV,3,2,10,09,61,022,29,16,17,043,21,23,42,071,24,28,02,189,21
1459411074933;$GPGSV,3,3,10,30,42,243,30,05,,,
1459411074935;$GLGSV,2,1,06,74,27,028,15,66,13,324,33,75,80,341,20,65,64,357,27
1459411074938;$GLGSV,2,2,06,72,49,116,27,71,02,133,
1459411074945;$GPGGA,075756.0,3205.971614,N,03512.310132,E,1,08,0.8,710.4,M,19.0,M,,
1459411074945;$GNGNS,075756.0,3205.971614,N,03512.310132,E,AA,13,0.8,710.4,19.0,,
1459411074945;$GPVTG,131.7,T,128.7,M,0.0,N,0.0,K,A
1459411074946;$GPRMC,075756.0,A,3205.971614,N,03512.310132,E,0.0,131.7,310316,3.0,E,A
1459411074946;$GPGSA,A,2,02,03,06,07,09,16,23,30,,,,,1.1,0.8,0.7
1459411074946;$GNGSA,A,2,02,03,06,07,09,16,23,30,,,,,1.1,0.8,0.7
1459411074947;$GNGSA,A,2,65,66,72,74,75,,,,,,,,1.1,0.8,0.7
1459411075939;$GPGSV,3,1,10,02,12,293,14,03,21,147,23,06,23,248,25,07,70,279,28
1459411075940;$GPGSV,3,2,10,09,61,022,26,16,17,043,21,23,42,071,23,28,02,189,21
1459411075940;$GPGSV,3,3,10,30,42,243,26,05,,,
1459411075941;$GLGSV,2,1,06,74,27,028,15,66,13,324,24,75,80,341,20,65,64,357,24
1459411075941;$GLGSV,2,2,06,72,49,116,22,71,02,133,
1459411075943;$GPGGA,075757.0,3205.971701,N,03512.310205,E,1,08,0.8,710.8,M,19.0,M,,
1459411075943;$GNGNS,075757.0,3205.971701,N,03512.310205,E,AA,13,0.8,710.8,19.0,,
1459411075944;$GPVTG,131.7,T,128.7,M,0.0,N,0.0,K,A
1459411075944;$GPRMC,075757.0,A,3205.971701,N,03512.310205,E,0.0,131.7,310316,3.0,E,A
1459411075944;$GPGSA,A,2,02,03,06,07,09,16,23,30,,,,,1.1,0.8,0.7
1459411075978;$GNGSA,A,2,02,03,06,07,09,16,23,30,,,,,1.1,0.8,0.7
1459411075984;$GNGSA,A,2,65,66,72,74,75,,,,,,,,1.1,0.8,0.7
1459411076934;$GPGSV,3,1,10,02,12,293,15,03,21,147,24,06,23,248,29,07,70,279,27
1459411076940;$GPGSV,3,2,10,09,61,022,28,16,17,043,18,23,42,071,27,28,02,189,21
1459411076946;$GPGSV,3,3,10,30,42,243,34,05,,,
1459411076947;$GLGSV,2,1,06,74,27,028,14,66,13,324,23,75,80,341,21,65,64,357,29
1459411076959;$GLGSV,2,2,06,72,49,116,23,71,02,133,
1459411076960;$GPGGA,075758.0,3205.971645,N,03512.310099,E,1,08,0.8,711.1,M,19.0,M,,
1459411076962;$GNGNS,075758.0,3205.971645,N,03512.310099,E,AA,13,0.8,711.1,19.0,,
1459411076962;$GPVTG,131.7,T,128.7,M,0.0,N,0.0,K,A
1459411076962;$GPRMC,075758.0,A,3205.971645,N,03512.310099,E,0.0,131.7,310316,3.0,E,A
1459411076962;$GPGSA,A,2,02,03,06,07,09,16,23,30,,,,,1.1,0.8,0.7
1459411076962;$GNGSA,A,2,02,03,06,07,09,16,23,30,,,,,1.1,0.8,0.7
1459411076963;$GNGSA,A,2,65,66,72,74,75,,,,,,,,1.1,0.8,0.7
1459411077933;$GPGSV,3,1,10,02,12,293,15,03,21,147,25,06,23,248,27,07,70,279,29
1459411077934;$GPGSV,3,2,10,09,61,022,28,16,17,043,19,23,42,071,20,28,02,189,20
1459411077940;$GPGSV,3,3,10,30,42,243,32,05,,,
1459411077958;$GLGSV,2,1,06,74,27,028,14,66,13,324,19,75,80,341,25,65,64,357,30
1459411077959;$GLGSV,2,2,06,72,49,116,19,71,02,133,
1459411077959;$GPGGA,075759.0,3205.971514,N,03512.309981,E,1,08,0.8,711.4,M,19.0,M,,
1459411077959;$GNGNS,075759.0,3205.971514,N,03512.309981,E,AA,13,0.8,711.4,19.0,,
1459411077962;$GPVTG,131.7,T,128.7,M,0.0,N,0.0,K,A
1459411077962;$GPRMC,075759.0,A,3205.971514,N,03512.309981,E,0.0,131.7,310316,3.0,E,A
1459411077962;$GPGSA,A,2,02,03,06,07,09,16,23,30,,,,,1.1,0.8,0.7
1459411077963;$GNGSA,A,2,02,03,06,07,09,16,23,30,,,,,1.1,0.8,0.7
1459411077963;$GNGSA,A,2,65,66,72,74,75,,,,,,,,1.1,0.8,0.7
1459411078991;$GPGSV,3,1,10,02,12,293,15,03,21,147,24,06,23,248,21,07,70,279,24
1459411078991;$GPGSV,3,2,10,09,61,022,23,16,17,043,23,23,42,071,26,28,02,189,20
1459411078992;$GPGSV,3,3,10,30,42,243,27,05,,,
1459411078992;$GLGSV,2,1,06,74,27,028,16,66,13,324,19,75,80,341,25,65,64,357,23
1459411078993;$GLGSV,2,2,06,72,49,116,19,71,02,133,
1459411078993;$GPGGA,075800.0,3205.971384,N,03512.309931,E,1,08,0.8,711.7,M,19.0,M,,
1459411078993;$GNGNS,075800.0,3205.971384,N,03512.309931,E,AA,13,0.8,711.7,19.0,,
1459411079245;$GPVTG,131.7,T,128.7,M,0.0,N,0.0,K,A
1459411079251;$GPRMC,075800.0,A,3205.971384,N,03512.309931,E,0.0,131.7,310316,3.0,E,A
1459411079252;$GPGSA,A,2,02,03,06,07,09,16,23,30,,,,,1.1,0.8,0.7
1459411079252;$GNGSA,A,2,02,03,06,07,09,16,23,30,,,,,1.1,0.8,0.7
1459411079253;$GNGSA,A,2,65,66,72,74,75,,,,,,,,1.1,0.8,0.7
1459411079934;$GPGSV,3,1,10,02,12,293,15,03,21,147,22,06,23,248,20,07,70,279,24
1459411079937;$GPGSV,3,2,10,09,61,022,29,16,17,043,19,23,42,071,26,28,02,189,17
1459411079944;$GPGSV,3,3,10,30,42,243,24,05,,,
1459411079954;$GLGSV,2,1,06,74,27,028,16,66,13,324,19,75,80,341,21,65,64,357,26
1459411079957;$GLGSV,2,2,06,72,49,116,20,71,02,133,
1459411079958;$GPGGA,075801.0,3205.971230,N,03512.309861,E,1,08,0.8,711.5,M,19.0,M,,
1459411079958;$GNGNS,075801.0,3205.971230,N,03512.309861,E,AA,13,0.8,711.5,19.0,,
1459411079958;$GPVTG,131.7,T,128.7,M,0.0,N,0.0,K,A
1459411079958;$GPRMC,075801.0,A,3205.971230,N,03512.309861,E,0.0,131.7,310316,3.0,E,A
1459411079958;$GPGSA,A,2,02,03,06,07,09,16,23,30,,,,,1.1,0.8,0.7
1459411079959;$GNGSA,A,2,02,03,06,07,09,16,23,30,,,,,1.1,0.8,0.7
1459411079959;$GNGSA,A,2,65,66,72,74,75,,,,,,,,1.1,0.8,0.7
1459411080934;$GPGSV,3,1,10,02,12,293,15,03,21,147,22,06,23,248,30,07,70,279,25
1459411080939;$GPGSV,3,2,10,09,61,022,28,16,17,043,17,23,42,071,25,28,02,189,24
1459411080940;$GPGSV,3,3,10,30,42,243,26,05,,,
1459411080940;$GLGSV,2,1,06,74,27,028,16,66,13,324,19,75,80,341,19,65,64,357,23
1459411080940;$GLGSV,2,2,06,72,49,116,22,71,02,133,
1459411080979;$GPGGA,075802.0,3205.971208,N,03512.309722,E,1,08,0.8,711.0,M,19.0,M,,
1459411080980;$GNGNS,075802.0,3205.971208,N,03512.309722,E,AA,13,0.8,711.0,19.0,,
1459411080980;$GPVTG,131.7,T,128.7,M,0.0,N,0.0,K,A
1459411080981;$GPRMC,075802.0,A,3205.971208,N,03512.309722,E,0.0,131.7,310316,3.0,E,A
1459411080981;$GPGSA,A,2,02,03,06,07,09,16,23,30,,,,,1.1,0.8,0.7
1459411080981;$GNGSA,A,2,02,03,06,07,09,16,23,30,,,,,1.1,0.8,0.7
1459411080981;$GNGSA,A,2,65,66,72,74,75,,,,,,,,1.1,0.8,0.7
1459411081934;$GPGSV,3,1,10,02,12,293,15,03,21,147,18,06,23,248,19,07,70,279,26
1459411081937;$GPGSV,3,2,10,09,61,022,24,16,17,043,17,23,42,071,25,28,02,189,24
1459411081938;$GPGSV,3,3,10,30,42,243,26,05,,,
1459411081939;$GLGSV,2,1,06,74,27,028,16,66,13,324,17,75,80,341,20,65,64,357,20
1459411081940;$GLGSV,2,2,06,72,49,116,24,71,02,133,
1459411081940;$GPGGA,075803.0,3205.971230,N,03512.309849,E,1,08,0.8,711.2,M,19.0,M,,
1459411081953;$GNGNS,075803.0,3205.971230,N,03512.309849,E,AA,13,0.8,711.2,19.0,,
1459411081966;$GPVTG,131.7,T,128.7,M,0.0,N,0.0,K,A
1459411081966;$GPRMC,075803.0,A,3205.971230,N,03512.309849,E,0.0,131.7,310316,3.0,E,A
1459411081966;$GPGSA,A,2,02,03,06,07,09,16,23,30,,,,,1.1,0.8,0.7
1459411081967;$GNGSA,A,2,02,03,06,07,09,16,23,30,,,,,1.1,0.8,0.7
1459411081967;$GNGSA,A,2,65,66,72,74,75,,,,,,,,1.1,0.8,0.7
1459411083014;$GPGSV,3,1,10,02,12,293,15,03,21,147,19,06,23,248,21,07,70,279,16
1459411083023;$GPGSV,3,2,10,09,61,022,21,16,17,043,17,23,42,071,21,28,02,189,16
1459411083023;$GPGSV,3,3,10,30,42,243,16,05,,,
1459411083024;$GLGSV,2,1,06,74,27,028,16,66,13,324,17,75,80,341,16,65,64,357,17
1459411083024;$GLGSV,2,2,06,72,49,116,25,71,02,133,
1459411083028;$GPGGA,075804.0,3205.971212,N,03512.309853,E,1,08,0.8,711.1,M,19.0,M,,
1459411083029;$GNGNS,075804.0,3205.971212,N,03512.309853,E,AA,13,0.8,711.1,19.0,,
1459411083031;$GPVTG,131.7,T,128.7,M,0.0,N,0.0,K,A
1459411083031;$GPRMC,075804.0,A,3205.971212,N,03512.309853,E,0.0,131.7,310316,3.0,E,A
1459411083032;$GPGSA,A,2,02,03,06,07,09,16,23,30,,,,,1.1,0.8,0.7
1459411083033;$GNGSA,A,2,02,03,06,07,09,16,23,30,,,,,1.1,0.8,0.7
1459411083033;$GNGSA,A,2,65,66,72,74,75,,,,,,,,1.1,0.8,0.7
1459411083933;$GPGSV,3,1,10,02,12,293,15,03,21,147,18,06,23,248,23,07,70,279,21
1459411083937;$GPGSV,3,2,10,09,61,022,24,16,17,043,17,23,42,071,29,28,02,189,19
1459411083937;$GPGSV,3,3,10,30,42,243,23,05,,,
1459411083938;$GLGSV,2,1,06,74,27,028,16,66,13,324,18,75,80,341,21,65,64,357,17
1459411083940;$GLGSV,2,2,06,72,49,116,29,71,02,133,
1459411083941;$GPGGA,075805.0,3205.971200,N,03512.309851,E,1,07,0.9,711.2,M,19.0,M,,
1459411083941;$GNGNS,075805.0,3205.971200,N,03512.309851,E,AA,12,0.9,711.2,19.0,,
1459411083942;$GPVTG,131.7,T,128.7,M,0.0,N,0.0,K,A
1459411083963;$GPRMC,075805.0,A,3205.971200,N,03512.309851,E,0.0,131.7,310316,3.0,E,A
1459411083999;$GPGSA,A,2,03,06,07,09,16,23,30,,,,,,1.1,0.9,0.8
1459411083999;$GNGSA,A,2,03,06,07,09,16,23,30,,,,,,1.1,0.9,0.8
1459411084000;$GNGSA,A,2,65,66,72,74,75,,,,,,,,1.1,0.9,0.8
1459411084935;$GPGSV,3,1,10,02,12,293,15,03,21,147,17,06,23,248,24,07,70,279,18
1459411084936;$GPGSV,3,2,10,09,61,022,21,16,17,043,14,23,42,071,21,28,02,189,19
1459411084936;$GPGSV,3,3,10,30,42,243,21,05,,,
1459411084936;$GLGSV,2,1,06,74,27,028,16,66,13,324,18,75,80,341,21,65,64,357,20
1459411084945;$GLGSV,2,2,06,72,49,116,20,71,02,133,
1459411084959;$GPGGA,075806.0,3205.971192,N,03512.309844,E,1,07,0.9,711.2,M,19.0,M,,
1459411084959;$GNGNS,075806.0,3205.971192,N,03512.309844,E,AA,12,0.9,711.2,19.0,,
1459411084960;$GPVTG,131.7,T,128.7,M,0.0,N,0.0,K,A
1459411084960;$GPRMC,075806.0,A,3205.971192,N,03512.309844,E,0.0,131.7,310316,3.0,E,A
1459411084972;$GPGSA,A,2,03,06,07,09,16,23,30,,,,,,1.1,0.9,0.8
1459411084972;$GNGSA,A,2,03,06,07,09,16,23,30,,,,,,1.1,0.9,0.8
1459411084972;$GNGSA,A,2,65,66,72,74,75,,,,,,,,1.1,0.9,0.8
1459411085934;$GPGSV,3,1,10,02,12,293,15,03,21,147,18,06,23,248,24,07,70,279,18
1459411085936;$GPGSV,3,2,10,09,61,022,21,16,17,043,14,23,42,071,17,28,02,189,18
1459411085944;$GPGSV,3,3,10,30,42,243,21,05,,,
1459411085946;$GLGSV,2,1,06,74,27,028,16,66,13,324,15,75,80,341,21,65,64,357,20
1459411085968;$GLGSV,2,2,06,72,49,116,18,71,02,133,
1459411085970;$GPGGA,075807.0,3205.971191,N,03512.309844,E,1,07,0.9,711.2,M,19.0,M,,
1459411085973;$GNGNS,075807.0,3205.971191,N,03512.309844,E,AA,11,0.9,711.2,19.0,,
1459411085976;$GPVTG,131.7,T,128.7,M,0.0,N,0.0,K,A
1459411085976;$GPRMC,075807.0,A,3205.971191,N,03512.309844,E,0.0,131.7,310316,3.0,E,A
1459411085977;$GPGSA,A,2,03,06,07,09,16,23,30,,,,,,1.2,0.9,0.8
1459411085977;$GNGSA,A,2,03,06,07,09,16,23,30,,,,,,1.2,0.9,0.8
1459411085977;$GNGSA,A,2,65,66,72,75,,,,,,,,,1.2,0.9,0.8
1459411086934;$GPGSV,3,1,10,02,12,293,15,03,21,147,20,06,23,248,20,07,70,279,21
1459411086937;$GPGSV,3,2,10,09,61,022,25,16,17,043,14,23,42,071,30,28,02,189,20
1459411086938;$GPGSV,3,3,10,30,42,243,16,05,,,
1459411086939;$GLGSV,2,1,06,74,27,028,16,66,13,324,18,75,80,341,19,65,64,357,22
1459411086940;$GLGSV,2,2,06,72,49,116,25,71,02,133,
1459411086941;$GPGGA,075808.0,3205.971194,N,03512.309841,E,1,07,0.9,711.2,M,19.0,M,,
1459411086953;$GNGNS,075808.0,3205.971194,N,03512.309841,E,AA,11,0.9,711.2,19.0,,
1459411086954;$GPVTG,131.7,T,128.7,M,0.0,N,0.0,K,A
1459411086956;$GPRMC,075808.0,A,3205.971194,N,03512.309841,E,0.0,131.7,310316,3.0,E,A
1459411086956;$GPGSA,A,2,03,06,07,09,16,23,30,,,,,,1.2,0.9,0.8
1459411086956;$GNGSA,A,2,03,06,07,09,16,23,30,,,,,,1.2,0.9,0.8
1459411086957;$GNGSA,A,2,65,66,72,75,,,,,,,,,1.2,0.9,0.8
1459411087934;$GPGSV,3,1,10,02,12,293,15,03,21,147,24,06,23,248,27,07,70,279,25
1459411087937;$GPGSV,3,2,10,09,61,022,26,16,17,043,15,23,42,071,25,28,02,189,22
1459411087937;$GPGSV,3,3,10,30,42,243,24,05,,,
1459411087937;$GLGSV,2,1,06,74,27,028,16,66,13,324,22,75,80,341,23,65,64,357,24
1459411087940;$GLGSV,2,2,06,72,49,116,27,71,02,133,
1459411087940;$GPGGA,075809.0,3205.971187,N,03512.309836,E,1,07,0.9,711.2,M,19.0,M,,
1459411087941;$GNGNS,075809.0,3205.971187,N,03512.309836,E,AA,11,0.9,711.2,19.0,,
1459411087942;$GPVTG,131.7,T,128.7,M,0.0,N,0.0,K,A
1459411087942;$GPRMC,075809.0,A,3205.971187,N,03512.309836,E,0.0,131.7,310316,3.0,E,A
1459411087943;$GPGSA,A,2,03,06,07,09,16,23,30,,,,,,1.2,0.9,0.8
1459411087943;$GNGSA,A,2,03,06,07,09,16,23,30,,,,,,1.2,0.9,0.8
1459411087943;$GNGSA,A,2,65,66,72,75,,,,,,,,,1.2,0.9,0.8
1459411088934;$GPGSV,3,1,10,02,12,293,15,03,21,147,25,06,23,248,23,07,70,279,25
1459411088942;$GPGSV,3,2,10,09,61,022,26,16,17,043,17,23,42,071,26,28,02,189,24
1459411088943;$GPGSV,3,3,10,30,42,243,20,05,,,
1459411088943;$GLGSV,2,1,06,74,27,028,16,66,13,324,24,75,80,341,24,65,64,357,24
1459411088945;$GLGSV,2,2,06,72,49,116,18,71,02,133,
1459411088945;$GPGGA,075810.0,3205.971189,N,03512.309838,E,1,07,0.9,711.2,M,19.0,M,,
1459411088945;$GNGNS,075810.0,3205.971189,N,03512.309838,E,AA,11,0.9,711.2,19.0,,
1459411088946;$GPVTG,131.7,T,128.7,M,0.0,N,0.0,K,A
1459411088948;$GPRMC,075810.0,A,3205.971189,N,03512.309838,E,0.0,131.7,310316,3.0,E,A
1459411088948;$GPGSA,A,2,03,06,07,09,16,23,30,,,,,,1.2,0.9,0.8
1459411088948;$GNGSA,A,2,03,06,07,09,16,23,30,,,,,,1.2,0.9,0.8
1459411088948;$GNGSA,A,2,65,66,72,75,,,,,,,,,1.2,0.9,0.8
1459411089933;$GPGSV,3,1,10,02,12,293,15,03,21,147,27,06,23,248,21,07,70,279,25
1459411089934;$GPGSV,3,2,10,09,61,022,25,16,17,043,17,23,42,071,27,28,02,189,26
1459411089935;$GPGSV,3,3,10,30,42,243,23,05,,,
1459411089936;$GLGSV,2,1,06,74,27,028,16,66,13,324,20,75,80,341,25,65,64,357,24
1459411089937;$GLGSV,2,2,06,72,49,116,17,71,02,133,
1459411089937;$GPGGA,075811.0,3205.971186,N,03512.309837,E,1,07,0.9,711.2,M,19.0,M,,
1459411089949;$GNGNS,075811.0,3205.971186,N,03512.309837,E,AA,11,0.9,711.2,19.0,,
1459411089953;$GPVTG,131.7,T,128.7,M,0.0,N,0.0,K,A
1459411089953;$GPRMC,075811.0,A,3205.971186,N,03512.309837,E,0.0,131.7,310316,3.0,E,A
1459411089958;$GPGSA,A,2,03,06,07,09,16,23,30,,,,,,1.2,0.9,0.8
1459411089958;$GNGSA,A,2,03,06,07,09,16,23,30,,,,,,1.2,0.9,0.8
1459411089958;$GNGSA,A,2,65,66,72,75,,,,,,,,,1.2,0.9,0.8
1459411090935;$GPGSV,3,1,10,02,12,293,15,03,21,147,28,06,23,248,23,07,70,279,25
1459411090936;$GPGSV,3,2,10,09,61,022,28,16,17,043,15,23,42,071,28,28,02,189,28
1459411090936;$GPGSV,3,3,10,30,42,243,25,05,,,
1459411090937;$GLGSV,2,1,06,74,27,028,11,66,13,324,23,75,80,341,26,65,64,357,23
1459411090967;$GLGSV,2,2,06,72,49,116,18,71,02,133,
1459411090976;$GPGGA,075812.0,3205.971180,N,03512.309836,E,1,07,0.9,711.2,M,19.0,M,,
1459411090979;$GNGNS,075812.0,3205.971180,N,03512.309836,E,AA,12,0.9,711.2,19.0,,
1459411090999;$GPVTG,131.7,T,128.7,M,0.0,N,0.0,K,A
1459411091013;$GPRMC,075812.0,A,3205.971180,N,03512.309836,E,0.0,131.7,310316,3.0,E,A
1459411091014;$GPGSA,A,2,03,06,07,09,16,23,30,,,,,,1.1,0.9,0.8
1459411091021;$GNGSA,A,2,03,06,07,09,16,23,30,,,,,,1.1,0.9,0.8
1459411091025;$GNGSA,A,2,65,66,72,74,75,,,,,,,,1.1,0.9,0.8
1459411091932;$GPGSV,3,1,10,02,12,293,15,03,21,147,27,06,23,248,21,07,70,279,13
1459411091933;$GPGSV,3,2,10,09,61,022,28,16,17,043,15,23,42,071,25,28,02,189,27
1459411091935;$GPGSV,3,3,10,30,42,243,26,05,,,
1459411091945;$GLGSV,2,1,06,74,27,028,11,66,13,324,22,75,80,341,25,65,64,357,23
1459411091947;$GLGSV,2,2,06,72,49,116,18,71,02,133,
1459411091955;$GPGGA,075813.0,3205.971180,N,03512.309834,E,1,07,0.9,711.2,M,19.0,M,,
1459411091956;$GNGNS,075813.0,3205.971180,N,03512.309834,E,AA,12,0.9,711.2,19.0,,
1459411091957;$GPVTG,131.7,T,128.7,M,0.0,N,0.0,K,A
1459411091960;$GPRMC,075813.0,A,3205.971180,N,03512.309834,E,0.0,131.7,310316,3.0,E,A
1459411091962;$GPGSA,A,2,03,06,07,09,16,23,30,,,,,,1.1,0.9,0.8
1459411091966;$GNGSA,A,2,03,06,07,09,16,23,30,,,,,,1.1,0.9,0.8
1459411091966;$GNGSA,A,2,65,66,72,74,75,,,,,,,,1.1,0.9,0.8
1459411092933;$GPGSV,3,1,10,02,12,293,15,03,21,147,26,06,23,248,23,07,70,279,13
1459411092934;$GPGSV,3,2,10,09,61,022,26,16,17,043,15,23,42,071,24,28,02,189,26
1459411092936;$GPGSV,3,3,10,30,42,243,24,05,,,
1459411092936;$GLGSV,2,1,06,74,27,028,11,66,13,324,22,75,80,341,25,65,64,357,23
1459411092938;$GLGSV,2,2,06,72,49,116,18,71,02,133,
1459411092938;$GPGGA,075814.0,3205.971179,N,03512.309832,E,1,07,0.9,711.2,M,19.0,M,,
1459411092941;$GNGNS,075814.0,3205.971179,N,03512.309832,E,AA,12,0.9,711.2,19.0,,
1459411092949;$GPVTG,131.7,T,128.7,M,0.0,N,0.0,K,A
1459411092950;$GPRMC,075814.0,A,3205.971179,N,03512.309832,E,0.0,131.7,310316,3.0,E,A
1459411092950;$GPGSA,A,2,03,06,07,09,16,23,30,,,,,,1.1,0.9,0.8
1459411092950;$GNGSA,A,2,03,06,07,09,16,23,30,,,,,,1.1,0.9,0.8
1459411092951;$GNGSA,A,2,65,66,72,74,75,,,,,,,,1.1,0.9,0.8
1459411093933;$GPGSV,3,1,10,02,12,293,15,03,21,147,28,06,23,248,23,07,70,279,13
1459411093934;$GPGSV,3,2,10,09,61,022,27,16,17,043,15,23,42,071,27,28,02,189,27
1459411093936;$GPGSV,3,3,10,30,42,243,25,05,,,
1459411093937;$GLGSV,2,1,06,74,27,028,11,66,13,324,23,75,80,341,27,65,64,357,26
1459411093937;$GLGSV,2,2,06,72,49,116,15,71,02,133,
1459411093947;$GPGGA,075815.0,3205.971179,N,03512.309830,E,1,07,0.9,711.2,M,19.0,M,,
1459411093947;$GNGNS,075815.0,3205.971179,N,03512.309830,E,AA,12,0.9,711.2,19.0,,
1459411093947;$GPVTG,131.7,T,128.7,M,0.0,N,0.0,K,A
1459411093959;$GPRMC,075815.0,A,3205.971179,N,03512.309830,E,0.0,131.7,310316,3.0,E,A
1459411093959;$GPGSA,A,2,03,06,07,09,16,23,30,,,,,,1.1,0.9,0.8
1459411093960;$GNGSA,A,2,03,06,07,09,16,23,30,,,,,,1.1,0.9,0.8
1459411093960;$GNGSA,A,2,65,66,72,74,75,,,,,,,,1.1,0.9,0.8
1459411094934;$GPGSV,3,1,10,02,12,293,15,03,21,147,26,06,23,248,21,07,70,279,13
1459411094935;$GPGSV,3,2,10,09,61,022,26,16,17,043,15,23,42,071,27,28,02,189,26
1459411094935;$GPGSV,3,3,10,30,42,243,25,05,,,
1459411094935;$GLGSV,2,1,06,74,27,028,14,66,13,324,22,75,80,341,25,65,64,357,26
1459411094944;$GLGSV,2,2,06,72,49,116,15,71,02,133,
1459411094946;$GPGGA,075816.0,3205.971166,N,03512.309821,E,1,07,0.9,711.3,M,19.0,M,,
1459411094955;$GNGNS,075816.0,3205.971166,N,03512.309821,E,AA,12,0.9,711.3,19.0,,
1459411094955;$GPVTG,131.7,T,128.7,M,0.0,N,0.0,K,A
1459411094956;$GPRMC,075816.0,A,3205.971166,N,03512.309821,E,0.0,131.7,310316,3.0,E,A
1459411094956;$GPGSA,A,2,03,06,07,09,16,23,30,,,,,,1.1,0.9,0.8
1459411094956;$GNGSA,A,2,03,06,07,09,16,23,30,,,,,,1.1,0.9,0.8
1459411094957;$GNGSA,A,2,65,66,72,74,75,,,,,,,,1.1,0.9,0.8
1459411095934;$GPGSV,3,1,10,02,12,293,15,03,21,147,25,06,23,248,19,07,70,279,13
1459411095935;$GPGSV,3,2,10,09,61,022,27,16,17,043,13,23,42,071,27,28,02,189,26
1459411095939;$GPGSV,3,3,10,30,42,243,25,05,,,
1459411095939;$GLGSV,2,1,06,74,27,028,18,66,13,324,21,75,80,341,25,65,64,357,24
1459411095940;$GLGSV,2,2,06,72,49,116,15,71,02,133,
1459411095948;$GPGGA,075817.0,3205.971145,N,03512.309813,E,1,07,0.9,711.3,M,19.0,M,,
1459411095950;$GNGNS,075817.0,3205.971145,N,03512.309813,E,AA,12,0.9,711.3,19.0,,
1459411095951;$GPVTG,131.7,T,128.7,M,0.0,N,0.0,K,A
1459411095951;$GPRMC,075817.0,A,3205.971145,N,03512.309813,E,0.0,131.7,310316,3.0,E,A
1459411095952;$GPGSA,A,2,03,06,07,09,16,23,30,,,,,,1.1,0.9,0.8
1459411095952;$GNGSA,A,2,03,06,07,09,16,23,30,,,,,,1.1,0.9,0.8
1459411095952;$GNGSA,A,2,65,66,72,74,75,,,,,,,,1.1,0.9,0.8
1459411096933;$GPGSV,3,1,10,02,12,293,15,03,21,147,23,06,23,248,23,07,70,279,13
1459411096937;$GPGSV,3,2,10,09,61,022,26,16,17,043,13,23,42,071,26,28,02,189,24
1459411096944;$GPGSV,3,3,10,30,42,243,21,05,,,
1459411096948;$GLGSV,2,1,06,74,27,028,18,66,13,324,20,75,80,341,24,65,64,357,23
1459411096950;$GLGSV,2,2,06,72,49,116,13,71,02,133,
1459411096956;$GPGGA,075818.0,3205.971139,N,03512.309809,E,1,07,0.9,711.3,M,19.0,M,,
1459411096957;$GNGNS,075818.0,3205.971139,N,03512.309809,E,AA,12,0.9,711.3,19.0,,
1459411096957;$GPVTG,131.7,T,128.7,M,0.0,N,0.0,K,A
1459411096958;$GPRMC,075818.0,A,3205.971139,N,03512.309809,E,0.0,131.7,310316,3.0,E,A
1459411096958;$GPGSA,A,2,03,06,07,09,16,23,30,,,,,,1.1,0.9,0.7
1459411096958;$GNGSA,A,2,03,06,07,09,16,23,30,,,,,,1.1,0.9,0.7
1459411096958;$GNGSA,A,2,65,66,72,74,75,,,,,,,,1.1,0.9,0.7
1459411097934;$GPGSV,3,1,10,02,12,293,15,03,21,147,24,06,23,248,23,07,70,279,13
1459411097936;$GPGSV,3,2,10,09,61,022,25,16,17,043,13,23,42,071,25,28,02,189,24
1459411097937;$GPGSV,3,3,10,30,42,243,21,05,,,
1459411097938;$GLGSV,2,1,06,74,27,028,18,66,13,324,20,75,80,341,25,65,64,357,24
1459411097946;$GLGSV,2,2,06,72,49,116,13,71,02,133,
1459411097946;$GPGGA,075819.0,3205.971134,N,03512.309807,E,1,07,0.9,711.3,M,19.0,M,,
1459411097953;$GNGNS,075819.0,3205.971134,N,03512.309807,E,AA,12,0.9,711.3,19.0,,
1459411097954;$GPVTG,131.7,T,128.7,M,0.0,N,0.0,K,A
1459411097954;$GPRMC,075819.0,A,3205.971134,N,03512.309807,E,0.0,131.7,310316,3.0,E,A
1459411097955;$GPGSA,A,2,03,06,07,09,16,23,30,,,,,,1.1,0.9,0.7
1459411097955;$GNGSA,A,2,03,06,07,09,16,23,30,,,,,,1.1,0.9,0.7
1459411097956;$GNGSA,A,2,65,66,72,74,75,,,,,,,,1.1,0.9,0.7
1459411098933;$GPGSV,3,1,10,02,12,293,15,03,21,147,24,06,23,248,19,07,70,279,13
1459411098934;$GPGSV,3,2,10,09,61,022,24,16,17,043,13,23,42,071,25,28,02,189,23
1459411098943;$GPGSV,3,3,10,30,42,243,20,05,,,
1459411098943;$GLGSV,2,1,06,74,27,028,16,66,13,324,18,75,80,341,26,65,64,357,24
1459411098944;$GLGSV,2,2,06,72,49,116,16,71,02,133,
1459411098958;$GPGGA,075820.0,3205.971134,N,03512.309807,E,1,07,0.9,711.3,M,19.0,M,,
1459411098960;$GNGNS,075820.0,3205.971134,N,03512.309807,E,AA,12,0.9,711.3,19.0,,
1459411098960;$GPVTG,131.7,T,128.7,M,0.0,N,0.0,K,A
1459411098961;$GPRMC,075820.0,A,3205.971134,N,03512.309807,E,0.0,131.7,310316,3.0,E,A
1459411098961;$GPGSA,A,2,03,06,07,09,16,23,30,,,,,,1.1,0.9,0.7
1459411098965;$GNGSA,A,2,03,06,07,09,16,23,30,,,,,,1.1,0.9,0.7
1459411098975;$GNGSA,A,2,65,66,72,74,75,,,,,,,,1.1,0.9,0.7
1459411099934;$GPGSV,3,1,10,03,21,147,24,06,23,248,23,07,70,279,20,09,61,022,26
1459411099936;$GPGSV,3,2,10,16,17,043,13,23,42,071,22,28,02,189,20,30,42,243,19
1459411099937;$GPGSV,3,3,10,02,12,293,,05,,,
1459411099938;$GLGSV,2,1,06,74,27,028,16,66,13,324,21,75,80,341,25,65,64,357,20
1459411099944;$GLGSV,2,2,06,72,49,116,16,71,02,133,
1459411099958;$GPGGA,075821.0,3205.971130,N,03512.309805,E,1,07,0.9,711.3,M,19.0,M,,
1459411099960;$GNGNS,075821.0,3205.971130,N,03512.309805,E,AA,12,0.9,711.3,19.0,,
1459411099960;$GPVTG,131.7,T,128.7,M,0.0,N,0.0,K,A
1459411099960;$GPRMC,075821.0,A,3205.971130,N,03512.309805,E,0.0,131.7,310316,3.0,E,A
1459411099961;$GPGSA,A,2,03,06,07,09,16,23,30,,,,,,1.1,0.9,0.7
1459411099967;$GNGSA,A,2,03,06,07,09,16,23,30,,,,,,1.1,0.9,0.7
1459411099976;$GNGSA,A,2,65,66,72,74,75,,,,,,,,1.1,0.9,0.7
1459411100936;$GPGSV,3,1,10,03,21,147,24,06,23,248,23,07,70,279,26,09,61,022,27
1459411100949;$GPGSV,3,2,10,16,17,043,13,23,42,071,20,28,02,189,21,30,42,243,16
1459411100950;$GPGSV,3,3,10,02,12,293,,05,,,
1459411100956;$GLGSV,2,1,06,74,27,028,16,66,13,324,20,75,80,341,22,65,64,357,22
1459411100972;$GLGSV,2,2,06,72,49,116,16,71,02,133,
1459411100972;$GPGGA,075822.0,3205.971145,N,03512.309813,E,1,07,0.9,711.3,M,19.0,M,,
1459411100977;$GNGNS,075822.0,3205.971145,N,03512.309813,E,AA,12,0.9,711.3,19.0,,
1459411100977;$GPVTG,131.7,T,128.7,M,0.0,N,0.0,K,A
1459411100978;$GPRMC,075822.0,A,3205.971145,N,03512.309813,E,0.0,131.7,310316,3.0,E,A
1459411100978;$GPGSA,A,2,03,06,07,09,16,23,30,,,,,,1.1,0.9,0.7
1459411100978;$GNGSA,A,2,03,06,07,09,16,23,30,,,,,,1.1,0.9,0.7
1459411100979;$GNGSA,A,2,65,66,72,74,75,,,,,,,,1.1,0.9,0.7
1459411101936;$GPGSV,3,1,10,03,21,147,25,06,23,248,23,07,70,279,25,09,61,022,28
1459411101951;$GPGSV,3,2,10,16,17,043,13,23,42,071,20,28,02,189,22,30,42,243,19
1459411101954;$GPGSV,3,3,10,02,12,293,,05,,,
1459411101956;$GLGSV,2,1,06,74,27,028,20,66,13,324,20,75,80,341,21,65,64,357,23
1459411101960;$GLGSV,2,2,06,72,49,116,16,71,02,133,
1459411101964;$GPGGA,075823.0,3205.971134,N,03512.309805,E,1,07,0.9,711.3,M,19.0,M,,
1459411101965;$GNGNS,075823.0,3205.971134,N,03512.309805,E,AA,12,0.9,711.3,19.0,,
1459411101965;$GPVTG,131.7,T,128.7,M,0.0,N,0.0,K,A
1459411101965;$GPRMC,075823.0,A,3205.971134,N,03512.309805,E,0.0,131.7,310316,3.0,E,A
1459411101966;$GPGSA,A,2,03,06,07,09,16,23,30,,,,,,1.1,0.9,0.7
1459411101966;$GNGSA,A,2,03,06,07,09,16,23,30,,,,,,1.1,0.9,0.7
1459411101966;$GNGSA,A,2,65,66,72,74,75,,,,,,,,1.1,0.9,0.7
1459411102933;$GPGSV,3,1,10,03,21,147,26,06,23,248,25,07,70,279,27,09,61,022,27
1459411102934;$GPGSV,3,2,10,16,17,043,13,23,42,071,21,28,02,189,24,30,42,243,17
1459411102935;$GPGSV,3,3,10,02,12,293,,05,,,
1459411102937;$GLGSV,2,1,06,74,27,028,18,66,13,324,22,75,80,341,21,65,64,357,23
1459411102938;$GLGSV,2,2,06,72,49,116,23,71,02,133,
1459411102941;$GPGGA,075824.0,3205.971161,N,03512.309819,E,1,06,0.9,711.3,M,19.0,M,,
1459411102941;$GNGNS,075824.0,3205.971161,N,03512.309819,E,AA,11,0.9,711.3,19.0,,
1459411102941;$GPVTG,131.7,T,128.7,M,0.0,N,0.0,K,A
1459411102941;$GPRMC,075824.0,A,3205.971161,N,03512.309819,E,0.0,131.7,310316,3.0,E,A
1459411102941;$GPGSA,A,2,03,06,07,09,23,30,,,,,,,1.2,0.9,0.8
1459411102942;$GNGSA,A,2,03,06,07,09,23,30,,,,,,,1.2,0.9,0.8
1459411102942;$GNGSA,A,2,65,66,72,74,75,,,,,,,,1.2,0.9,0.8
1459411103934;$GPGSV,3,1,10,03,21,147,23,06,23,248,26,07,70,279,27,09,61,022,27
1459411103935;$GPGSV,3,2,10,16,17,043,13,23,42,071,21,28,02,189,24,30,42,243,17
1459411103936;$GPGSV,3,3,10,02,12,293,,05,,,
1459411103936;$GLGSV,2,1,06,74,27,028,18,66,13,324,23,75,80,341,23,65,64,357,21
1459411103936;$GLGSV,2,2,06,72,49,116,21,71,02,133,
1459411103941;$GPGGA,075825.0,3205.971172,N,03512.309825,E,1,06,0.9,711.2,M,19.0,M,,
1459411103944;$GNGNS,075825.0,3205.971172,N,03512.309825,E,AA,11,0.9,711.2,19.0,,
1459411103949;$GPVTG,131.7,T,128.7,M,0.0,N,0.0,K,A
1459411103955;$GPRMC,075825.0,A,3205.971172,N,03512.309825,E,0.0,131.7,310316,3.0,E,A
1459411103959;$GPGSA,A,2,03,06,07,09,23,30,,,,,,,1.2,0.9,0.8
1459411103959;$GNGSA,A,2,03,06,07,09,23,30,,,,,,,1.2,0.9,0.8
1459411103977;$GNGSA,A,2,65,66,72,74,75,,,,,,,,1.2,0.9,0.8
1459411104936;$GPGSV,3,1,10,03,21,147,24,06,23,248,23,07,70,279,25,09,61,022,28
1459411104937;$GPGSV,3,2,10,16,17,043,13,23,42,071,21,28,02,189,25,30,42,243,15
1459411104937;$GPGSV,3,3,10,02,12,293,,05,,,
1459411104938;$GLGSV,2,1,06,74,27,028,18,66,13,324,19,75,80,341,23,65,64,357,20
1459411104938;$GLGSV,2,2,06,72,49,116,25,71,02,133,
1459411104939;$GPGGA,075826.0,3205.971180,N,03512.309825,E,1,06,0.9,711.2,M,19.0,M,,
1459411104948;$GNGNS,075826.0,3205.971180,N,03512.309825,E,AA,11,0.9,711.2,19.0,,
1459411104962;$GPVTG,131.7,T,128.7,M,0.0,N,0.0,K,A
1459411104964;$GPRMC,075826.0,A,3205.971180,N,03512.309825,E,0.0,131.7,310316,3.0,E,A
1459411104972;$GPGSA,A,2,03,06,07,09,23,30,,,,,,,1.2,0.9,0.8
1459411104972;$GNGSA,A,2,03,06,07,09,23,30,,,,,,,1.2,0.9,0.8
1459411104975;$GNGSA,A,2,65,66,72,74,75,,,,,,,,1.2,0.9,0.8
1459411105934;$GPGSV,3,1,10,03,21,147,25,06,23,248,23,07,70,279,24,09,61,022,28
1459411105937;$GPGSV,3,2,10,16,17,043,11,23,42,071,19,28,02,189,26,30,42,243,15
1459411105943;$GPGSV,3,3,10,02,12,293,,05,,,
1459411105943;$GLGSV,2,1,06,74,27,028,18,66,13,324,20,75,80,341,23,65,64,357,22
1459411105944;$GLGSV,2,2,06,72,49,116,22,71,02,133,
1459411105967;$GPGGA,075827.0,3205.971189,N,03512.309828,E,1,07,0.9,711.2,M,19.0,M,,
1459411105968;$GNGNS,075827.0,3205.971189,N,03512.309828,E,AA,12,0.9,711.2,19.0,,
1459411105969;$GPVTG,131.7,T,128.7,M,0.0,N,0.0,K,A
1459411105969;$GPRMC,075827.0,A,3205.971189,N,03512.309828,E,0.0,131.7,310316,3.0,E,A
1459411105970;$GPGSA,A,2,03,06,07,09,16,23,30,,,,,,1.1,0.9,0.7
1459411105970;$GNGSA,A,2,03,06,07,09,16,23,30,,,,,,1.1,0.9,0.7
1459411105970;$GNGSA,A,2,65,66,72,74,75,,,,,,,,1.1,0.9,0.7
1459411106933;$GPGSV,3,1,10,03,21,147,22,06,23,248,21,07,70,279,26,09,61,022,27
1459411106934;$GPGSV,3,2,10,16,17,043,11,23,42,071,17,28,02,189,25,30,42,243,17
1459411106935;$GPGSV,3,3,10,02,12,293,,05,,,
1459411106940;$GLGSV,2,1,06,74,27,028,17,66,13,324,20,75,80,341,25,65,64,357,25
1459411106940;$GLGSV,2,2,06,72,49,116,23,71,02,133,
1459411106940;$GPGGA,075828.0,3205.971189,N,03512.309828,E,1,07,0.9,711.2,M,19.0,M,,
1459411106944;$GNGNS,075828.0,3205.971189,N,03512.309828,E,AA,12,0.9,711.2,19.0,,
1459411106944;$GPVTG,131.7,T,128.7,M,0.0,N,0.0,K,A
1459411106945;$GPRMC,075828.0,A,3205.971189,N,03512.309828,E,0.0,131.7,310316,3.0,E,A
1459411106946;$GPGSA,A,2,03,06,07,09,16,23,30,,,,,,1.1,0.9,0.7
1459411106946;$GNGSA,A,2,03,06,07,09,16,23,30,,,,,,1.1,0.9,0.7
1459411106946;$GNGSA,A,2,65,66,72,74,75,,,,,,,,1.1,0.9,0.7
1459411107934;$GPGSV,3,1,10,03,21,147,24,06,23,248,24,07,70,279,25,09,61,022,27
1459411107935;$GPGSV,3,2,10,16,17,043,11,23,42,071,27,28,02,189,24,30,42,243,22
1459411107937;$GPGSV,3,3,10,02,12,293,,05,,,
1459411107937;$GLGSV,2,1,06,74,27,028,18,66,13,324,21,75,80,341,24,65,64,357,25
1459411107938;$GLGSV,2,2,06,72,49,116,27,71,02,133,
1459411107938;$GPGGA,075829.0,3205.971195,N,03512.309831,E,1,07,0.9,711.1,M,19.0,M,,
1459411107938;$GNGNS,075829.0,3205.971195,N,03512.309831,E,AA,12,0.9,711.1,19.0,,
1459411107939;$GPVTG,131.7,T,128.7,M,0.0,N,0.0,K,A
1459411107939;$GPRMC,075829.0,A,3205.971195,N,03512.309831,E,0.0,131.7,310316,3.0,E,A
1459411107939;$GPGSA,A,2,03,06,07,09,16,23,30,,,,,,1.1,0.9,0.7
1459411107940;$GNGSA,A,2,03,06,07,09,16,23,30,,,,,,1.1,0.9,0.7
1459411107940;$GNGSA,A,2,65,66,72,74,75,,,,,,,,1.1,0.9,0.7
1459411108933;$GPGSV,3,1,10,03,21,147,25,06,23,248,19,07,70,279,25,09,61,022,31
1459411108934;$GPGSV,3,2,10,16,17,043,15,23,42,071,30,28,02,189,24,30,42,243,24
1459411108935;$GPGSV,3,3,10,02,12,293,,05,,,
1459411108935;$GLGSV,2,1,06,74,27,028,19,66,13,324,23,75,80,341,20,65,64,357,27
1459411108936;$GLGSV,2,2,06,72,49,116,30,71,02,133,
1459411108938;$GPGGA,075830.0,3205.971192,N,03512.309829,E,1,07,0.9,711.2,M,19.0,M,,
1459411108938;$GNGNS,075830.0,3205.971192,N,03512.309829,E,AA,12,0.9,711.2,19.0,,
1459411108938;$GPVTG,131.7,T,128.7,M,0.0,N,0.0,K,A
1459411108942;$GPRMC,075830.0,A,3205.971192,N,03512.309829,E,0.0,131.7,310316,3.0,E,A
1459411108945;$GPGSA,A,2,03,06,07,09,16,23,30,,,,,,1.1,0.9,0.7
1459411108945;$GNGSA,A,2,03,06,07,09,16,23,30,,,,,,1.1,0.9,0.7
1459411108946;$GNGSA,A,2,65,66,72,74,75,,,,,,,,1.1,0.9,0.7
1459411109935;$GPGSV,3,1,10,03,21,147,24,06,23,248,19,07,70,279,25,09,61,022,30
1459411109935;$GPGSV,3,2,10,16,17,043,15,23,42,071,26,28,02,189,23,30,42,243,28
1459411109945;$GPGSV,3,3,10,02,12,293,,05,,,
1459411109948;$GLGSV,2,1,06,74,27,028,19,66,13,324,20,75,80,341,20,65,64,357,25
1459411109967;$GLGSV,2,2,06,72,49,116,28,71,02,133,
1459411109968;$GPGGA,075831.0,3205.971194,N,03512.309831,E,1,07,0.9,711.2,M,19.0,M,,
1459411109968;$GNGNS,075831.0,3205.971194,N,03512.309831,E,AA,12,0.9,711.2,19.0,,
1459411109969;$GPVTG,131.7,T,128.7,M,0.0,N,0.0,K,A
1459411109969;$GPRMC,075831.0,A,3205.971194,N,03512.309831,E,0.0,131.7,310316,3.0,E,A
1459411109969;$GPGSA,A,2,03,06,07,09,16,23,30,,,,,,1.1,0.9,0.7
1459411109970;$GNGSA,A,2,03,06,07,09,16,23,30,,,,,,1.1,0.9,0.7
1459411109970;$GNGSA,A,2,65,66,72,74,75,,,,,,,,1.1,0.9,0.7
1459411110933;$GPGSV,3,1,10,02,12,293,12,03,21,147,21,06,23,248,25,07,70,279,23
1459411110934;$GPGSV,3,2,10,09,61,022,33,16,17,043,17,23,42,071,24,28,02,189,22
1459411110938;$GPGSV,3,3,10,30,42,243,27,05,,,
1459411110938;$GLGSV,2,1,06,74,27,028,19,66,13,324,19,75,80,341,23,65,64,357,30
1459411110938;$GLGSV,2,2,06,72,49,116,27,71,02,133,
1459411110945;$GPGGA,075832.0,3205.971192,N,03512.309832,E,1,08,0.8,711.2,M,19.0,M,,
1459411110946;$GNGNS,075832.0,3205.971192,N,03512.309832,E,AA,13,0.8,711.2,19.0,,
1459411110947;$GPVTG,131.7,T,128.7,M,0.0,N,0.0,K,A
1459411110947;$GPRMC,075832.0,A,3205.971192,N,03512.309832,E,0.0,131.7,310316,3.0,E,A
1459411110947;$GPGSA,A,2,02,03,06,07,09,16,23,30,,,,,1.1,0.8,0.7
1459411110947;$GNGSA,A,2,02,03,06,07,09,16,23,30,,,,,1.1,0.8,0.7
1459411110948;$GNGSA,A,2,65,66,72,74,75,,,,,,,,1.1,0.8,0.7
1459411111933;$GPGSV,3,1,10,02,12,293,13,03,21,147,24,06,23,248,26,07,70,279,25
1459411111935;$GPGSV,3,2,10,09,61,022,28,16,17,043,17,23,42,071,28,28,02,189,19
1459411111935;$GPGSV,3,3,10,30,42,243,23,05,,,
1459411111944;$GLGSV,2,1,06,74,27,028,19,66,13,324,19,75,80,341,24,65,64,357,33
1459411111948;$GLGSV,2,2,06,72,49,116,29,71,02,133,
1459411111949;$GPGGA,075833.0,3205.971193,N,03512.309832,E,1,08,0.8,711.2,M,19.0,M,,
1459411111951;$GNGNS,075833.0,3205.971193,N,03512.309832,E,AA,13,0.8,711.2,19.0,,
1459411111952;$GPVTG,131.7,T,128.7,M,0.0,N,0.0,K,A
1459411111952;$GPRMC,075833.0,A,3205.971193,N,03512.309832,E,0.0,131.7,310316,3.0,E,A
1459411111952;$GPGSA,A,2,02,03,06,07,09,16,23,30,,,,,1.1,0.8,0.7
1459411111953;$GNGSA,A,2,02,03,06,07,09,16,23,30,,,,,1.1,0.8,0.7
1459411111953;$GNGSA,A,2,65,66,72,74,75,,,,,,,,1.1,0.8,0.7
1459411112933;$GPGSV,3,1,10,02,12,293,13,03,21,147,17,06,23,248,23,07,70,279,22
1459411112934;$GPGSV,3,2,10,09,61,022,28,16,17,043,17,23,42,071,28,28,02,189,21
1459411112936;$GPGSV,3,3,10,30,42,243,21,05,,,
1459411112959;$GLGSV,2,1,06,74,27,028,19,66,13,324,17,75,80,341,25,65,64,357,29
1459411112959;$GLGSV,2,2,06,72,49,116,31,71,02,133,
1459411112960;$GPGGA,075834.0,3205.971193,N,03512.309833,E,1,08,0.8,711.2,M,19.0,M,,
1459411112960;$GNGNS,075834.0,3205.971193,N,03512.309833,E,AA,13,0.8,711.2,19.0,,
1459411112960;$GPVTG,131.7,T,128.7,M,0.0,N,0.0,K,A
1459411112961;$GPRMC,075834.0,A,3205.971193,N,03512.309833,E,0.0,131.7,310316,3.0,E,A
1459411112961;$GPGSA,A,2,02,03,06,07,09,16,23,30,,,,,1.1,0.8,0.7
1459411112961;$GNGSA,A,2,02,03,06,07,09,16,23,30,,,,,1.1,0.8,0.7
1459411112962;$GNGSA,A,2,65,66,72,74,75,,,,,,,,1.1,0.8,0.7
1459411113934;$GPGSV,3,1,10,02,12,293,13,03,21,147,17,06,23,248,27,07,70,279,28
1459411113936;$GPGSV,3,2,10,09,61,022,32,16,17,043,15,23,42,071,24,28,02,189,19
1459411113936;$GPGSV,3,3,10,30,42,243,24,05,,,
1459411113936;$GLGSV,2,1,06,74,27,028,19,66,13,324,24,75,80,341,20,65,64,357,29
1459411113937;$GLGSV,2,2,06,72,49,116,28,71,02,133,
1459411113967;$GPGGA,075835.0,3205.971192,N,03512.309834,E,1,08,0.8,711.2,M,19.0,M,,
1459411113980;$GNGNS,075835.0,3205.971192,N,03512.309834,E,AA,13,0.8,711.2,19.0,,
1459411114011;$GPVTG,131.7,T,128.7,M,0.0,N,0.0,K,A
1459411114012;$GPRMC,075835.0,A,3205.971192,N,03512.309834,E,0.0,131.7,310316,3.0,E,A
1459411114016;$GPGSA,A,2,02,03,06,07,09,16,23,30,,,,,1.1,0.8,0.7
1459411114021;$GNGSA,A,2,02,03,06,07,09,16,23,30,,,,,1.1,0.8,0.7
1459411114024;$GNGSA,A,2,65,66,72,74,75,,,,,,,,1.1,0.8,0.7
1459411114933;$GPGSV,3,1,10,02,12,293,13,03,21,147,23,06,23,248,30,07,70,279,26
1459411114934;$GPGSV,3,2,10,09,61,022,25,16,17,043,18,23,42,071,23,28,02,189,21
1459411114936;$GPGSV,3,3,10,30,42,243,29,05,,,
1459411114942;$GLGSV,2,1,06,74,27,028,19,66,13,324,22,75,80,341,25,65,64,357,27
1459411114946;$GLGSV,2,2,06,72,49,116,26,71,02,133,
1459411114970;$GPGGA,075836.0,3205.971192,N,03512.309833,E,1,08,0.8,711.2,M,19.0,M,,
1459411114971;$GNGNS,075836.0,3205.971192,N,03512.309833,E,AA,13,0.8,711.2,19.0,,
1459411114971;$GPVTG,131.7,T,128.7,M,0.0,N,0.0,K,A
1459411114971;$GPRMC,075836.0,A,3205.971192,N,03512.309833,E,0.0,131.7,310316,3.0,E,A
1459411114972;$GPGSA,A,2,02,03,06,07,09,16,23,30,,,,,1.1,0.8,0.7
