$GPGGA,082430.00,3206.12893,N,03450.31581,E,1,08,0.00,20.4,M,,,,*36
$GPRMC,082430.00,A,3206.12893,N,03450.31581,E,0.000,82.9,030416,,,A*6A
$GPGGA,082431.00,3206.12526,N,03450.37230,E,1,08,0.00,20.4,M,,,,*3F
$GPRMC,082431.00,A,3206.12526,N,03450.37230,E,146.947,62.7,030416,,,A*6A
$GPGGA,082436.00,3206.12587,N,03450.37348,E,1,08,0.00,20.4,M,,,,*3D
$GPRMC,082436.00,A,3206.12587,N,03450.37348,E,31.728,49.5,030416,,,A*55
$GPGGA,082437.00,3206.12833,N,03450.37986,E,1,08,0.00,20.4,M,,,,*36
$GPRMC,082437.00,A,3206.12833,N,03450.37986,E,29.066,51.9,030416,,,A*5F
$GPGGA,082438.00,3206.10944,N,03450.56504,E,1,08,0.00,6.8,M,,,,*03
$GPRMC,082438.00,A,3206.10944,N,03450.56504,E,98.657,50.5,030416,,,A*51
$GPGGA,082440.00,3206.10986,N,03450.59047,E,1,08,0.00,9.9,M,,,,*01
$GPRMC,082440.00,A,3206.10986,N,03450.59047,E,87.198,51.8,030416,,,A*5B
$GPGGA,082442.00,3206.11541,N,03450.61508,E,1,08,0.00,10.8,M,,,,*39
$GPRMC,082442.00,A,3206.11541,N,03450.61508,E,78.610,50.4,030416,,,A*50
$GPGGA,082444.00,3206.12069,N,03450.64223,E,1,08,0.00,12.5,M,,,,*37
$GPRMC,082444.00,A,3206.12069,N,03450.64223,E,72.798,44.4,030416,,,A*5F
$GPGGA,082446.00,3206.13026,N,03450.66749,E,1,08,0.00,15.5,M,,,,*33
$GPRMC,082446.00,A,3206.13026,N,03450.66749,E,68.646,44.0,030416,,,A*51
$GPGGA,082448.00,3206.14294,N,03450.69276,E,1,08,0.00,0.6,M,,,,*00
$GPRMC,082448.00,A,3206.14294,N,03450.69276,E,65.276,35.6,030416,,,A*5F
$GPGGA,082450.00,3206.15013,N,03450.71477,E,1,08,0.00,-1.9,M,,,,*28
$GPRMC,082450.00,A,3206.15013,N,03450.71477,E,62.132,41.2,030416,,,A*57
$GPGGA,082452.00,3206.15445,N,03450.73765,E,1,08,0.00,5.3,M,,,,*0C
$GPRMC,082452.00,A,3206.15445,N,03450.73765,E,59.663,43.2,030416,,,A*59
$GPGGA,082453.00,3206.15734,N,03450.75003,E,1,08,0.00,6.7,M,,,,*0E
$GPRMC,082453.00,A,3206.15734,N,03450.75003,E,58.702,47.4,030416,,,A*59
$GPGGA,082454.00,3206.16041,N,03450.76289,E,1,08,0.00,5.3,M,,,,*0B
$GPRMC,082454.00,A,3206.16041,N,03450.76289,E,57.903,41.2,030416,,,A*5B
$GPGGA,082456.00,3206.16556,N,03450.78731,E,1,08,0.00,5.8,M,,,,*09
$GPRMC,082456.00,A,3206.16556,N,03450.78731,E,56.309,37.4,030416,,,A*54
$GPGGA,082457.00,3206.16787,N,03450.80101,E,1,08,0.00,3.6,M,,,,*0C
$GPRMC,082457.00,A,3206.16787,N,03450.80101,E,55.781,37.5,030416,,,A*5F
$GPGGA,082459.00,3206.17315,N,03450.82653,E,1,08,0.00,6.3,M,,,,*0E
$GPRMC,082459.00,A,3206.17315,N,03450.82653,E,54.657,56.4,030416,,,A*50
$GPGGA,082501.00,3206.17720,N,03450.85373,E,1,08,0.00,8.2,M,,,,*0F
$GPRMC,082501.00,A,3206.17720,N,03450.85373,E,53.859,55.4,030416,,,A*5A
$GPGGA,082502.00,3206.18059,N,03450.86880,E,1,08,0.00,7.1,M,,,,*02
$GPRMC,082502.00,A,3206.18059,N,03450.86880,E,53.600,55.3,030416,,,A*5E
$GPGGA,082504.00,3206.18396,N,03450.89459,E,1,08,0.00,7.2,M,,,,*00
$GPRMC,082504.00,A,3206.18396,N,03450.89459,E,52.809,53.2,030416,,,A*5E
$GPGGA,082506.00,3206.18868,N,03450.92173,E,1,08,0.00,7.3,M,,,,*0E
$GPRMC,082506.00,A,3206.18868,N,03450.92173,E,52.232,46.8,030416,,,A*5D
$GPGGA,082508.00,3206.19394,N,03450.94872,E,1,08,0.00,6.7,M,,,,*02
$GPRMC,082508.00,A,3206.19394,N,03450.94872,E,51.627,61.6,030416,,,A*5C
$GPGGA,082510.00,3206.19783,N,03450.96955,E,1,08,0.00,7.5,M,,,,*0C
$GPRMC,082510.00,A,3206.19783,N,03450.96955,E,50.711,58.0,030416,,,A*58
$GPGGA,082512.00,3206.20395,N,03450.99522,E,1,08,0.00,6.8,M,,,,*08
$GPRMC,082512.00,A,3206.20395,N,03450.99522,E,50.143,59.4,030416,,,A*54
$GPGGA,082514.00,3206.20798,N,03451.02309,E,1,08,0.00,8.3,M,,,,*0E
$GPRMC,082514.00,A,3206.20798,N,03451.02309,E,49.732,57.6,030416,,,A*53
$GPGGA,082516.00,3206.21505,N,03451.04901,E,1,08,0.00,8.4,M,,,,*08
$GPRMC,082516.00,A,3206.21505,N,03451.04901,E,49.384,62.2,030416,,,A*59
$GPGGA,082517.00,3206.21731,N,03451.06328,E,1,08,0.00,8.9,M,,,,*02
$GPRMC,082517.00,A,3206.21731,N,03451.06328,E,49.243,58.2,030416,,,A*5D
$GPGGA,082519.00,3206.22384,N,03451.09041,E,1,08,0.00,10.2,M,,,,*34
$GPRMC,082519.00,A,3206.22384,N,03451.09041,E,48.964,52.6,030416,,,A*58
$GPGGA,082521.00,3206.22880,N,03451.12050,E,1,08,0.00,12.4,M,,,,*3E
$GPRMC,082521.00,A,3206.22880,N,03451.12050,E,48.855,61.7,030416,,,A*54
$GPGGA,082523.00,3206.22828,N,03451.14975,E,1,08,0.00,8.3,M,,,,*0A
$GPRMC,082523.00,A,3206.22828,N,03451.14975,E,48.734,66.3,030416,,,A*57
$GPGGA,082524.00,3206.22781,N,03451.16195,E,1,08,0.00,12.1,M,,,,*3C
$GPRMC,082524.00,A,3206.22781,N,03451.16195,E,48.428,60.4,030416,,,A*57
$GPGGA,082526.00,3206.23633,N,03451.19015,E,1,08,0.00,12.4,M,,,,*34
$GPRMC,082526.00,A,3206.23633,N,03451.19015,E,48.322,57.6,030416,,,A*51
$GPGGA,082528.00,3206.24419,N,03451.21574,E,1,08,0.00,13.2,M,,,,*39
$GPRMC,082528.00,A,3206.24419,N,03451.21574,E,48.173,51.7,030416,,,A*5A
$GPGGA,082530.00,3206.25173,N,03451.24034,E,1,08,0.00,15.0,M,,,,*38
$GPRMC,082530.00,A,3206.25173,N,03451.24034,E,47.893,42.6,030416,,,A*54
$GPGGA,082531.00,3206.25342,N,03451.25552,E,1,08,0.00,15.2,M,,,,*3F
$GPRMC,082531.00,A,3206.25342,N,03451.25552,E,47.869,43.0,030416,,,A*53
$GPGGA,082533.00,3206.25928,N,03451.28300,E,1,08,0.00,12.9,M,,,,*3B
$GPRMC,082533.00,A,3206.25928,N,03451.28300,E,47.700,43.1,030416,,,A*5A
$GPGGA,082535.00,3206.26326,N,03451.30999,E,1,08,0.00,14.7,M,,,,*31
$GPRMC,082535.00,A,3206.26326,N,03451.30999,E,47.536,44.7,030416,,,A*5E
$GPGGA,082536.00,3206.26763,N,03451.32711,E,1,08,0.00,13.5,M,,,,*3E
$GPRMC,082536.00,A,3206.26763,N,03451.32711,E,47.633,46.1,030416,,,A*56
$GPGGA,082537.00,3206.26594,N,03451.33829,E,1,08,0.00,16.2,M,,,,*32
$GPRMC,082537.00,A,3206.26594,N,03451.33829,E,47.401,45.1,030416,,,A*58
$GPGGA,082539.00,3206.27271,N,03451.36756,E,1,08,0.00,17.1,M,,,,*31
$GPRMC,082539.00,A,3206.27271,N,03451.36756,E,47.372,46.3,030416,,,A*5B
$GPGGA,082540.00,3206.27565,N,03451.38171,E,1,08,0.00,18.1,M,,,,*3F
$GPRMC,082540.00,A,3206.27565,N,03451.38171,E,47.317,60.0,030416,,,A*5E
$GPGGA,082542.00,3206.28493,N,03451.41302,E,1,08,0.00,19.7,M,,,,*35
$GPRMC,082542.00,A,3206.28493,N,03451.41302,E,47.396,60.3,030416,,,A*59
$GPGGA,082544.00,3206.29100,N,03451.44149,E,1,08,0.00,23.0,M,,,,*3B
$GPRMC,082544.00,A,3206.29100,N,03451.44149,E,47.323,42.0,030416,,,A*54
$GPGGA,082545.00,3206.29546,N,03451.45619,E,1,08,0.00,23.4,M,,,,*3B
$GPRMC,082545.00,A,3206.29546,N,03451.45619,E,47.311,40.4,030416,,,A*57
$GPGGA,082546.00,3206.29846,N,03451.46967,E,1,08,0.00,22.6,M,,,,*33
$GPRMC,082546.00,A,3206.29846,N,03451.46967,E,47.228,40.3,030416,,,A*50
$GPGGA,082548.00,3206.30358,N,03451.49900,E,1,08,0.00,23.2,M,,,,*3A
$GPRMC,082548.00,A,3206.30358,N,03451.49900,E,47.201,53.6,030416,,,A*50
$GPGGA,082549.00,3206.30761,N,03451.51304,E,1,08,0.00,21.7,M,,,,*35
$GPRMC,082549.00,A,3206.30761,N,03451.51304,E,47.161,50.0,030416,,,A*58
$GPGGA,082550.00,3206.31208,N,03451.52590,E,1,08,0.00,20.8,M,,,,*30
$GPRMC,082550.00,A,3206.31208,N,03451.52590,E,47.077,65.8,030416,,,A*5B
$GPGGA,082552.00,3206.31867,N,03451.55278,E,1,08,0.00,19.1,M,,,,*34
$GPRMC,082552.00,A,3206.31867,N,03451.55278,E,46.981,62.4,030416,,,A*56
$GPGGA,082553.00,3206.32281,N,03451.56483,E,1,08,0.00,17.5,M,,,,*3F
$GPRMC,082553.00,A,3206.32281,N,03451.56483,E,46.873,56.6,030416,,,A*5E
$GPGGA,082555.00,3206.32785,N,03451.58803,E,1,08,0.00,16.7,M,,,,*31
$GPRMC,082555.00,A,3206.32785,N,03451.58803,E,46.623,53.1,030416,,,A*5A
$GPGGA,082556.00,3206.33121,N,03451.59945,E,1,08,0.00,17.5,M,,,,*3A
$GPRMC,082556.00,A,3206.33121,N,03451.59945,E,46.496,53.6,030416,,,A*59
$GPGGA,082558.00,3206.33560,N,03451.61974,E,1,08,0.00,19.4,M,,,,*33
$GPRMC,082558.00,A,3206.33560,N,03451.61974,E,46.125,62.4,030416,,,A*52
$GPGGA,082600.00,3206.34012,N,03451.63940,E,1,08,0.00,21.9,M,,,,*39
$GPRMC,082600.00,A,3206.34012,N,03451.63940,E,45.776,72.7,030416,,,A*5F
$GPGGA,082602.00,3206.34651,N,03451.65539,E,1,08,0.00,19.4,M,,,,*38
$GPRMC,082602.00,A,3206.34651,N,03451.65539,E,45.419,73.5,030416,,,A*51
$GPGGA,082604.00,3206.35038,N,03451.67385,E,1,08,0.00,22.3,M,,,,*3A
$GPRMC,082604.00,A,3206.35038,N,03451.67385,E,45.076,63.2,030416,,,A*57
$GPGGA,082606.00,3206.35344,N,03451.68755,E,1,08,0.00,20.6,M,,,,*31
$GPRMC,082606.00,A,3206.35344,N,03451.68755,E,44.585,61.7,030416,,,A*54
$GPGGA,082608.00,3206.35785,N,03451.70447,E,1,08,0.00,18.2,M,,,,*30
$GPRMC,082608.00,A,3206.35785,N,03451.70447,E,44.226,71.1,030416,,,A*53
$GPGGA,082609.00,3206.36011,N,03451.71144,E,1,08,0.00,18.1,M,,,,*3C
$GPRMC,082609.00,A,3206.36011,N,03451.71144,E,43.987,70.7,030416,,,A*5C
$GPGGA,082611.00,3206.36314,N,03451.72724,E,1,08,0.00,17.9,M,,,,*37
$GPRMC,082611.00,A,3206.36314,N,03451.72724,E,43.599,79.0,030416,,,A*5D
$GPGGA,082613.00,3206.36800,N,03451.74149,E,1,08,0.00,18.8,M,,,,*3E
$GPRMC,082613.00,A,3206.36800,N,03451.74149,E,43.198,65.8,030416,,,A*5A
$GPGGA,082615.00,3206.37045,N,03451.75493,E,1,08,0.00,19.8,M,,,,*32
$GPRMC,082615.00,A,3206.37045,N,03451.75493,E,42.779,65.9,030416,,,A*5E
$GPGGA,082616.00,3206.37231,N,03451.76094,E,1,08,0.00,19.5,M,,,,*3D
$GPRMC,082616.00,A,3206.37231,N,03451.76094,E,42.554,68.4,030416,,,A*51
$GPGGA,082617.00,3206.37285,N,03451.76567,E,1,08,0.00,19.0,M,,,,*3F
$GPRMC,082617.00,A,3206.37285,N,03451.76567,E,42.289,64.4,030416,,,A*5D
$GPGGA,082619.00,3206.37550,N,03451.77364,E,1,08,0.00,18.8,M,,,,*33
$GPRMC,082619.00,A,3206.37550,N,03451.77364,E,41.753,69.6,030416,,,A*56
$GPGGA,082620.00,3206.37681,N,03451.77815,E,1,08,0.00,20.1,M,,,,*39
$GPRMC,082620.00,A,3206.37681,N,03451.77815,E,41.498,70.6,030416,,,A*52
$GPGGA,082622.00,3206.38001,N,03451.78373,E,1,08,0.00,19.0,M,,,,*35
$GPRMC,082622.00,A,3206.38001,N,03451.78373,E,40.929,68.7,030416,,,A*5B
$GPGGA,082623.00,3206.38084,N,03451.78749,E,1,08,0.00,18.9,M,,,,*3C
$GPRMC,082623.00,A,3206.38084,N,03451.78749,E,40.633,68.7,030416,,,A*5E
$GPGGA,082625.00,3206.38244,N,03451.79424,E,1,08,0.00,18.6,M,,,,*32
$GPRMC,082625.00,A,3206.38244,N,03451.79424,E,40.113,68.7,030416,,,A*5A
$GPGGA,082627.00,3206.38432,N,03451.79811,E,1,08,0.00,19.2,M,,,,*38
$GPRMC,082627.00,A,3206.38432,N,03451.79811,E,39.566,69.9,030416,,,A*52
$GPGGA,082628.00,3206.38536,N,03451.79886,E,1,08,0.00,19.7,M,,,,*39
$GPRMC,082628.00,A,3206.38536,N,03451.79886,E,39.232,72.4,030416,,,A*57
$GPGGA,082630.00,3206.38521,N,03451.79899,E,1,08,0.00,20.0,M,,,,*35
$GPRMC,082630.00,A,3206.38521,N,03451.79899,E,38.582,65.2,030416,,,A*5B
$GPGGA,082632.00,3206.38618,N,03451.79677,E,1,08,0.00,17.7,M,,,,*33
$GPRMC,082632.00,A,3206.38618,N,03451.79677,E,37.887,65.6,030416,,,A*5D
$GPGGA,082634.00,3206.38476,N,03451.79929,E,1,08,0.00,16.9,M,,,,*34
$GPRMC,082634.00,A,3206.38476,N,03451.79929,E,37.329,61.4,030416,,,A*5C
$GPGGA,082636.00,3206.38344,N,03451.79868,E,1,08,0.00,17.0,M,,,,*3C
$GPRMC,082636.00,A,3206.38344,N,03451.79868,E,36.738,54.3,030416,,,A*58
$GPGGA,082637.00,3206.38438,N,03451.79813,E,1,08,0.00,16.6,M,,,,*3A
$GPRMC,082637.00,A,3206.38438,N,03451.79813,E,36.418,53.3,030416,,,A*5F
$GPGGA,082639.00,3206.38536,N,03451.79813,E,1,08,0.00,15.2,M,,,,*3C
$GPRMC,082639.00,A,3206.38536,N,03451.79813,E,35.854,64.4,030416,,,A*5A
$GPGGA,082641.00,3206.38566,N,03451.79849,E,1,08,0.00,16.5,M,,,,*3D
$GPRMC,082641.00,A,3206.38566,N,03451.79849,E,35.311,63.9,030416,,,A*5F
$GPGGA,082643.00,3206.38577,N,03451.80024,E,1,08,0.00,15.3,M,,,,*3F
$GPRMC,082643.00,A,3206.38577,N,03451.80024,E,34.855,67.4,030416,,,A*5B
$GPGGA,082644.00,3206.38553,N,03451.80038,E,1,08,0.00,15.1,M,,,,*31
$GPRMC,082644.00,A,3206.38553,N,03451.80038,E,34.558,46.1,030416,,,A*51
$GPGGA,082646.00,3206.38542,N,03451.80000,E,1,08,0.00,15.4,M,,,,*3D
$GPRMC,082646.00,A,3206.38542,N,03451.80000,E,34.035,32.4,030416,,,A*50
$GPGGA,082648.00,3206.38519,N,03451.79969,E,1,08,0.00,15.9,M,,,,*30
$GPRMC,082648.00,A,3206.38519,N,03451.79969,E,33.535,32.1,030416,,,A*57
$GPGGA,082650.00,3206.38555,N,03451.79946,E,1,08,0.00,12.9,M,,,,*3B
$GPRMC,082650.00,A,3206.38555,N,03451.79946,E,33.080,32.1,030416,,,A*50
$GPGGA,082651.00,3206.38555,N,03451.79946,E,1,08,0.00,13.0,M,,,,*32
$GPRMC,082651.00,A,3206.38555,N,03451.79946,E,32.816,45.6,030416,,,A*50
$GPGGA,082653.00,3206.38789,N,03451.79913,E,1,08,0.00,15.3,M,,,,*36
$GPRMC,082653.00,A,3206.38789,N,03451.79913,E,32.373,51.2,030416,,,A*58
$GPGGA,082655.00,3206.38812,N,03451.79953,E,1,08,0.00,12.4,M,,,,*39
$GPRMC,082655.00,A,3206.38812,N,03451.79953,E,31.959,51.2,030416,,,A*56
$GPGGA,082656.00,3206.38935,N,03451.80048,E,1,08,0.00,12.3,M,,,,*3C
$GPRMC,082656.00,A,3206.38935,N,03451.80048,E,31.763,44.5,030416,,,A*50
$GPGGA,082658.00,3206.38946,N,03451.80081,E,1,08,0.00,10.9,M,,,,*3B
$GPRMC,082658.00,A,3206.38946,N,03451.80081,E,31.337,45.6,030416,,,A*58
$GPGGA,082700.00,3206.38985,N,03451.80011,E,1,08,0.00,9.9,M,,,,*09
$GPRMC,082700.00,A,3206.38985,N,03451.80011,E,30.911,45.5,030416,,,A*5E
$GPGGA,082701.00,3206.39015,N,03451.79985,E,1,08,0.00,10.3,M,,,,*39
$GPRMC,082701.00,A,3206.39015,N,03451.79985,E,30.701,46.6,030416,,,A*53
$GPGGA,082702.00,3206.39026,N,03451.79979,E,1,08,0.00,11.3,M,,,,*38
$GPRMC,082702.00,A,3206.39026,N,03451.79979,E,30.491,59.9,030416,,,A*58
$GPGGA,082704.00,3206.38966,N,03451.80029,E,1,08,0.00,10.2,M,,,,*38
$GPRMC,082704.00,A,3206.38966,N,03451.80029,E,30.111,54.2,030416,,,A*53
$GPGGA,082705.00,3206.38932,N,03451.80062,E,1,08,0.00,9.7,M,,,,*0A
$GPRMC,082705.00,A,3206.38932,N,03451.80062,E,29.912,64.5,030416,,,A*5B
$GPGGA,082706.00,3206.38895,N,03451.80079,E,1,08,0.00,10.0,M,,,,*30
$GPRMC,082706.00,A,3206.38895,N,03451.80079,E,29.711,54.7,030416,,,A*52
$GPGGA,082707.00,3206.38855,N,03451.80081,E,1,08,0.00,11.0,M,,,,*3B
$GPRMC,082707.00,A,3206.38855,N,03451.80081,E,29.517,53.4,030416,,,A*58
$GPGGA,082709.00,3206.38809,N,03451.80015,E,1,08,0.00,11.8,M,,,,*39
$GPRMC,082709.00,A,3206.38809,N,03451.80015,E,29.123,46.9,030416,,,A*58
$GPGGA,082711.00,3206.38745,N,03451.79934,E,1,08,0.00,11.7,M,,,,*34
$GPRMC,082711.00,A,3206.38745,N,03451.79934,E,28.757,36.3,030416,,,A*53
$GPGGA,082713.00,3206.38700,N,03451.79900,E,1,08,0.00,11.0,M,,,,*37
$GPRMC,082713.00,A,3206.38700,N,03451.79900,E,28.390,52.0,030416,,,A*59
$GPGGA,082714.00,3206.38670,N,03451.79888,E,1,08,0.00,10.5,M,,,,*33
$GPRMC,082714.00,A,3206.38670,N,03451.79888,E,28.210,53.1,030416,,,A*50
$GPGGA,082716.00,3206.38639,N,03451.79876,E,1,08,0.00,11.5,M,,,,*3C
$GPRMC,082716.00,A,3206.38639,N,03451.79876,E,27.869,58.3,030416,,,A*5C
$GPGGA,082718.00,3206.38618,N,03451.79951,E,1,08,0.00,11.9,M,,,,*39
$GPRMC,082718.00,A,3206.38618,N,03451.79951,E,27.545,43.2,030416,,,A*5D
$GPGGA,082720.00,3206.38588,N,03451.80051,E,1,08,0.00,12.6,M,,,,*3B
$GPRMC,082720.00,A,3206.38588,N,03451.80051,E,27.235,38.1,030416,,,A*5C
$GPGGA,082722.00,3206.38569,N,03451.80104,E,1,08,0.00,12.6,M,,,,*37
$GPRMC,082722.00,A,3206.38569,N,03451.80104,E,26.935,65.6,030416,,,A*55
$GPGGA,082723.00,3206.38576,N,03451.80128,E,1,08,0.00,13.4,M,,,,*35
$GPRMC,082723.00,A,3206.38576,N,03451.80128,E,26.777,60.1,030416,,,A*5E
$GPGGA,082725.00,3206.38614,N,03451.80182,E,1,08,0.00,12.3,M,,,,*32
$GPRMC,082725.00,A,3206.38614,N,03451.80182,E,26.490,65.3,030416,,,A*52
$GPGGA,082727.00,3206.38650,N,03451.80215,E,1,08,0.00,11.8,M,,,,*35
$GPRMC,082727.00,A,3206.38650,N,03451.80215,E,26.212,57.1,030416,,,A*52
$GPGGA,082728.00,3206.38668,N,03451.80255,E,1,08,0.00,10.8,M,,,,*34
$GPRMC,082728.00,A,3206.38668,N,03451.80255,E,26.068,63.4,030416,,,A*5F
$GPGGA,082729.00,3206.38660,N,03451.80296,E,1,08,0.00,12.5,M,,,,*3D
$GPRMC,082729.00,A,3206.38660,N,03451.80296,E,25.912,61.6,030416,,,A*5E
$GPGGA,082731.00,3206.38642,N,03451.80341,E,1,08,0.00,12.0,M,,,,*3A
$GPRMC,082731.00,A,3206.38642,N,03451.80341,E,25.646,59.6,030416,,,A*59
$GPGGA,082732.00,3206.38642,N,03451.80341,E,1,08,0.00,11.1,M,,,,*3B
$GPRMC,082732.00,A,3206.38642,N,03451.80341,E,25.496,59.3,030416,,,A*50
$GPGGA,082734.00,3206.38642,N,03451.80341,E,1,08,0.00,10.6,M,,,,*3B
$GPRMC,082734.00,A,3206.38642,N,03451.80341,E,25.211,46.5,030416,,,A*57
$GPGGA,082736.00,3206.38642,N,03451.80341,E,1,08,0.00,10.4,M,,,,*3B
$GPRMC,082736.00,A,3206.38642,N,03451.80341,E,24.948,40.2,030416,,,A*52
$GPGGA,082738.00,3206.38642,N,03451.80341,E,1,08,0.00,10.2,M,,,,*33
$GPRMC,082738.00,A,3206.38642,N,03451.80341,E,24.680,28.0,030416,,,A*5B
$GPGGA,082740.00,3206.38642,N,03451.80341,E,1,08,0.00,10.6,M,,,,*38
$GPRMC,082740.00,A,3206.38642,N,03451.80341,E,24.433,32.2,030416,,,A*57
$GPGGA,082741.00,3206.38546,N,03451.80610,E,1,08,0.00,10.9,M,,,,*30
$GPRMC,082741.00,A,3206.38546,N,03451.80610,E,24.341,38.9,030416,,,A*53
$GPGGA,082743.00,3206.38672,N,03451.81029,E,1,08,0.00,12.1,M,,,,*31
$GPRMC,082743.00,A,3206.38672,N,03451.81029,E,24.159,14.2,030416,,,A*56
$GPGGA,082744.00,3206.38705,N,03451.81292,E,1,08,0.00,11.3,M,,,,*34
$GPRMC,082744.00,A,3206.38705,N,03451.81292,E,24.075,39.8,030416,,,A*58
$GPGGA,082745.00,3206.38722,N,03451.81585,E,1,08,0.00,12.0,M,,,,*31
$GPRMC,082745.00,A,3206.38722,N,03451.81585,E,23.995,34.6,030416,,,A*5E
$GPGGA,082747.00,3206.38856,N,03451.82333,E,1,08,0.00,11.7,M,,,,*33
$GPRMC,082747.00,A,3206.38856,N,03451.82333,E,23.873,41.8,030416,,,A*5D
$GPGGA,082749.00,3206.38986,N,03451.84032,E,1,08,0.00,13.2,M,,,,*32
$GPRMC,082749.00,A,3206.38986,N,03451.84032,E,23.894,42.2,030416,,,A*5B
$GPGGA,082751.00,3206.39190,N,03451.84823,E,1,08,0.00,13.7,M,,,,*38
$GPRMC,082751.00,A,3206.39190,N,03451.84823,E,23.780,44.3,030416,,,A*59
$GPGGA,082752.00,3206.39191,N,03451.85209,E,1,08,0.00,14.4,M,,,,*3D
$GPRMC,082752.00,A,3206.39191,N,03451.85209,E,23.718,42.3,030416,,,A*5F
$GPGGA,082754.00,3206.39617,N,03451.86023,E,1,08,0.00,15.9,M,,,,*37
$GPRMC,082754.00,A,3206.39617,N,03451.86023,E,23.620,47.2,030416,,,A*57
$GPGGA,082755.00,3206.39542,N,03451.86388,E,1,08,0.00,17.2,M,,,,*3E
$GPRMC,082755.00,A,3206.39542,N,03451.86388,E,23.553,48.4,030416,,,A*59
$GPGGA,082756.00,3206.39645,N,03451.86849,E,1,08,0.00,17.0,M,,,,*3D
$GPRMC,082756.00,A,3206.39645,N,03451.86849,E,23.508,52.0,030416,,,A*59
$GPGGA,082758.00,3206.39602,N,03451.88064,E,1,08,0.00,15.4,M,,,,*3F
$GPRMC,082758.00,A,3206.39602,N,03451.88064,E,23.459,31.4,030416,,,A*59
$GPGGA,082759.00,3206.39781,N,03451.88742,E,1,08,0.00,15.8,M,,,,*3B
$GPRMC,082759.00,A,3206.39781,N,03451.88742,E,23.448,29.8,030416,,,A*54
$GPGGA,082801.00,3206.40255,N,03451.90111,E,1,08,0.00,15.8,M,,,,*32
$GPRMC,082801.00,A,3206.40255,N,03451.90111,E,23.437,29.8,030416,,,A*55
$GPGGA,082802.00,3206.40354,N,03451.90630,E,1,08,0.00,15.9,M,,,,*34
$GPRMC,082802.00,A,3206.40354,N,03451.90630,E,23.402,29.8,030416,,,A*54
$GPGGA,082803.00,3206.40420,N,03451.91197,E,1,08,0.00,15.8,M,,,,*3B
$GPRMC,082803.00,A,3206.40420,N,03451.91197,E,23.363,30.9,030416,,,A*53
$GPGGA,082805.00,3206.40569,N,03451.92480,E,1,08,0.00,15.7,M,,,,*3E
$GPRMC,082805.00,A,3206.40569,N,03451.92480,E,23.343,30.9,030416,,,A*5B
$GPGGA,082806.00,3206.40569,N,03451.92480,E,1,08,0.00,16.4,M,,,,*3D
$GPRMC,082806.00,A,3206.40569,N,03451.92480,E,23.225,32.1,030416,,,A*53
$GPGGA,082808.00,3206.40569,N,03451.92480,E,1,08,0.00,18.1,M,,,,*38
$GPRMC,082808.00,A,3206.40569,N,03451.92480,E,23.015,36.4,030416,,,A*5D
$GPGGA,082810.00,3206.41655,N,03451.96830,E,1,08,0.00,17.1,M,,,,*30
$GPRMC,082810.00,A,3206.41655,N,03451.96830,E,23.438,33.8,030416,,,A*58
$GPGGA,082812.00,3206.41879,N,03451.98371,E,1,08,0.00,16.8,M,,,,*3A
$GPRMC,082812.00,A,3206.41879,N,03451.98371,E,23.443,24.7,030416,,,A*5F
$GPGGA,082814.00,3206.42580,N,03451.99284,E,1,08,0.00,18.0,M,,,,*38
$GPRMC,082814.00,A,3206.42580,N,03451.99284,E,23.378,11.5,030416,,,A*50
$GPGGA,082815.00,3206.43101,N,03452.01030,E,1,08,0.00,17.3,M,,,,*36
$GPRMC,082815.00,A,3206.43101,N,03452.01030,E,23.522,12.6,030416,,,A*5B
$GPGGA,082817.00,3206.43849,N,03452.01321,E,1,08,0.00,9.7,M,,,,*09
$GPRMC,082817.00,A,3206.43849,N,03452.01321,E,23.376,1.8,030416,,,A*64
$GPGGA,082819.00,3206.44460,N,03452.02910,E,1,08,0.00,9.7,M,,,,*0C
$GPRMC,082819.00,A,3206.44460,N,03452.02910,E,23.400,3.5,030416,,,A*68
$GPGGA,082820.00,3206.44759,N,03452.03676,E,1,08,0.00,9.4,M,,,,*02
$GPRMC,082820.00,A,3206.44759,N,03452.03676,E,23.407,8.0,030416,,,A*6C
$GPGGA,082821.00,3206.45297,N,03452.04719,E,1,08,0.00,9.2,M,,,,*0C
$GPRMC,082821.00,A,3206.45297,N,03452.04719,E,23.458,5.5,030416,,,A*66
$GPGGA,082823.00,3206.45620,N,03452.05863,E,1,08,0.00,10.2,M,,,,*3D
$GPRMC,082823.00,A,3206.45620,N,03452.05863,E,23.414,357.5,030416,,,A*63
$GPGGA,082824.00,3206.45473,N,03452.06336,E,1,08,0.00,10.4,M,,,,*30
$GPRMC,082824.00,A,3206.45473,N,03452.06336,E,23.366,348.8,030416,,,A*69
$GPGGA,082826.00,3206.45856,N,03452.07912,E,1,08,0.00,10.1,M,,,,*31
$GPRMC,082826.00,A,3206.45856,N,03452.07912,E,23.384,337.1,030416,,,A*60
$GPGGA,082827.00,3206.46123,N,03452.08752,E,1,08,0.00,11.1,M,,,,*3C
$GPRMC,082827.00,A,3206.46123,N,03452.08752,E,23.398,340.4,030416,,,A*64
$GPGGA,082829.00,3206.46643,N,03452.10884,E,1,08,0.00,11.8,M,,,,*37
$GPRMC,082829.00,A,3206.46643,N,03452.10884,E,23.486,343.0,030416,,,A*69
$GPGGA,082831.00,3206.46850,N,03452.12954,E,1,08,0.00,10.1,M,,,,*34
$GPRMC,082831.00,A,3206.46850,N,03452.12954,E,23.553,344.9,030416,,,A*65
$GPGGA,082832.00,3206.46904,N,03452.13577,E,1,08,0.00,10.9,M,,,,*33
$GPRMC,082832.00,A,3206.46904,N,03452.13577,E,23.534,343.6,030416,,,A*63
$GPGGA,082833.00,3206.47363,N,03452.14682,E,1,08,0.00,10.9,M,,,,*36
$GPRMC,082833.00,A,3206.47363,N,03452.14682,E,23.577,344.7,030416,,,A*67
$GPGGA,082835.00,3206.47294,N,03452.16785,E,1,08,0.00,11.0,M,,,,*35
$GPRMC,082835.00,A,3206.47294,N,03452.16785,E,23.645,341.4,030416,,,A*68
$GPGGA,082836.00,3206.47527,N,03452.17793,E,1,08,0.00,11.9,M,,,,*36
$GPRMC,082836.00,A,3206.47527,N,03452.17793,E,23.666,30.0,030416,,,A*52
$GPGGA,082838.00,3206.47977,N,03452.20056,E,1,08,0.00,11.4,M,,,,*36
$GPRMC,082838.00,A,3206.47977,N,03452.20056,E,23.771,35.7,030416,,,A*5A
$GPGGA,082840.00,3206.48647,N,03452.22516,E,1,08,0.00,13.4,M,,,,*3B
$GPRMC,082840.00,A,3206.48647,N,03452.22516,E,23.889,60.5,030416,,,A*5F
$GPGGA,082842.00,3206.49577,N,03452.25164,E,1,08,0.00,12.0,M,,,,*3B
$GPRMC,082842.00,A,3206.49577,N,03452.25164,E,24.048,71.5,030416,,,A*58
$GPGGA,082844.00,3206.49702,N,03452.27405,E,1,08,0.00,14.7,M,,,,*3C
$GPRMC,082844.00,A,3206.49702,N,03452.27405,E,24.125,71.5,030416,,,A*54
$GPGGA,082846.00,3206.50267,N,03452.29644,E,1,08,0.00,16.7,M,,,,*3B
$GPRMC,082846.00,A,3206.50267,N,03452.29644,E,24.214,88.6,030416,,,A*55
$GPGGA,082848.00,3206.51055,N,03452.31907,E,1,08,0.00,15.9,M,,,,*3B
$GPRMC,082848.00,A,3206.51055,N,03452.31907,E,24.320,52.0,030416,,,A*5F
$GPGGA,082850.00,3206.51773,N,03452.33902,E,1,08,0.00,17.0,M,,,,*3D
$GPRMC,082850.00,A,3206.51773,N,03452.33902,E,24.384,41.7,030416,,,A*59
$GPGGA,082851.00,3206.52041,N,03452.35073,E,1,08,0.00,15.3,M,,,,*31
$GPRMC,082851.00,A,3206.52041,N,03452.35073,E,24.431,2.9,030416,,,A*64
$GPGGA,082852.00,3206.52165,N,03452.36169,E,1,08,0.00,14.7,M,,,,*39
$GPRMC,082852.00,A,3206.52165,N,03452.36169,E,24.466,37.6,030416,,,A*52
$GPGGA,082854.00,3206.52683,N,03452.37639,E,1,08,0.00,12.6,M,,,,*34
$GPRMC,082854.00,A,3206.52683,N,03452.37639,E,24.463,60.4,030416,,,A*5D
$GPGGA,082855.00,3206.53161,N,03452.38565,E,1,08,0.00,11.0,M,,,,*3F
$GPRMC,082855.00,A,3206.53161,N,03452.38565,E,24.488,59.3,030416,,,A*5B
$GPGGA,082856.00,3206.53402,N,03452.39576,E,1,08,0.00,10.4,M,,,,*3A
$GPRMC,082856.00,A,3206.53402,N,03452.39576,E,24.516,61.5,030416,,,A*50
$GPGGA,082858.00,3206.55227,N,03452.42307,E,1,08,0.00,7.6,M,,,,*0B
$GPRMC,082858.00,A,3206.55227,N,03452.42307,E,24.692,60.7,030416,,,A*59
$GPGGA,082859.00,3206.55571,N,03452.43084,E,1,08,0.00,13.6,M,,,,*32
$GPRMC,082859.00,A,3206.55571,N,03452.43084,E,24.696,60.4,030416,,,A*52
$GPGGA,082901.00,3206.55949,N,03452.45784,E,1,08,0.00,15.9,M,,,,*31
$GPRMC,082901.00,A,3206.55949,N,03452.45784,E,24.823,39.3,030416,,,A*53
$GPGGA,082902.00,3206.56300,N,03452.47006,E,1,08,0.00,15.7,M,,,,*37
$GPRMC,082902.00,A,3206.56300,N,03452.47006,E,24.871,33.8,030416,,,A*5D
$GPGGA,082904.00,3206.57016,N,03452.49475,E,1,08,0.00,15.7,M,,,,*3A
$GPRMC,082904.00,A,3206.57016,N,03452.49475,E,24.983,30.1,030416,,,A*56
$GPGGA,082905.00,3206.57445,N,03452.50547,E,1,08,0.00,16.5,M,,,,*30
$GPRMC,082905.00,A,3206.57445,N,03452.50547,E,25.019,36.7,030416,,,A*56
$GPGGA,082907.00,3206.57989,N,03452.52873,E,1,08,0.00,15.1,M,,,,*30
$GPRMC,082907.00,A,3206.57989,N,03452.52873,E,25.105,40.3,030416,,,A*58
$GPGGA,082909.00,3206.58535,N,03452.55473,E,1,08,0.00,15.9,M,,,,*39
$GPRMC,082909.00,A,3206.58535,N,03452.55473,E,25.220,38.2,030416,,,A*53
$GPGGA,082910.00,3206.58766,N,03452.56847,E,1,08,0.00,16.0,M,,,,*37
$GPRMC,082910.00,A,3206.58766,N,03452.56847,E,25.280,38.4,030416,,,A*5B
$GPGGA,082912.00,3206.59315,N,03452.59272,E,1,08,0.00,16.2,M,,,,*35
$GPRMC,082912.00,A,3206.59315,N,03452.59272,E,25.375,36.3,030416,,,A*59
$GPGGA,082913.00,3206.59744,N,03452.60510,E,1,08,0.00,15.8,M,,,,*34
$GPRMC,082913.00,A,3206.59744,N,03452.60510,E,25.426,34.2,030416,,,A*53
$GPGGA,082915.00,3206.60356,N,03452.63115,E,1,08,0.00,16.0,M,,,,*36
$GPRMC,082915.00,A,3206.60356,N,03452.63115,E,25.538,40.6,030416,,,A*53
$GPGGA,082916.00,3206.60689,N,03452.64560,E,1,08,0.00,15.7,M,,,,*37
$GPRMC,082916.00,A,3206.60689,N,03452.64560,E,25.608,41.8,030416,,,A*59
$GPGGA,082918.00,3206.61177,N,03452.67219,E,1,08,0.00,16.2,M,,,,*32
$GPRMC,082918.00,A,3206.61177,N,03452.67219,E,25.720,40.4,030416,,,A*5C
$GPGGA,082919.00,3206.61796,N,03452.68062,E,1,08,0.00,16.7,M,,,,*3E
$GPRMC,082919.00,A,3206.61796,N,03452.68062,E,25.735,42.8,030416,,,A*5F
$GPGGA,082920.00,3206.62180,N,03452.69316,E,1,08,0.00,17.5,M,,,,*34
$GPRMC,082920.00,A,3206.62180,N,03452.69316,E,25.784,42.8,030416,,,A*5C
$GPGGA,082921.00,3206.62945,N,03452.70386,E,1,08,0.00,15.1,M,,,,*33
$GPRMC,082921.00,A,3206.62945,N,03452.70386,E,25.827,40.6,030416,,,A*57
$GPGGA,082922.00,3206.62811,N,03452.71533,E,1,08,0.00,15.7,M,,,,*3F
$GPRMC,082922.00,A,3206.62811,N,03452.71533,E,25.849,39.7,030416,,,A*5A
$GPGGA,082924.00,3206.63650,N,03452.74121,E,1,08,0.00,14.9,M,,,,*3E
$GPRMC,082924.00,A,3206.63650,N,03452.74121,E,25.961,34.5,030416,,,A*50
$GPGGA,082925.00,3206.64955,N,03452.75122,E,1,08,0.00,17.7,M,,,,*3D
$GPRMC,082925.00,A,3206.64955,N,03452.75122,E,26.012,4.3,030416,,,A*65
$GPGGA,082927.00,3206.65639,N,03452.77712,E,1,08,0.00,16.0,M,,,,*3A
$GPRMC,082927.00,A,3206.65639,N,03452.77712,E,26.114,356.4,030416,,,A*60
$GPGGA,082929.00,3206.66388,N,03452.80652,E,1,08,0.00,17.4,M,,,,*30
$GPRMC,082929.00,A,3206.66388,N,03452.80652,E,26.253,356.8,030416,,,A*63
$GPGGA,082931.00,3206.67156,N,03452.83492,E,1,08,0.00,15.9,M,,,,*3B
$GPRMC,082931.00,A,3206.67156,N,03452.83492,E,26.375,0.9,030416,,,A*63
$GPGGA,082932.00,3206.67532,N,03452.84847,E,1,08,0.00,16.4,M,,,,*33
$GPRMC,082932.00,A,3206.67532,N,03452.84847,E,26.427,1.1,030416,,,A*6C
$GPGGA,082934.00,3206.68249,N,03452.87674,E,1,08,0.00,15.7,M,,,,*3C
$GPRMC,082934.00,A,3206.68249,N,03452.87674,E,26.560,2.3,030416,,,A*60
$GPGGA,082935.00,3206.68483,N,03452.88927,E,1,08,0.00,14.4,M,,,,*39
$GPRMC,082935.00,A,3206.68483,N,03452.88927,E,26.591,3.5,030416,,,A*6E
$GPGGA,082937.00,3206.69164,N,03452.91870,E,1,08,0.00,13.9,M,,,,*37
$GPRMC,082937.00,A,3206.69164,N,03452.91870,E,26.732,25.4,030416,,,A*54
$GPGGA,082938.00,3206.69462,N,03452.93208,E,1,08,0.00,14.0,M,,,,*32
$GPRMC,082938.00,A,3206.69462,N,03452.93208,E,26.771,23.8,030416,,,A*52
$GPGGA,082940.00,3206.70007,N,03452.96018,E,1,08,0.00,14.7,M,,,,*33
$GPRMC,082940.00,A,3206.70007,N,03452.96018,E,26.894,22.8,030416,,,A*51
$GPGGA,082941.00,3206.70277,N,03452.97503,E,1,08,0.00,15.2,M,,,,*3D
$GPRMC,082941.00,A,3206.70277,N,03452.97503,E,26.954,20.5,030416,,,A*59
$GPGGA,082942.00,3206.70667,N,03452.98785,E,1,08,0.00,14.6,M,,,,*3D
$GPRMC,082942.00,A,3206.70667,N,03452.98785,E,26.993,21.7,030416,,,A*54
$GPGGA,082944.00,3206.71129,N,03452.99730,E,1,08,0.00,13.5,M,,,,*3C
$GPRMC,082944.00,A,3206.71129,N,03452.99730,E,26.923,28.9,030416,,,A*5D
$GPGGA,082946.00,3206.71531,N,03453.00422,E,1,08,0.00,15.4,M,,,,*35
$GPRMC,082946.00,A,3206.71531,N,03453.00422,E,26.837,21.9,030416,,,A*5E
$GPGGA,082948.00,3206.70078,N,03453.08754,E,1,08,0.00,17.9,M,,,,*37
$GPRMC,082948.00,A,3206.70078,N,03453.08754,E,27.405,37.4,030416,,,A*55
$GPGGA,082949.00,3206.70115,N,03453.10442,E,1,08,0.00,21.6,M,,,,*3B
$GPRMC,082949.00,A,3206.70115,N,03453.10442,E,27.474,40.6,030416,,,A*57
$GPGGA,082951.00,3206.70336,N,03453.13982,E,1,08,0.00,21.5,M,,,,*30
$GPRMC,082951.00,A,3206.70336,N,03453.13982,E,27.636,45.4,030416,,,A*5C
$GPGGA,082953.00,3206.70734,N,03453.17174,E,1,08,0.00,22.5,M,,,,*32
$GPRMC,082953.00,A,3206.70734,N,03453.17174,E,27.771,61.2,030416,,,A*5F
$GPGGA,082954.00,3206.70875,N,03453.18873,E,1,08,0.00,24.9,M,,,,*34
$GPRMC,082954.00,A,3206.70875,N,03453.18873,E,27.845,63.3,030416,,,A*58
$GPGGA,082955.00,3206.71157,N,03453.20283,E,1,08,0.00,25.1,M,,,,*3A
$GPRMC,082955.00,A,3206.71157,N,03453.20283,E,27.894,62.7,030416,,,A*56
$GPGGA,082956.00,3206.71095,N,03453.22120,E,1,08,0.00,25.6,M,,,,*39
$GPRMC,082956.00,A,3206.71095,N,03453.22120,E,27.974,61.7,030416,,,A*5E
$GPGGA,082958.00,3206.71567,N,03453.25346,E,1,08,0.00,24.0,M,,,,*3D
$GPRMC,082958.00,A,3206.71567,N,03453.25346,E,28.102,62.9,030416,,,A*56
$GPGGA,083000.00,3206.71725,N,03453.28995,E,1,08,0.00,22.9,M,,,,*3A
$GPRMC,083000.00,A,3206.71725,N,03453.28995,E,28.272,63.4,030416,,,A*56
$GPGGA,083001.00,3206.71950,N,03453.30806,E,1,08,0.00,20.8,M,,,,*36
$GPRMC,083001.00,A,3206.71950,N,03453.30806,E,28.344,63.6,030416,,,A*5F
$GPGGA,083003.00,3206.72268,N,03453.34263,E,1,08,0.00,18.1,M,,,,*38
$GPRMC,083003.00,A,3206.72268,N,03453.34263,E,28.486,62.8,030416,,,A*55
$GPGGA,083005.00,3206.72421,N,03453.37855,E,1,08,0.00,20.1,M,,,,*32
$GPRMC,083005.00,A,3206.72421,N,03453.37855,E,28.655,62.0,030416,,,A*50
$GPGGA,083006.00,3206.72589,N,03453.39550,E,1,08,0.00,20.5,M,,,,*30
$GPRMC,083006.00,A,3206.72589,N,03453.39550,E,28.720,51.1,030416,,,A*54
$GPGGA,083007.00,3206.72781,N,03453.41247,E,1,08,0.00,21.0,M,,,,*31
$GPRMC,083007.00,A,3206.72781,N,03453.41247,E,28.782,46.0,030416,,,A*5E
$GPGGA,083009.00,3206.73669,N,03453.44314,E,1,08,0.00,20.7,M,,,,*3D
$GPRMC,083009.00,A,3206.73669,N,03453.44314,E,28.912,67.2,030416,,,A*52
$GPGGA,083010.00,3206.73783,N,03453.45473,E,1,08,0.00,20.9,M,,,,*39
$GPRMC,083010.00,A,3206.73783,N,03453.45473,E,28.928,63.3,030416,,,A*54
$GPGGA,083012.00,3206.74365,N,03453.47908,E,1,08,0.00,21.7,M,,,,*3C
$GPRMC,083012.00,A,3206.74365,N,03453.47908,E,28.980,63.9,030416,,,A*56
$GPGGA,083014.00,3206.75584,N,03453.49936,E,1,08,0.00,21.6,M,,,,*30
$GPRMC,083014.00,A,3206.75584,N,03453.49936,E,29.019,64.7,030416,,,A*5A
$GPGGA,083015.00,3206.73144,N,03453.54620,E,1,08,0.00,21.6,M,,,,*3B
$GPRMC,083015.00,A,3206.73144,N,03453.54620,E,29.279,66.7,030416,,,A*57
$GPGGA,083017.00,3206.73562,N,03453.57296,E,1,08,0.00,22.0,M,,,,*36
$GPRMC,083017.00,A,3206.73562,N,03453.57296,E,29.350,65.7,030416,,,A*56
$GPGGA,083019.00,3206.73703,N,03453.60470,E,1,08,0.00,22.6,M,,,,*31
$GPRMC,083019.00,A,3206.73703,N,03453.60470,E,29.462,68.0,030416,,,A*5B
$GPGGA,083021.00,3206.73898,N,03453.63298,E,1,08,0.00,19.7,M,,,,*3D
$GPRMC,083021.00,A,3206.73898,N,03453.63298,E,29.540,65.7,030416,,,A*55
$GPGGA,083023.00,3206.73996,N,03453.66198,E,1,08,0.00,24.3,M,,,,*3C
$GPRMC,083023.00,A,3206.73996,N,03453.66198,E,29.620,71.4,030416,,,A*5D
$GPGGA,083025.00,3206.74159,N,03453.69002,E,1,08,0.00,25.4,M,,,,*3D
$GPRMC,083025.00,A,3206.74159,N,03453.69002,E,29.694,73.3,030416,,,A*50
$GPGGA,083026.00,3206.74191,N,03453.70223,E,1,08,0.00,25.3,M,,,,*34
$GPRMC,083026.00,A,3206.74191,N,03453.70223,E,29.713,60.1,030416,,,A*50
$GPGGA,083027.00,3206.74147,N,03453.71648,E,1,08,0.00,26.2,M,,,,*34
$GPRMC,083027.00,A,3206.74147,N,03453.71648,E,29.747,53.7,030416,,,A*55
$GPGGA,083028.00,3206.74336,N,03453.72947,E,1,08,0.00,26.7,M,,,,*39
$GPRMC,083028.00,A,3206.74336,N,03453.72947,E,29.775,52.7,030416,,,A*5D
$GPGGA,083030.00,3206.74036,N,03453.75426,E,1,08,0.00,25.0,M,,,,*3A
$GPRMC,083030.00,A,3206.74036,N,03453.75426,E,29.809,74.4,030416,,,A*59
$GPGGA,083031.00,3206.73989,N,03453.76859,E,1,08,0.00,24.8,M,,,,*3F
$GPRMC,083031.00,A,3206.73989,N,03453.76859,E,29.843,75.8,030416,,,A*56
$GPGGA,083033.00,3206.73624,N,03453.79204,E,1,08,0.00,23.9,M,,,,*3E
$GPRMC,083033.00,A,3206.73624,N,03453.79204,E,29.865,63.3,030416,,,A*59
$GPGGA,083034.00,3206.73486,N,03453.80586,E,1,08,0.00,23.6,M,,,,*37
$GPRMC,083034.00,A,3206.73486,N,03453.80586,E,29.892,53.0,030416,,,A*57
$GPGGA,083036.00,3206.73345,N,03453.83228,E,1,08,0.00,24.4,M,,,,*38
$GPRMC,083036.00,A,3206.73345,N,03453.83228,E,29.944,49.9,030416,,,A*55
$GPGGA,083037.00,3206.73298,N,03453.84313,E,1,08,0.00,23.6,M,,,,*33
$GPRMC,083037.00,A,3206.73298,N,03453.84313,E,29.949,60.9,030416,,,A*5D
$GPGGA,083038.00,3206.73204,N,03453.85487,E,1,08,0.00,24.6,M,,,,*35
$GPRMC,083038.00,A,3206.73204,N,03453.85487,E,29.960,61.5,030416,,,A*5A
$GPGGA,083040.00,3206.73009,N,03453.88008,E,1,08,0.00,26.0,M,,,,*3F
$GPRMC,083040.00,A,3206.73009,N,03453.88008,E,29.993,70.8,030416,,,A*55
$GPGGA,083042.00,3206.72782,N,03453.90305,E,1,08,0.00,32.2,M,,,,*38
$GPRMC,083042.00,A,3206.72782,N,03453.90305,E,30.008,72.0,030416,,,A*5C
$GPGGA,083044.00,3206.72632,N,03453.92536,E,1,08,0.00,33.4,M,,,,*37
$GPRMC,083044.00,A,3206.72632,N,03453.92536,E,30.030,70.3,030416,,,A*5E
$GPGGA,083046.00,3206.72430,N,03453.94734,E,1,08,0.00,29.9,M,,,,*35
$GPRMC,083046.00,A,3206.72430,N,03453.94734,E,30.046,69.3,030416,,,A*53
$GPGGA,083048.00,3206.72302,N,03453.96753,E,1,08,0.00,28.8,M,,,,*3E
$GPRMC,083048.00,A,3206.72302,N,03453.96753,E,30.047,61.0,030416,,,A*52
$GPGGA,083050.00,3206.72199,N,03453.98304,E,1,08,0.00,28.3,M,,,,*34
$GPRMC,083050.00,A,3206.72199,N,03453.98304,E,30.009,50.0,030416,,,A*5B
$GPGGA,083052.00,3206.72131,N,03454.00222,E,1,08,0.00,31.1,M,,,,*3D
$GPRMC,083052.00,A,3206.72131,N,03454.00222,E,30.001,49.5,030416,,,A*5D
$GPGGA,083054.00,3206.71994,N,03454.01876,E,1,08,0.00,31.2,M,,,,*36
$GPRMC,083054.00,A,3206.71994,N,03454.01876,E,29.971,61.6,030416,,,A*5A
$GPGGA,083055.00,3206.71962,N,03454.02517,E,1,08,0.00,33.3,M,,,,*34
$GPRMC,083055.00,A,3206.71962,N,03454.02517,E,29.942,62.9,030416,,,A*57
$GPGGA,083056.00,3206.71798,N,03454.03122,E,1,08,0.00,33.7,M,,,,*3B
$GPRMC,083056.00,A,3206.71798,N,03454.03122,E,29.905,55.1,030416,,,A*53
$GPGGA,083058.00,3206.71651,N,03454.04555,E,1,08,0.00,32.9,M,,,,*3D
$GPRMC,083058.00,A,3206.71651,N,03454.04555,E,29.861,62.9,030416,,,A*55
$GPGGA,083100.00,3206.71618,N,03454.05733,E,1,08,0.00,29.6,M,,,,*3A
$GPRMC,083100.00,A,3206.71618,N,03454.05733,E,29.798,74.4,030416,,,A*54
$GPGGA,083102.00,3206.71584,N,03454.06871,E,1,08,0.00,26.7,M,,,,*3A
$GPRMC,083102.00,A,3206.71584,N,03454.06871,E,29.731,81.9,030416,,,A*5E
$GPGGA,083104.00,3206.71541,N,03454.07532,E,1,08,0.00,27.9,M,,,,*31
$GPRMC,083104.00,A,3206.71541,N,03454.07532,E,29.633,86.8,030416,,,A*5F
$GPGGA,083106.00,3206.71385,N,03454.07973,E,1,08,0.00,27.5,M,,,,*38
$GPRMC,083106.00,A,3206.71385,N,03454.07973,E,29.508,79.9,030416,,,A*50
$GPGGA,083108.00,3206.71430,N,03454.08300,E,1,08,0.00,26.9,M,,,,*33
$GPRMC,083108.00,A,3206.71430,N,03454.08300,E,29.384,75.3,030416,,,A*52
$GPGGA,083110.00,3206.71318,N,03454.08275,E,1,08,0.00,26.5,M,,,,*38
$GPRMC,083110.00,A,3206.71318,N,03454.08275,E,29.235,70.2,030416,,,A*5A
$GPGGA,083112.00,3206.71206,N,03454.08163,E,1,08,0.00,28.4,M,,,,*3F
$GPRMC,083112.00,A,3206.71206,N,03454.08163,E,29.084,67.0,030416,,,A*5E
$GPGGA,083114.00,3206.71095,N,03454.08062,E,1,08,0.00,29.7,M,,,,*33
$GPRMC,083114.00,A,3206.71095,N,03454.08062,E,28.933,67.0,030416,,,A*54
$GPGGA,083115.00,3206.71010,N,03454.08092,E,1,08,0.00,31.7,M,,,,*39
$GPRMC,083115.00,A,3206.71010,N,03454.08092,E,28.860,64.2,030416,,,A*51
$GPGGA,083117.00,3206.71022,N,03454.08033,E,1,08,0.00,33.4,M,,,,*30
$GPRMC,083117.00,A,3206.71022,N,03454.08033,E,28.716,65.2,030416,,,A*56
$GPGGA,083118.00,3206.71021,N,03454.08002,E,1,08,0.00,32.8,M,,,,*33
$GPRMC,083118.00,A,3206.71021,N,03454.08002,E,28.642,64.0,030416,,,A*5B
$GPGGA,083119.00,3206.71024,N,03454.08038,E,1,08,0.00,32.9,M,,,,*3F
$GPRMC,083119.00,A,3206.71024,N,03454.08038,E,28.571,64.0,030416,,,A*55
$GPGGA,083121.00,3206.71024,N,03454.08038,E,1,08,0.00,32.4,M,,,,*39
$GPRMC,083121.00,A,3206.71024,N,03454.08038,E,28.437,65.0,030416,,,A*5C
$GPGGA,083122.00,3206.71024,N,03454.08038,E,1,08,0.00,32.8,M,,,,*36
$GPRMC,083122.00,A,3206.71024,N,03454.08038,E,28.367,65.0,030416,,,A*5D
$GPGGA,083123.00,3206.70897,N,03454.08036,E,1,08,0.00,32.9,M,,,,*39
$GPRMC,083123.00,A,3206.70897,N,03454.08036,E,28.296,63.2,030416,,,A*58
$GPGGA,083125.00,3206.70908,N,03454.07980,E,1,08,0.00,34.8,M,,,,*34
$GPRMC,083125.00,A,3206.70908,N,03454.07980,E,28.155,63.7,030416,,,A*5B
$GPGGA,083127.00,3206.70908,N,03454.07980,E,1,08,0.00,35.1,M,,,,*3E
$GPRMC,083127.00,A,3206.70908,N,03454.07980,E,28.020,61.3,030416,,,A*5C
$GPGGA,083129.00,3206.70811,N,03454.07659,E,1,08,0.00,35.9,M,,,,*3A
$GPRMC,083129.00,A,3206.70811,N,03454.07659,E,27.861,48.4,030416,,,A*5E
$GPGGA,083131.00,3206.70718,N,03454.07599,E,1,08,0.00,35.5,M,,,,*36
$GPRMC,083131.00,A,3206.70718,N,03454.07599,E,27.723,60.9,030416,,,A*50
$GPGGA,083133.00,3206.70718,N,03454.07599,E,1,08,0.00,32.8,M,,,,*3E
$GPRMC,083133.00,A,3206.70718,N,03454.07599,E,27.593,60.9,030416,,,A*5B
$GPGGA,083134.00,3206.70718,N,03454.07599,E,1,08,0.00,32.7,M,,,,*36
$GPRMC,083134.00,A,3206.70718,N,03454.07599,E,27.527,60.9,030416,,,A*53
$GPGGA,083135.00,3206.70718,N,03454.07599,E,1,08,0.00,32.7,M,,,,*37
$GPRMC,083135.00,A,3206.70718,N,03454.07599,E,27.461,61.1,030416,,,A*58
$GPGGA,083137.00,3206.70718,N,03454.07599,E,1,08,0.00,30.4,M,,,,*34
$GPRMC,083137.00,A,3206.70718,N,03454.07599,E,27.333,58.1,030416,,,A*50
$GPGGA,083139.00,3206.70718,N,03454.07599,E,1,08,0.00,28.4,M,,,,*33
$GPRMC,083139.00,A,3206.70718,N,03454.07599,E,27.206,78.9,030416,,,A*53
$GPGGA,083141.00,3206.70892,N,03454.07488,E,1,08,0.00,32.1,M,,,,*3E
$GPRMC,083141.00,A,3206.70892,N,03454.07488,E,27.075,76.7,030416,,,A*56
$GPGGA,083142.00,3206.70911,N,03454.07461,E,1,08,0.00,32.5,M,,,,*34
$GPRMC,083142.00,A,3206.70911,N,03454.07461,E,27.010,72.3,030416,,,A*5B
$GPGGA,083143.00,3206.70927,N,03454.07437,E,1,08,0.00,33.8,M,,,,*3F
$GPRMC,083143.00,A,3206.70927,N,03454.07437,E,26.945,72.3,030416,,,A*54
$GPGGA,083145.00,3206.70929,N,03454.07366,E,1,08,0.00,35.7,M,,,,*3D
$GPRMC,083145.00,A,3206.70929,N,03454.07366,E,26.816,75.9,030416,,,A*55
$GPGGA,083146.00,3206.70929,N,03454.07366,E,1,08,0.00,34.7,M,,,,*3F
$GPRMC,083146.00,A,3206.70929,N,03454.07366,E,26.747,77.0,030416,,,A*56
$GPGGA,083148.00,3206.70882,N,03454.07351,E,1,08,0.00,34.6,M,,,,*34
$GPRMC,083148.00,A,3206.70882,N,03454.07351,E,26.628,76.0,030416,,,A*55
$GPGGA,083149.00,3206.70882,N,03454.07351,E,1,08,0.00,34.5,M,,,,*36
$GPRMC,083149.00,A,3206.70882,N,03454.07351,E,26.562,76.0,030416,,,A*59
$GPGGA,083151.00,3206.70883,N,03454.07485,E,1,08,0.00,37.2,M,,,,*34
$GPRMC,083151.00,A,3206.70883,N,03454.07485,E,26.451,74.9,030416,,,A*55
$GPGGA,083153.00,3206.70871,N,03454.07517,E,1,08,0.00,37.0,M,,,,*33
$GPRMC,083153.00,A,3206.70871,N,03454.07517,E,26.338,74.9,030416,,,A*58
$GPGGA,083155.00,3206.70858,N,03454.07550,E,1,08,0.00,35.5,M,,,,*3A
$GPRMC,083155.00,A,3206.70858,N,03454.07550,E,26.221,72.1,030416,,,A*51
$GPGGA,083156.00,3206.70843,N,03454.07556,E,1,08,0.00,34.8,M,,,,*39
$GPRMC,083156.00,A,3206.70843,N,03454.07556,E,26.161,72.1,030416,,,A*59
$GPGGA,083158.00,3206.70847,N,03454.07556,E,1,08,0.00,33.4,M,,,,*38
$GPRMC,083158.00,A,3206.70847,N,03454.07556,E,26.043,69.6,030416,,,A*5F
$GPGGA,083200.00,3206.70866,N,03454.07547,E,1,08,0.00,31.8,M,,,,*3B
$GPRMC,083200.00,A,3206.70866,N,03454.07547,E,25.928,65.1,030416,,,A*5E
$GPGGA,083202.00,3206.70865,N,03454.07525,E,1,08,0.00,31.8,M,,,,*3E
$GPRMC,083202.00,A,3206.70865,N,03454.07525,E,25.814,65.1,030416,,,A*55
$GPGGA,083203.00,3206.70855,N,03454.07519,E,1,08,0.00,31.7,M,,,,*3C
$GPRMC,083203.00,A,3206.70855,N,03454.07519,E,25.755,66.2,030416,,,A*52
$GPGGA,083205.00,3206.70854,N,03454.07486,E,1,08,0.00,31.6,M,,,,*3D
$GPRMC,083205.00,A,3206.70854,N,03454.07486,E,25.640,64.7,030416,,,A*50
$GPGGA,083207.00,3206.70860,N,03454.07510,E,1,08,0.00,30.2,M,,,,*33
$GPRMC,083207.00,A,3206.70860,N,03454.07510,E,25.527,52.2,030416,,,A*59
$GPGGA,083209.00,3206.70867,N,03454.07532,E,1,08,0.00,31.1,M,,,,*38
$GPRMC,083209.00,A,3206.70867,N,03454.07532,E,25.416,51.4,030416,,,A*56
$GPGGA,083211.00,3206.70867,N,03454.07532,E,1,08,0.00,31.1,M,,,,*31
$GPRMC,083211.00,A,3206.70867,N,03454.07532,E,25.309,56.5,030416,,,A*50
$GPGGA,083212.00,3206.70867,N,03454.07532,E,1,08,0.00,32.4,M,,,,*34
$GPRMC,083212.00,A,3206.70867,N,03454.07532,E,25.254,54.9,030416,,,A*54
$GPGGA,083214.00,3206.70845,N,03454.07811,E,1,08,0.00,32.8,M,,,,*32
$GPRMC,083214.00,A,3206.70845,N,03454.07811,E,25.161,55.5,030416,,,A*56
$GPGGA,083216.00,3206.70824,N,03454.07967,E,1,08,0.00,36.0,M,,,,*3B
$GPRMC,083216.00,A,3206.70824,N,03454.07967,E,25.062,53.7,030416,,,A*55
$GPGGA,083218.00,3206.70792,N,03454.08282,E,1,08,0.00,35.2,M,,,,*39
$GPRMC,083218.00,A,3206.70792,N,03454.08282,E,24.975,43.3,030416,,,A*5D
$GPGGA,083220.00,3206.70759,N,03454.08785,E,1,08,0.00,36.7,M,,,,*31
$GPRMC,083220.00,A,3206.70759,N,03454.08785,E,24.907,54.8,030416,,,A*5B
$GPGGA,083221.00,3206.70736,N,03454.09128,E,1,08,0.00,37.2,M,,,,*3D
$GPRMC,083221.00,A,3206.70736,N,03454.09128,E,24.868,54.8,030416,,,A*5B
$GPGGA,083223.00,3206.70713,N,03454.09770,E,1,08,0.00,38.1,M,,,,*3F
$GPRMC,083223.00,A,3206.70713,N,03454.09770,E,24.804,59.8,030416,,,A*52
$GPGGA,083225.00,3206.70634,N,03454.10448,E,1,08,0.00,40.5,M,,,,*36
$GPRMC,083225.00,A,3206.70634,N,03454.10448,E,24.746,59.8,030416,,,A*59
$GPGGA,083226.00,3206.70551,N,03454.11084,E,1,08,0.00,39.7,M,,,,*3C
$GPRMC,083226.00,A,3206.70551,N,03454.11084,E,24.732,54.5,030416,,,A*5C
$GPGGA,083227.00,3206.70527,N,03454.11483,E,1,08,0.00,39.3,M,,,,*3B
$GPRMC,083227.00,A,3206.70527,N,03454.11483,E,24.704,54.5,030416,,,A*5A
$GPGGA,083228.00,3206.70450,N,03454.11887,E,1,08,0.00,39.6,M,,,,*38
$GPRMC,083228.00,A,3206.70450,N,03454.11887,E,24.676,44.0,030416,,,A*5C
$GPGGA,083230.00,3206.70279,N,03454.12818,E,1,08,0.00,37.7,M,,,,*36
$GPRMC,083230.00,A,3206.70279,N,03454.12818,E,24.629,49.9,030416,,,A*53
$GPGGA,083232.00,3206.70274,N,03454.13721,E,1,08,0.00,36.4,M,,,,*3F
$GPRMC,083232.00,A,3206.70274,N,03454.13721,E,24.583,44.1,030416,,,A*5E
$GPGGA,083234.00,3206.70100,N,03454.14593,E,1,08,0.00,38.6,M,,,,*39
$GPRMC,083234.00,A,3206.70100,N,03454.14593,E,24.535,36.4,030416,,,A*59
$GPGGA,083236.00,3206.69977,N,03454.15518,E,1,08,0.00,38.5,M,,,,*3A
$GPRMC,083236.00,A,3206.69977,N,03454.15518,E,24.494,31.0,030416,,,A*50
$GPGGA,083237.00,3206.70001,N,03454.16049,E,1,08,0.00,38.3,M,,,,*3F
$GPRMC,083237.00,A,3206.70001,N,03454.16049,E,24.476,27.0,030416,,,A*58
$GPGGA,083239.00,3206.69886,N,03454.17638,E,1,08,0.00,36.3,M,,,,*31
$GPRMC,083239.00,A,3206.69886,N,03454.17638,E,24.471,47.2,030416,,,A*5B
$GPGGA,083240.00,3206.69795,N,03454.18184,E,1,08,0.00,36.3,M,,,,*3D
$GPRMC,083240.00,A,3206.69795,N,03454.18184,E,24.453,63.4,030416,,,A*57
$GPGGA,083242.00,3206.69922,N,03454.18905,E,1,08,0.00,39.0,M,,,,*30
$GPRMC,083242.00,A,3206.69922,N,03454.18905,E,24.401,74.8,030416,,,A*5B
$GPGGA,083243.00,3206.69935,N,03454.19594,E,1,08,0.00,38.3,M,,,,*30
$GPRMC,083243.00,A,3206.69935,N,03454.19594,E,24.391,63.4,030416,,,A*5D
$GPGGA,083245.00,3206.69898,N,03454.20801,E,1,08,0.00,37.3,M,,,,*34
$GPRMC,083245.00,A,3206.69898,N,03454.20801,E,24.368,18.8,030416,,,A*50
$GPGGA,083246.00,3206.69841,N,03454.21548,E,1,08,0.00,39.1,M,,,,*3E
$GPRMC,083246.00,A,3206.69841,N,03454.21548,E,24.363,13.4,030416,,,A*5A
$GPGGA,083247.00,3206.69850,N,03454.22264,E,1,08,0.00,39.4,M,,,,*30
$GPRMC,083247.00,A,3206.69850,N,03454.22264,E,24.356,65.8,030416,,,A*5A
$GPGGA,083248.00,3206.69769,N,03454.23051,E,1,08,0.00,39.4,M,,,,*3F
$GPRMC,083248.00,A,3206.69769,N,03454.23051,E,24.350,75.5,030416,,,A*5F
$GPGGA,083250.00,3206.69775,N,03454.24085,E,1,08,0.00,39.9,M,,,,*38
$GPRMC,083250.00,A,3206.69775,N,03454.24085,E,24.314,65.8,030416,,,A*59
$GPGGA,083252.00,3206.69669,N,03454.25893,E,1,08,0.00,40.1,M,,,,*3E
$GPRMC,083252.00,A,3206.69669,N,03454.25893,E,24.329,26.0,030416,,,A*58
$GPGGA,083253.00,3206.69473,N,03454.26725,E,1,08,0.00,40.1,M,,,,*37
$GPRMC,083253.00,A,3206.69473,N,03454.26725,E,24.326,31.0,030416,,,A*58
$GPGGA,083255.00,3206.69544,N,03454.28138,E,1,08,0.00,39.5,M,,,,*3A
$GPRMC,083255.00,A,3206.69544,N,03454.28138,E,24.318,40.2,030416,,,A*56
$GPGGA,083257.00,3206.68948,N,03454.29801,E,1,08,0.00,41.8,M,,,,*39
$GPRMC,083257.00,A,3206.68948,N,03454.29801,E,24.314,45.8,030416,,,A*54
$GPGGA,083258.00,3206.68689,N,03454.30942,E,1,08,0.00,42.3,M,,,,*32
$GPRMC,083258.00,A,3206.68689,N,03454.30942,E,24.331,70.2,030416,,,A*5C
$GPGGA,083300.00,3206.68875,N,03454.32802,E,1,08,0.00,40.1,M,,,,*34
$GPRMC,083300.00,A,3206.68875,N,03454.32802,E,24.347,69.7,030416,,,A*56
$GPGGA,083301.00,3206.68778,N,03454.33574,E,1,08,0.00,38.1,M,,,,*35
$GPRMC,083301.00,A,3206.68778,N,03454.33574,E,24.344,70.2,030416,,,A*56
$GPGGA,083302.00,3206.68642,N,03454.34328,E,1,08,0.00,36.7,M,,,,*3E
$GPRMC,083302.00,A,3206.68642,N,03454.34328,E,24.338,70.2,030416,,,A*5E
$GPGGA,083304.00,3206.68420,N,03454.36182,E,1,08,0.00,35.9,M,,,,*33
$GPRMC,083304.00,A,3206.68420,N,03454.36182,E,24.351,72.7,030416,,,A*56
$GPGGA,083306.00,3206.68290,N,03454.38053,E,1,08,0.00,33.8,M,,,,*38
$GPRMC,083306.00,A,3206.68290,N,03454.38053,E,24.364,74.0,030416,,,A*5D
$GPGGA,083308.00,3206.68107,N,03454.39949,E,1,08,0.00,32.4,M,,,,*35
$GPRMC,083308.00,A,3206.68107,N,03454.39949,E,24.375,74.8,030416,,,A*55
$GPGGA,083309.00,3206.68008,N,03454.40861,E,1,08,0.00,33.2,M,,,,*38
$GPRMC,083309.00,A,3206.68008,N,03454.40861,E,24.376,76.5,030416,,,A*53
$GPGGA,083311.00,3206.67853,N,03454.42901,E,1,08,0.00,33.6,M,,,,*39
$GPRMC,083311.00,A,3206.67853,N,03454.42901,E,24.402,72.9,030416,,,A*5A
$GPGGA,083313.00,3206.67674,N,03454.44912,E,1,08,0.00,32.7,M,,,,*34
$GPRMC,083313.00,A,3206.67674,N,03454.44912,E,24.426,71.6,030416,,,A*5D
$GPGGA,083315.00,3206.67300,N,03454.47333,E,1,08,0.00,30.9,M,,,,*32
$GPRMC,083315.00,A,3206.67300,N,03454.47333,E,24.468,72.4,030416,,,A*5C
$GPGGA,083317.00,3206.67309,N,03454.49614,E,1,08,0.00,31.4,M,,,,*3B
$GPRMC,083317.00,A,3206.67309,N,03454.49614,E,24.507,71.2,030416,,,A*54
$GPGGA,083319.00,3206.67249,N,03454.51734,E,1,08,0.00,30.9,M,,,,*36
$GPRMC,083319.00,A,3206.67249,N,03454.51734,E,24.531,71.3,030416,,,A*51
$GPGGA,083321.00,3206.67015,N,03454.54035,E,1,08,0.00,30.0,M,,,,*3C
$GPRMC,083321.00,A,3206.67015,N,03454.54035,E,24.563,47.4,030416,,,A*57
$GPGGA,083323.00,3206.66923,N,03454.56273,E,1,08,0.00,26.6,M,,,,*30
$GPRMC,083323.00,A,3206.66923,N,03454.56273,E,24.600,57.7,030416,,,A*5E
$GPGGA,083324.00,3206.66777,N,03454.57605,E,1,08,0.00,26.8,M,,,,*32
$GPRMC,083324.00,A,3206.66777,N,03454.57605,E,24.625,59.3,030416,,,A*5F
$GPGGA,083326.00,3206.66784,N,03454.60263,E,1,08,0.00,24.4,M,,,,*32
$GPRMC,083326.00,A,3206.66784,N,03454.60263,E,24.684,46.0,030416,,,A*57
$GPGGA,083328.00,3206.66550,N,03454.62731,E,1,08,0.00,23.4,M,,,,*30
$GPRMC,083328.00,A,3206.66550,N,03454.62731,E,24.726,42.3,030416,,,A*5C
$GPGGA,083330.00,3206.66404,N,03454.65274,E,1,08,0.00,24.4,M,,,,*3D
$GPRMC,083330.00,A,3206.66404,N,03454.65274,E,24.777,45.0,030416,,,A*56
$GPGGA,083332.00,3206.66177,N,03454.67650,E,1,08,0.00,23.8,M,,,,*35
$GPRMC,083332.00,A,3206.66177,N,03454.67650,E,24.819,24.7,030416,,,A*52
$GPGGA,083333.00,3206.66253,N,03454.69351,E,1,08,0.00,24.1,M,,,,*35
$GPRMC,083333.00,A,3206.66253,N,03454.69351,E,24.865,12.1,030416,,,A*54
$GPGGA,083335.00,3206.66087,N,03454.71735,E,1,08,0.00,28.6,M,,,,*3C
$GPRMC,083335.00,A,3206.66087,N,03454.71735,E,24.904,6.9,030416,,,A*6D
$GPGGA,083337.00,3206.66024,N,03454.74657,E,1,08,0.00,29.8,M,,,,*38
$GPRMC,083337.00,A,3206.66024,N,03454.74657,E,24.977,1.9,030416,,,A*65
$GPGGA,083339.00,3206.66151,N,03454.77425,E,1,08,0.00,28.9,M,,,,*31
$GPRMC,083339.00,A,3206.66151,N,03454.77425,E,25.039,46.9,030416,,,A*5D
$GPGGA,083341.00,3206.66259,N,03454.80128,E,1,08,0.00,30.0,M,,,,*35
$GPRMC,083341.00,A,3206.66259,N,03454.80128,E,25.102,13.3,030416,,,A*5A
$GPGGA,083342.00,3206.66208,N,03454.81547,E,1,08,0.00,30.0,M,,,,*3E
$GPRMC,083342.00,A,3206.66208,N,03454.81547,E,25.133,21.3,030416,,,A*52
$GPGGA,083343.00,3206.66090,N,03454.82962,E,1,08,0.00,29.8,M,,,,*34
$GPRMC,083343.00,A,3206.66090,N,03454.82962,E,25.164,20.3,030416,,,A*5B
$GPGGA,083345.00,3206.66043,N,03454.85801,E,1,08,0.00,28.7,M,,,,*31
$GPRMC,083345.00,A,3206.66043,N,03454.85801,E,25.224,11.4,030416,,,A*52
$GPGGA,083347.00,3206.65916,N,03454.88738,E,1,08,0.00,26.8,M,,,,*30
$GPRMC,083347.00,A,3206.65916,N,03454.88738,E,25.290,11.8,030416,,,A*51
$GPGGA,083349.00,3206.65843,N,03454.91829,E,1,08,0.00,26.4,M,,,,*34
$GPRMC,083349.00,A,3206.65843,N,03454.91829,E,25.372,51.0,030416,,,A*58
$GPGGA,083350.00,3206.65809,N,03454.93514,E,1,08,0.00,27.1,M,,,,*37
$GPRMC,083350.00,A,3206.65809,N,03454.93514,E,25.411,64.7,030416,,,A*5C
$GPGGA,083352.00,3206.65832,N,03454.96934,E,1,08,0.00,26.7,M,,,,*31
$GPRMC,083352.00,A,3206.65832,N,03454.96934,E,25.508,66.5,030416,,,A*54
$GPGGA,083354.00,3206.65805,N,03455.00323,E,1,08,0.00,27.6,M,,,,*31
$GPRMC,083354.00,A,3206.65805,N,03455.00323,E,25.596,86.4,030416,,,A*5C
$GPGGA,083356.00,3206.65773,N,03455.03589,E,1,08,0.00,28.8,M,,,,*39
$GPRMC,083356.00,A,3206.65773,N,03455.03589,E,25.682,58.8,030416,,,A*5C
$GPGGA,083357.00,3206.65658,N,03455.05259,E,1,08,0.00,29.5,M,,,,*30
$GPRMC,083357.00,A,3206.65658,N,03455.05259,E,25.722,41.6,030416,,,A*54
$GPGGA,083359.00,3206.65587,N,03455.08423,E,1,08,0.00,32.1,M,,,,*37
$GPRMC,083359.00,A,3206.65587,N,03455.08423,E,25.805,51.9,030416,,,A*59
$GPGGA,083401.00,3206.65453,N,03455.11686,E,1,08,0.00,32.4,M,,,,*35
$GPRMC,083401.00,A,3206.65453,N,03455.11686,E,25.888,60.3,030416,,,A*53
$GPGGA,083402.00,3206.65285,N,03455.13374,E,1,08,0.00,32.4,M,,,,*31
$GPRMC,083402.00,A,3206.65285,N,03455.13374,E,25.930,65.3,030416,,,A*50
$GPGGA,083403.00,3206.65207,N,03455.14914,E,1,08,0.00,32.1,M,,,,*34
$GPRMC,083403.00,A,3206.65207,N,03455.14914,E,25.965,65.5,030416,,,A*56
$GPGGA,083405.00,3206.65231,N,03455.18343,E,1,08,0.00,30.6,M,,,,*36
$GPRMC,083405.00,A,3206.65231,N,03455.18343,E,26.056,65.6,030416,,,A*58
$GPGGA,083406.00,3206.65201,N,03455.20078,E,1,08,0.00,30.3,M,,,,*33
$GPRMC,083406.00,A,3206.65201,N,03455.20078,E,26.102,68.5,030416,,,A*56
$GPGGA,083407.00,3206.65017,N,03455.22273,E,1,08,0.00,30.9,M,,,,*36
$GPRMC,083407.00,A,3206.65017,N,03455.22273,E,26.170,64.3,030416,,,A*56
$GPGGA,083409.00,3206.65305,N,03455.25685,E,1,08,0.00,34.1,M,,,,*3E
$GPRMC,083409.00,A,3206.65305,N,03455.25685,E,26.261,70.8,030416,,,A*5F
$GPGGA,083410.00,3206.65072,N,03455.26965,E,1,08,0.00,34.1,M,,,,*37
$GPRMC,083410.00,A,3206.65072,N,03455.26965,E,26.279,70.2,030416,,,A*55
$GPGGA,083412.00,3206.65082,N,03455.30321,E,1,08,0.00,28.3,M,,,,*38
$GPRMC,083412.00,A,3206.65082,N,03455.30321,E,26.365,76.1,030416,,,A*5C
$GPGGA,083414.00,3206.64825,N,03455.33289,E,1,08,0.00,26.3,M,,,,*34
$GPRMC,083414.00,A,3206.64825,N,03455.33289,E,26.427,78.1,030416,,,A*51
$GPGGA,083415.00,3206.64648,N,03455.34667,E,1,08,0.00,25.8,M,,,,*3B
$GPRMC,083415.00,A,3206.64648,N,03455.34667,E,26.451,79.6,030416,,,A*51
$GPGGA,083417.00,3206.64277,N,03455.37672,E,1,08,0.00,27.2,M,,,,*3E
$GPRMC,083417.00,A,3206.64277,N,03455.37672,E,26.514,81.3,030416,,,A*5E
$GPGGA,083418.00,3206.64144,N,03455.39168,E,1,08,0.00,27.6,M,,,,*34
$GPRMC,083418.00,A,3206.64144,N,03455.39168,E,26.542,82.6,030416,,,A*55
$GPGGA,083420.00,3206.63596,N,03455.41959,E,1,08,0.00,32.0,M,,,,*34
$GPRMC,083420.00,A,3206.63596,N,03455.41959,E,26.594,75.9,030416,,,A*5B
$GPGGA,083422.00,3206.63279,N,03455.44916,E,1,08,0.00,33.2,M,,,,*3D
$GPRMC,083422.00,A,3206.63279,N,03455.44916,E,26.649,78.4,030416,,,A*52
$GPGGA,083424.00,3206.62774,N,03455.47810,E,1,08,0.00,37.0,M,,,,*30
$GPRMC,083424.00,A,3206.62774,N,03455.47810,E,26.706,75.6,030416,,,A*5C
$GPGGA,083426.00,3206.62411,N,03455.50826,E,1,08,0.00,35.6,M,,,,*35
$GPRMC,083426.00,A,3206.62411,N,03455.50826,E,26.764,78.3,030416,,,A*51
$GPGGA,083428.00,3206.62153,N,03455.53733,E,1,08,0.00,33.1,M,,,,*31
$GPRMC,083428.00,A,3206.62153,N,03455.53733,E,26.821,75.7,030416,,,A*53
$GPGGA,083429.00,3206.61863,N,03455.55045,E,1,08,0.00,35.5,M,,,,*3B
$GPRMC,083429.00,A,3206.61863,N,03455.55045,E,26.840,74.2,030416,,,A*58
$GPGGA,083431.00,3206.61291,N,03455.57905,E,1,08,0.00,37.2,M,,,,*3F
$GPRMC,083431.00,A,3206.61291,N,03455.57905,E,26.892,77.9,030416,,,A*5E
$GPGGA,083433.00,3206.60919,N,03455.60484,E,1,08,0.00,37.9,M,,,,*3C
$GPRMC,083433.00,A,3206.60919,N,03455.60484,E,26.935,77.0,030416,,,A*53
$GPGGA,083434.00,3206.60619,N,03455.61545,E,1,08,0.00,37.4,M,,,,*34
$GPRMC,083434.00,A,3206.60619,N,03455.61545,E,26.942,75.5,030416,,,A*51
$GPGGA,083435.00,3206.60573,N,03455.62725,E,1,08,0.00,37.0,M,,,,*39
$GPRMC,083435.00,A,3206.60573,N,03455.62725,E,26.956,74.4,030416,,,A*5D
$GPGGA,083437.00,3206.59893,N,03455.67095,E,1,08,0.00,37.3,M,,,,*38
$GPRMC,083437.00,A,3206.59893,N,03455.67095,E,27.082,74.6,030416,,,A*5C
$GPGGA,083438.00,3206.60026,N,03455.68511,E,1,08,0.00,38.3,M,,,,*32
$GPRMC,083438.00,A,3206.60026,N,03455.68511,E,27.109,73.6,030416,,,A*5C
$GPGGA,083439.00,3206.60288,N,03455.70070,E,1,08,0.00,38.3,M,,,,*3E
$GPRMC,083439.00,A,3206.60288,N,03455.70070,E,27.144,73.6,030416,,,A*59
$GPGGA,083441.00,3206.60541,N,03455.71467,E,1,08,0.00,40.1,M,,,,*3D
$GPRMC,083441.00,A,3206.60541,N,03455.71467,E,27.126,66.2,030416,,,A*53
$GPGGA,083442.00,3206.60180,N,03455.73158,E,1,08,0.00,42.9,M,,,,*36
$GPRMC,083442.00,A,3206.60180,N,03455.73158,E,27.163,60.7,030416,,,A*50
$GPGGA,083443.00,3206.60121,N,03455.74687,E,1,08,0.00,43.4,M,,,,*32
$GPRMC,083443.00,A,3206.60121,N,03455.74687,E,27.194,60.9,030416,,,A*5E
$GPGGA,083445.00,3206.60012,N,03455.77458,E,1,08,0.00,44.2,M,,,,*37
$GPRMC,083445.00,A,3206.60012,N,03455.77458,E,27.242,52.3,030416,,,A*59
$GPGGA,083446.00,3206.60277,N,03455.78761,E,1,08,0.00,45.1,M,,,,*31
$GPRMC,083446.00,A,3206.60277,N,03455.78761,E,27.262,58.3,030416,,,A*55
$GPGGA,083448.00,3206.60847,N,03455.81528,E,1,08,0.00,45.4,M,,,,*3A
$GPRMC,083448.00,A,3206.60847,N,03455.81528,E,27.314,48.1,030416,,,A*58
$GPGGA,083450.00,3206.61349,N,03455.84456,E,1,08,0.00,45.1,M,,,,*3F
$GPRMC,083450.00,A,3206.61349,N,03455.84456,E,27.373,45.7,030416,,,A*52
$GPGGA,083451.00,3206.61644,N,03455.85913,E,1,08,0.00,44.2,M,,,,*39
$GPRMC,083451.00,A,3206.61644,N,03455.85913,E,27.401,22.7,030416,,,A*55
$GPGGA,083453.00,3206.62923,N,03455.87931,E,1,08,0.00,39.8,M,,,,*34
$GPRMC,083453.00,A,3206.62923,N,03455.87931,E,27.420,351.9,030416,,,A*62
$GPGGA,083454.00,3206.63410,N,03455.89157,E,1,08,0.00,39.5,M,,,,*34
$GPRMC,083454.00,A,3206.63410,N,03455.89157,E,27.438,342.0,030416,,,A*6D
$GPGGA,083455.00,3206.63922,N,03455.90372,E,1,08,0.00,40.7,M,,,,*38
$GPRMC,083455.00,A,3206.63922,N,03455.90372,E,27.456,339.6,030416,,,A*6F
$GPGGA,083457.00,3206.65469,N,03455.92343,E,1,08,0.00,39.4,M,,,,*33
$GPRMC,083457.00,A,3206.65469,N,03455.92343,E,27.474,1.3,030416,,,A*64
$GPGGA,083458.00,3206.66097,N,03455.93252,E,1,08,0.00,38.7,M,,,,*38
$GPRMC,083458.00,A,3206.66097,N,03455.93252,E,27.478,28.8,030416,,,A*51
$GPGGA,083459.00,3206.66896,N,03455.94477,E,1,08,0.00,38.9,M,,,,*38
$GPRMC,083459.00,A,3206.66896,N,03455.94477,E,27.498,29.2,030416,,,A*5A
$GPGGA,083501.00,3206.68798,N,03455.96657,E,1,08,0.00,41.0,M,,,,*3E
$GPRMC,083501.00,A,3206.68798,N,03455.96657,E,27.528,23.4,030416,,,A*5D
$GPGGA,083502.00,3206.69518,N,03455.97577,E,1,08,0.00,40.8,M,,,,*3F
$GPRMC,083502.00,A,3206.69518,N,03455.97577,E,27.532,14.2,030416,,,A*5C
$GPGGA,083504.00,3206.71258,N,03455.99294,E,1,08,0.00,40.5,M,,,,*3A
$GPRMC,083504.00,A,3206.71258,N,03455.99294,E,27.541,14.5,030416,,,A*57
$GPGGA,083505.00,3206.72357,N,03456.00126,E,1,08,0.00,39.7,M,,,,*33
$GPRMC,083505.00,A,3206.72357,N,03456.00126,E,27.545,8.4,030416,,,A*6A
$GPGGA,083506.00,3206.73028,N,03456.00923,E,1,08,0.00,39.6,M,,,,*36
$GPRMC,083506.00,A,3206.73028,N,03456.00923,E,27.544,355.4,030416,,,A*64
$GPGGA,083507.00,3206.73942,N,03456.01866,E,1,08,0.00,40.1,M,,,,*3A
$GPRMC,083507.00,A,3206.73942,N,03456.01866,E,27.551,360.0,030416,,,A*67
$GPGGA,083509.00,3206.76711,N,03456.02917,E,1,08,0.00,34.5,M,,,,*3A
$GPRMC,083509.00,A,3206.76711,N,03456.02917,E,27.535,22.1,030416,,,A*56
$GPGGA,083511.00,3206.78996,N,03456.03857,E,1,08,0.00,38.7,M,,,,*36
$GPRMC,083511.00,A,3206.78996,N,03456.03857,E,27.510,27.7,030416,,,A*50
$GPGGA,083513.00,3206.81740,N,03456.04722,E,1,08,0.00,40.0,M,,,,*35
$GPRMC,083513.00,A,3206.81740,N,03456.04722,E,27.487,50.6,030416,,,A*55
$GPGGA,083514.00,3206.82884,N,03456.05171,E,1,08,0.00,40.9,M,,,,*3E
$GPRMC,083514.00,A,3206.82884,N,03456.05171,E,27.475,44.6,030416,,,A*5F
$GPGGA,083515.00,3206.84165,N,03456.05444,E,1,08,0.00,41.4,M,,,,*30
$GPRMC,083515.00,A,3206.84165,N,03456.05444,E,27.454,69.1,030416,,,A*56
$GPGGA,083517.00,3206.86464,N,03456.05916,E,1,08,0.00,41.4,M,,,,*3E
$GPRMC,083517.00,A,3206.86464,N,03456.05916,E,27.410,67.0,030416,,,A*57
$GPGGA,083525.00,3206.96015,N,03456.07934,E,1,08,0.00,41.4,M,,,,*3E
$GPRMC,083525.00,A,3206.96015,N,03456.07934,E,27.255,38.6,030416,,,A*5C
$GPGGA,083537.00,3207.08949,N,03456.10662,E,1,08,0.00,41.4,M,,,,*31
$GPRMC,083537.00,A,3207.08949,N,03456.10662,E,26.982,45.8,030416,,,A*57
$GPGGA,083539.00,3207.13270,N,03456.07293,E,1,08,0.00,41.6,M,,,,*3A
$GPRMC,083539.00,A,3207.13270,N,03456.07293,E,26.824,43.1,030416,,,A*5C
$GPGGA,083541.00,3207.14638,N,03456.06597,E,1,08,0.00,41.7,M,,,,*39
$GPRMC,083541.00,A,3207.14638,N,03456.06597,E,26.728,44.5,030416,,,A*5E
$GPGGA,083543.00,3207.16429,N,03456.06116,E,1,08,0.00,41.8,M,,,,*39
$GPRMC,083543.00,A,3207.16429,N,03456.06116,E,26.647,41.2,030416,,,A*5B
$GPGGA,083544.00,3207.16468,N,03456.05818,E,1,08,0.00,41.8,M,,,,*3F
$GPRMC,083544.00,A,3207.16468,N,03456.05818,E,26.595,42.5,030416,,,A*55
$GPGGA,083545.00,3207.16741,N,03456.05645,E,1,08,0.00,41.8,M,,,,*30
$GPRMC,083545.00,A,3207.16741,N,03456.05645,E,26.550,38.0,030416,,,A*5B
$GPGGA,083547.00,3207.18351,N,03456.05633,E,1,08,0.00,41.9,M,,,,*39
$GPRMC,083547.00,A,3207.18351,N,03456.05633,E,26.488,31.2,030416,,,A*5C
$GPGGA,083549.00,3207.20144,N,03456.06051,E,1,08,0.00,42.0,M,,,,*31
$GPRMC,083549.00,A,3207.20144,N,03456.06051,E,26.448,37.5,030416,,,A*53
$GPGGA,083551.00,3207.21395,N,03456.06024,E,1,08,0.00,42.7,M,,,,*32
$GPRMC,083551.00,A,3207.21395,N,03456.06024,E,26.384,34.8,030416,,,A*5E
$GPGGA,083555.00,3207.23602,N,03456.05979,E,1,08,0.00,42.4,M,,,,*3E
$GPRMC,083555.00,A,3207.23602,N,03456.05979,E,26.255,334.1,030416,,,A*66
$GPGGA,083556.00,3207.24018,N,03456.06002,E,1,08,0.00,42.4,M,,,,*31
$GPRMC,083556.00,A,3207.24018,N,03456.06002,E,26.222,313.0,030416,,,A*6D
$GPGGA,083557.00,3207.24442,N,03456.06158,E,1,08,0.00,42.1,M,,,,*30
$GPRMC,083557.00,A,3207.24442,N,03456.06158,E,26.195,295.5,030416,,,A*6C
$GPGGA,083558.00,3207.24993,N,03456.06246,E,1,08,0.00,41.9,M,,,,*39
$GPRMC,083558.00,A,3207.24993,N,03456.06246,E,26.167,301.0,030416,,,A*6A
$GPGGA,083600.00,3207.24428,N,03456.05985,E,1,08,0.00,41.4,M,,,,*30
$GPRMC,083600.00,A,3207.24428,N,03456.05985,E,26.074,300.4,030416,,,A*68
$GPGGA,083601.00,3207.24627,N,03456.05888,E,1,08,0.00,40.6,M,,,,*33
$GPRMC,083601.00,A,3207.24627,N,03456.05888,E,26.033,299.2,030416,,,A*6C
$GPGGA,083602.00,3207.24991,N,03456.06054,E,1,08,0.00,40.4,M,,,,*3A
$GPRMC,083602.00,A,3207.24991,N,03456.06054,E,26.006,302.0,030416,,,A*60
$GPGGA,083603.00,3207.25446,N,03456.06094,E,1,08,0.00,42.2,M,,,,*35
$GPRMC,083603.00,A,3207.25446,N,03456.06094,E,25.975,302.0,030416,,,A*65
$GPGGA,083605.00,3207.26055,N,03456.06383,E,1,08,0.00,40.7,M,,,,*34
$GPRMC,083605.00,A,3207.26055,N,03456.06383,E,25.921,260.4,030416,,,A*63
$GPGGA,083607.00,3207.26348,N,03456.06479,E,1,08,0.00,41.9,M,,,,*34
$GPRMC,083607.00,A,3207.26348,N,03456.06479,E,25.852,270.5,030416,,,A*69
