$GPGGA,081054.00,3204.65947,N,03447.71807,E,1,08,0.00,6.0,M,,,,*08
$GPRMC,081054.00,A,3204.65947,N,03447.71807,E,0.000,0.0,030416,,,A*57
$GPGGA,081055.00,3204.75740,N,03447.79764,E,1,08,0.00,7.4,M,,,,*06
$GPRMC,081055.00,A,3204.75740,N,03447.79764,E,406.364,40.9,030416,,,A*62
$GPGGA,081057.00,3204.71688,N,03447.80195,E,1,08,0.00,7.0,M,,,,*0F
$GPRMC,081057.00,A,3204.71688,N,03447.80195,E,116.432,39.6,030416,,,A*6E
$GPGGA,081059.00,3204.72936,N,03447.80616,E,1,08,0.00,8.7,M,,,,*0C
$GPRMC,081059.00,A,3204.72936,N,03447.80616,E,86.028,357.2,030416,,,A*6D
$GPGGA,081100.00,3204.73357,N,03447.81230,E,1,08,0.00,8.7,M,,,,*0C
$GPRMC,081100.00,A,3204.73357,N,03447.81230,E,73.447,3.7,030416,,,A*6D
$GPGGA,081101.00,3204.74390,N,03447.82385,E,1,08,0.00,7.7,M,,,,*02
$GPRMC,081101.00,A,3204.74390,N,03447.82385,E,68.836,358.2,030416,,,A*64
$GPGGA,081103.00,3204.75226,N,03447.83405,E,1,08,0.00,8.2,M,,,,*09
$GPRMC,081103.00,A,3204.75226,N,03447.83405,E,58.734,17.9,030416,,,A*58
$GPGGA,081105.00,3204.76647,N,03447.84270,E,1,08,0.00,11.6,M,,,,*30
$GPRMC,081105.00,A,3204.76647,N,03447.84270,E,52.637,6.6,030416,,,A*6A
$GPGGA,081106.00,3204.77143,N,03447.84385,E,1,08,0.00,10.5,M,,,,*38
$GPRMC,081106.00,A,3204.77143,N,03447.84385,E,49.300,5.2,030416,,,A*6C
$GPGGA,081107.00,3204.77253,N,03447.84758,E,1,08,0.00,12.3,M,,,,*3B
$GPRMC,081107.00,A,3204.77253,N,03447.84758,E,45.988,4.1,030416,,,A*6F
$GPGGA,081109.00,3204.78229,N,03447.85094,E,1,08,0.00,16.4,M,,,,*32
$GPRMC,081109.00,A,3204.78229,N,03447.85094,E,41.989,8.5,030416,,,A*68
$GPGGA,081111.00,3204.79252,N,03447.85509,E,1,08,0.00,15.3,M,,,,*33
$GPRMC,081111.00,A,3204.79252,N,03447.85509,E,39.038,11.3,030416,,,A*5F
$GPGGA,081112.00,3204.79755,N,03447.85778,E,1,08,0.00,15.2,M,,,,*37
$GPRMC,081112.00,A,3204.79755,N,03447.85778,E,37.881,11.8,030416,,,A*55
$GPGGA,081114.00,3204.80725,N,03447.86224,E,1,08,0.00,16.3,M,,,,*3D
$GPRMC,081114.00,A,3204.80725,N,03447.86224,E,35.810,3.4,030416,,,A*68
$GPGGA,081115.00,3204.81337,N,03447.86235,E,1,08,0.00,17.7,M,,,,*3F
$GPRMC,081115.00,A,3204.81337,N,03447.86235,E,34.769,358.9,030416,,,A*6F
$GPGGA,081117.00,3204.82761,N,03447.86514,E,1,08,0.00,18.1,M,,,,*34
$GPRMC,081117.00,A,3204.82761,N,03447.86514,E,33.774,359.1,030416,,,A*6F
$GPGGA,081119.00,3204.83463,N,03447.87204,E,1,08,0.00,21.9,M,,,,*3F
$GPRMC,081119.00,A,3204.83463,N,03447.87204,E,32.326,358.3,030416,,,A*67
$GPGGA,081120.00,3204.83945,N,03447.87377,E,1,08,0.00,22.3,M,,,,*30
$GPRMC,081120.00,A,3204.83945,N,03447.87377,E,31.691,354.8,030416,,,A*6C
$GPGGA,081122.00,3204.85371,N,03447.87885,E,1,08,0.00,22.0,M,,,,*3C
$GPRMC,081122.00,A,3204.85371,N,03447.87885,E,31.289,346.9,030416,,,A*6C
$GPGGA,081123.00,3204.85923,N,03447.88081,E,1,08,0.00,22.1,M,,,,*32
$GPRMC,081123.00,A,3204.85923,N,03447.88081,E,30.880,350.4,030416,,,A*6B
$GPGGA,081124.00,3204.86507,N,03447.88289,E,1,08,0.00,22.1,M,,,,*36
$GPRMC,081124.00,A,3204.86507,N,03447.88289,E,30.440,349.2,030416,,,A*61
$GPGGA,081129.00,3204.90439,N,03447.87556,E,1,08,0.00,11.4,M,,,,*3F
$GPRMC,081129.00,A,3204.90439,N,03447.87556,E,29.258,348.8,030416,,,A*61
$GPGGA,081130.00,3204.90039,N,03447.88177,E,1,08,0.00,9.3,M,,,,*05
$GPRMC,081130.00,A,3204.90039,N,03447.88177,E,28.336,352.0,030416,,,A*6E
$GPGGA,081132.00,3204.89219,N,03447.88178,E,1,08,0.00,9.7,M,,,,*04
$GPRMC,081132.00,A,3204.89219,N,03447.88178,E,26.160,349.3,030416,,,A*6D
$GPGGA,081134.00,3204.89245,N,03447.88077,E,1,08,0.00,11.2,M,,,,*39
$GPRMC,081134.00,A,3204.89245,N,03447.88077,E,24.822,340.4,030416,,,A*6F
$GPGGA,081135.00,3204.89464,N,03447.88451,E,1,08,0.00,12.9,M,,,,*35
$GPRMC,081135.00,A,3204.89464,N,03447.88451,E,24.517,341.7,030416,,,A*62
$GPGGA,081136.00,3204.89701,N,03447.89342,E,1,08,0.00,5.6,M,,,,*0B
$GPRMC,081136.00,A,3204.89701,N,03447.89342,E,24.443,346.2,030416,,,A*67
$GPGGA,081137.00,3204.90123,N,03447.89961,E,1,08,0.00,1.0,M,,,,*0D
$GPRMC,081137.00,A,3204.90123,N,03447.89961,E,24.405,347.0,030416,,,A*62
$GPGGA,081139.00,3204.95365,N,03447.89243,E,1,08,0.00,-1.8,M,,,,*28
$GPRMC,081139.00,A,3204.95365,N,03447.89243,E,26.774,326.7,030416,,,A*65
$GPGGA,081141.00,3204.96333,N,03447.89326,E,1,08,0.00,-1.7,M,,,,*2A
$GPRMC,081141.00,A,3204.96333,N,03447.89326,E,26.320,341.1,030416,,,A*6A
$GPGGA,081142.00,3204.96819,N,03447.89381,E,1,08,0.00,-1.5,M,,,,*25
$GPRMC,081142.00,A,3204.96819,N,03447.89381,E,26.110,345.2,030416,,,A*61
$GPGGA,081144.00,3204.97792,N,03447.89420,E,1,08,0.00,-0.8,M,,,,*2E
$GPRMC,081144.00,A,3204.97792,N,03447.89420,E,25.694,346.3,030416,,,A*6C
$GPGGA,081146.00,3204.98571,N,03447.89423,E,1,08,0.00,-0.8,M,,,,*2F
$GPRMC,081146.00,A,3204.98571,N,03447.89423,E,25.197,336.4,030416,,,A*69
$GPGGA,081147.00,3204.99010,N,03447.89461,E,1,08,0.00,-1.0,M,,,,*22
$GPRMC,081147.00,A,3204.99010,N,03447.89461,E,24.998,331.2,030416,,,A*6A
$GPGGA,081149.00,3204.99913,N,03447.89580,E,1,08,0.00,2.2,M,,,,*04
$GPRMC,081149.00,A,3204.99913,N,03447.89580,E,24.657,332.1,030416,,,A*6C
$GPGGA,081150.00,3205.00362,N,03447.89814,E,1,08,0.00,1.5,M,,,,*05
$GPRMC,081150.00,A,3205.00362,N,03447.89814,E,24.526,335.5,030416,,,A*6F
$GPGGA,081152.00,3205.01288,N,03447.89928,E,1,08,0.00,1.4,M,,,,*0C
$GPRMC,081152.00,A,3205.01288,N,03447.89928,E,24.231,339.5,030416,,,A*6A
$GPGGA,081153.00,3205.01420,N,03447.90131,E,1,08,0.00,0.6,M,,,,*02
$GPRMC,081153.00,A,3205.01420,N,03447.90131,E,23.928,345.6,030416,,,A*6B
$GPGGA,081155.00,3205.01975,N,03447.90191,E,1,08,0.00,0.6,M,,,,*03
$GPRMC,081155.00,A,3205.01975,N,03447.90191,E,23.454,347.2,030416,,,A*6A
$GPGGA,081156.00,3205.02309,N,03447.90246,E,1,08,0.00,0.7,M,,,,*0A
$GPRMC,081156.00,A,3205.02309,N,03447.90246,E,23.259,349.3,030416,,,A*66
$GPGGA,081158.00,3205.02577,N,03447.90409,E,1,08,0.00,1.2,M,,,,*02
$GPRMC,081158.00,A,3205.02577,N,03447.90409,E,22.699,349.0,030416,,,A*60
$GPGGA,081159.00,3205.02658,N,03447.90541,E,1,08,0.00,1.4,M,,,,*06
$GPRMC,081159.00,A,3205.02658,N,03447.90541,E,22.407,348.9,030416,,,A*6F
$GPGGA,081201.00,3205.02463,N,03447.90608,E,1,08,0.00,1.8,M,,,,*00
$GPRMC,081201.00,A,3205.02463,N,03447.90608,E,21.653,342.0,030416,,,A*66
$GPGGA,081202.00,3205.02670,N,03447.90839,E,1,08,0.00,2.7,M,,,,*03
$GPRMC,081202.00,A,3205.02670,N,03447.90839,E,21.473,340.8,030416,,,A*63
$GPGGA,081204.00,3205.03048,N,03447.91004,E,1,08,0.00,2.9,M,,,,*00
$GPRMC,081204.00,A,3205.03048,N,03447.91004,E,21.064,346.6,030416,,,A*64
$GPGGA,081205.00,3205.03227,N,03447.91023,E,1,08,0.00,4.7,M,,,,*07
$GPRMC,081205.00,A,3205.03227,N,03447.91023,E,20.850,4.2,030416,,,A*64
$GPGGA,081207.00,3205.03354,N,03447.91084,E,1,08,0.00,5.1,M,,,,*0A
$GPRMC,081207.00,A,3205.03354,N,03447.91084,E,20.342,6.4,030416,,,A*62
$GPGGA,081208.00,3205.03371,N,03447.91088,E,1,08,0.00,4.9,M,,,,*07
$GPRMC,081208.00,A,3205.03371,N,03447.91088,E,20.071,12.9,030416,,,A*5D
$GPGGA,081209.00,3205.03371,N,03447.91088,E,1,08,0.00,4.2,M,,,,*0D
$GPRMC,081209.00,A,3205.03371,N,03447.91088,E,19.796,14.3,030416,,,A*54
$GPGGA,081211.00,3205.03462,N,03447.91398,E,1,08,0.00,3.9,M,,,,*0F
$GPRMC,081211.00,A,3205.03462,N,03447.91398,E,19.372,3.1,030416,,,A*60
$GPGGA,081213.00,3205.03861,N,03447.92214,E,1,08,0.00,4.3,M,,,,*09
$GPRMC,081213.00,A,3205.03861,N,03447.92214,E,19.171,4.3,030416,,,A*6F
$GPGGA,081215.00,3205.04255,N,03447.91691,E,1,08,0.00,5.0,M,,,,*0D
$GPRMC,081215.00,A,3205.04255,N,03447.91691,E,18.775,356.4,030416,,,A*69
$GPGGA,081217.00,3205.03581,N,03447.91217,E,1,08,0.00,3.0,M,,,,*0A
$GPRMC,081217.00,A,3205.03581,N,03447.91217,E,17.980,359.8,030416,,,A*60
$GPGGA,081219.00,3205.03854,N,03447.91387,E,1,08,0.00,2.5,M,,,,*0D
$GPRMC,081219.00,A,3205.03854,N,03447.91387,E,17.684,359.7,030416,,,A*67
$GPGGA,081221.00,3205.03478,N,03447.91597,E,1,08,0.00,1.5,M,,,,*00
$GPRMC,081221.00,A,3205.03478,N,03447.91597,E,17.161,358.7,030416,,,A*64
$GPGGA,081222.00,3205.03230,N,03447.92031,E,1,08,0.00,-0.1,M,,,,*2B
$GPRMC,081222.00,A,3205.03230,N,03447.92031,E,16.931,0.8,030416,,,A*6A
$GPGGA,081223.00,3205.02772,N,03447.92513,E,1,08,0.00,1.4,M,,,,*04
$GPRMC,081223.00,A,3205.02772,N,03447.92513,E,16.641,359.7,030416,,,A*64
$GPGGA,081225.00,3205.02942,N,03447.91769,E,1,08,0.00,2.0,M,,,,*04
$GPRMC,081225.00,A,3205.02942,N,03447.91769,E,16.227,357.1,030416,,,A*6F
$GPGGA,081227.00,3205.03195,N,03447.91850,E,1,08,0.00,-0.2,M,,,,*2D
$GPRMC,081227.00,A,3205.03195,N,03447.91850,E,15.980,356.1,030416,,,A*6F
$GPGGA,081228.00,3205.03211,N,03447.91847,E,1,08,0.00,0.2,M,,,,*06
$GPRMC,081228.00,A,3205.03211,N,03447.91847,E,15.801,353.9,030416,,,A*6C
$GPGGA,081230.00,3205.03237,N,03447.91835,E,1,08,0.00,0.0,M,,,,*0C
$GPRMC,081230.00,A,3205.03237,N,03447.91835,E,15.487,353.9,030416,,,A*66
$GPGGA,081232.00,3205.03342,N,03447.91786,E,1,08,0.00,0.1,M,,,,*0B
$GPRMC,081232.00,A,3205.03342,N,03447.91786,E,15.198,0.7,030416,,,A*60
$GPGGA,081234.00,3205.03450,N,03447.91717,E,1,08,0.00,2.2,M,,,,*00
$GPRMC,081234.00,A,3205.03450,N,03447.91717,E,14.921,6.2,030416,,,A*62
$GPGGA,081236.00,3205.03604,N,03447.91572,E,1,08,0.00,0.8,M,,,,*08
$GPRMC,081236.00,A,3205.03604,N,03447.91572,E,14.658,2.4,030416,,,A*61
$GPGGA,081237.00,3205.03764,N,03447.91506,E,1,08,0.00,1.8,M,,,,*0C
$GPRMC,081237.00,A,3205.03764,N,03447.91506,E,14.556,2.7,030416,,,A*6A
$GPGGA,081239.00,3205.03967,N,03447.91397,E,1,08,0.00,0.9,M,,,,*01
$GPRMC,081239.00,A,3205.03967,N,03447.91397,E,14.330,0.5,030416,,,A*61
$GPGGA,081240.00,3205.04040,N,03447.91340,E,1,08,0.00,0.4,M,,,,*03
$GPRMC,081240.00,A,3205.04040,N,03447.91340,E,14.208,357.2,030416,,,A*62
$GPGGA,081242.00,3205.04148,N,03447.91252,E,1,08,0.00,1.0,M,,,,*0F
$GPRMC,081242.00,A,3205.04148,N,03447.91252,E,13.969,0.8,030416,,,A*6B
$GPGGA,081244.00,3205.04207,N,03447.91122,E,1,08,0.00,1.1,M,,,,*04
$GPRMC,081244.00,A,3205.04207,N,03447.91122,E,13.716,0.8,030416,,,A*67
$GPGGA,081245.00,3205.04333,N,03447.91027,E,1,08,0.00,1.5,M,,,,*03
$GPRMC,081245.00,A,3205.04333,N,03447.91027,E,13.617,0.8,030416,,,A*64
$GPGGA,081247.00,3205.04730,N,03447.91242,E,1,08,0.00,0.7,M,,,,*04
$GPRMC,081247.00,A,3205.04730,N,03447.91242,E,13.519,2.1,030416,,,A*66
$GPGGA,081248.00,3205.04968,N,03447.91310,E,1,08,0.00,0.2,M,,,,*0B
$GPRMC,081248.00,A,3205.04968,N,03447.91310,E,13.475,2.1,030416,,,A*67
$GPGGA,081249.00,3205.05200,N,03447.91316,E,1,08,0.00,0.4,M,,,,*0E
$GPRMC,081249.00,A,3205.05200,N,03447.91316,E,13.425,2.1,030416,,,A*61
$GPGGA,081251.00,3205.04629,N,03447.94005,E,1,08,0.00,0.8,M,,,,*01
$GPRMC,081251.00,A,3205.04629,N,03447.94005,E,13.321,2.2,030416,,,A*62
$GPGGA,081253.00,3205.04916,N,03447.91986,E,1,08,0.00,0.4,M,,,,*0B
$GPRMC,081253.00,A,3205.04916,N,03447.91986,E,12.960,2.2,030416,,,A*6A
$GPGGA,081254.00,3205.04880,N,03447.92121,E,1,08,0.00,0.2,M,,,,*02
$GPRMC,081254.00,A,3205.04880,N,03447.92121,E,12.855,0.7,030416,,,A*65
$GPGGA,081256.00,3205.04665,N,03447.93840,E,1,08,0.00,0.4,M,,,,*0C
$GPRMC,081256.00,A,3205.04665,N,03447.93840,E,12.766,1.8,030416,,,A*6C
$GPGGA,081258.00,3205.04482,N,03447.92234,E,1,08,0.00,5.5,M,,,,*05
$GPRMC,081258.00,A,3205.04482,N,03447.92234,E,12.342,3.2,030416,,,A*6B
$GPGGA,081300.00,3205.04364,N,03447.92129,E,1,08,0.00,1.4,M,,,,*0C
$GPRMC,081300.00,A,3205.04364,N,03447.92129,E,12.105,0.0,030416,,,A*67
$GPGGA,081302.00,3205.04238,N,03447.91900,E,1,08,0.00,1.8,M,,,,*0A
$GPRMC,081302.00,A,3205.04238,N,03447.91900,E,11.859,1.8,030416,,,A*67
$GPGGA,081303.00,3205.04238,N,03447.91900,E,1,08,0.00,2.0,M,,,,*00
$GPRMC,081303.00,A,3205.04238,N,03447.91900,E,11.766,1.8,030416,,,A*65
$GPGGA,081305.00,3205.04554,N,03447.91472,E,1,08,0.00,0.8,M,,,,*09
$GPRMC,081305.00,A,3205.04554,N,03447.91472,E,11.627,1.8,030416,,,A*62
$GPGGA,081306.00,3205.04656,N,03447.91388,E,1,08,0.00,0.3,M,,,,*02
$GPRMC,081306.00,A,3205.04656,N,03447.91388,E,11.555,3.1,030416,,,A*6F
$GPGGA,081308.00,3205.05012,N,03447.91242,E,1,08,0.00,2.3,M,,,,*0E
$GPRMC,081308.00,A,3205.05012,N,03447.91242,E,11.458,3.1,030416,,,A*6D
$GPGGA,081309.00,3205.05081,N,03447.91181,E,1,08,0.00,1.4,M,,,,*0D
$GPRMC,081309.00,A,3205.05081,N,03447.91181,E,11.383,2.0,030416,,,A*6B
$GPGGA,081311.00,3205.03594,N,03447.91518,E,1,08,0.00,5.0,M,,,,*07
$GPRMC,081311.00,A,3205.03594,N,03447.91518,E,10.886,3.1,030416,,,A*6E
$GPGGA,081312.00,3205.03594,N,03447.91518,E,1,08,0.00,4.9,M,,,,*0C
$GPRMC,081312.00,A,3205.03594,N,03447.91518,E,10.807,3.1,030416,,,A*64
$GPGGA,081314.00,3205.03732,N,03447.91473,E,1,08,0.00,6.9,M,,,,*0A
$GPRMC,081314.00,A,3205.03732,N,03447.91473,E,10.679,1.9,030416,,,A*6D
$GPGGA,081315.00,3205.03732,N,03447.91473,E,1,08,0.00,6.8,M,,,,*0A
$GPRMC,081315.00,A,3205.03732,N,03447.91473,E,10.603,3.0,030416,,,A*6A
$GPGGA,081317.00,3205.03785,N,03447.91622,E,1,08,0.00,7.4,M,,,,*0F
$GPRMC,081317.00,A,3205.03785,N,03447.91622,E,10.480,3.0,030416,,,A*6B
$GPGGA,081318.00,3205.03785,N,03447.91622,E,1,08,0.00,7.9,M,,,,*0D
$GPRMC,081318.00,A,3205.03785,N,03447.91622,E,10.406,2.0,030416,,,A*6B
$GPGGA,081320.00,3205.03704,N,03447.91797,E,1,08,0.00,13.4,M,,,,*38
$GPRMC,081320.00,A,3205.03704,N,03447.91797,E,10.261,360.0,030416,,,A*66
$GPGGA,081321.00,3205.03733,N,03447.91913,E,1,08,0.00,12.7,M,,,,*3D
$GPRMC,081321.00,A,3205.03733,N,03447.91913,E,10.207,358.7,030416,,,A*6D
$GPGGA,081322.00,3205.03851,N,03447.91931,E,1,08,0.00,13.8,M,,,,*3B
$GPRMC,081322.00,A,3205.03851,N,03447.91931,E,10.165,359.8,030416,,,A*6C
$GPGGA,081323.00,3205.04157,N,03447.91880,E,1,08,0.00,13.6,M,,,,*37
$GPRMC,081323.00,A,3205.04157,N,03447.91880,E,10.160,359.8,030416,,,A*6B
$GPGGA,081325.00,3205.04496,N,03447.91704,E,1,08,0.00,14.3,M,,,,*38
$GPRMC,081325.00,A,3205.04496,N,03447.91704,E,10.085,359.8,030416,,,A*6C
$GPGGA,081327.00,3205.04785,N,03447.91517,E,1,08,0.00,11.3,M,,,,*3E
$GPRMC,081327.00,A,3205.04785,N,03447.91517,E,10.000,359.8,030416,,,A*62
$GPGGA,081328.00,3205.04785,N,03447.91517,E,1,08,0.00,11.8,M,,,,*3A
$GPRMC,081328.00,A,3205.04785,N,03447.91517,E,9.935,353.5,030416,,,A*5D
$GPGGA,081330.00,3205.04795,N,03447.91674,E,1,08,0.00,12.9,M,,,,*36
$GPRMC,081330.00,A,3205.04795,N,03447.91674,E,9.821,347.1,030416,,,A*56
$GPGGA,081332.00,3205.04715,N,03447.91640,E,1,08,0.00,12.8,M,,,,*3A
$GPRMC,081332.00,A,3205.04715,N,03447.91640,E,9.677,347.5,030416,,,A*52
$GPGGA,081333.00,3205.04426,N,03447.91614,E,1,08,0.00,12.9,M,,,,*38
$GPRMC,081333.00,A,3205.04426,N,03447.91614,E,9.553,347.5,030416,,,A*54
$GPGGA,081335.00,3205.04419,N,03447.91639,E,1,08,0.00,14.4,M,,,,*36
$GPRMC,081335.00,A,3205.04419,N,03447.91639,E,9.435,347.5,030416,,,A*50
$GPGGA,081337.00,3205.04402,N,03447.91589,E,1,08,0.00,15.7,M,,,,*34
$GPRMC,081337.00,A,3205.04402,N,03447.91589,E,9.311,347.5,030416,,,A*51
$GPGGA,081338.00,3205.04402,N,03447.91589,E,1,08,0.00,16.2,M,,,,*3D
$GPRMC,081338.00,A,3205.04402,N,03447.91589,E,9.253,347.5,030416,,,A*59
$GPGGA,081340.00,3205.04100,N,03447.91443,E,1,08,0.00,16.8,M,,,,*38
$GPRMC,081340.00,A,3205.04100,N,03447.91443,E,9.072,346.5,030416,,,A*56
$GPGGA,081341.00,3205.04100,N,03447.91443,E,1,08,0.00,16.8,M,,,,*39
$GPRMC,081341.00,A,3205.04100,N,03447.91443,E,9.017,346.5,030416,,,A*54
$GPGGA,081343.00,3205.04100,N,03447.91443,E,1,08,0.00,16.6,M,,,,*35
$GPRMC,081343.00,A,3205.04100,N,03447.91443,E,8.909,348.8,030416,,,A*52
$GPGGA,081345.00,3205.04100,N,03447.91443,E,1,08,0.00,15.3,M,,,,*35
$GPRMC,081345.00,A,3205.04100,N,03447.91443,E,8.805,332.6,030416,,,A*5A
$GPGGA,081346.00,3205.04100,N,03447.91443,E,1,08,0.00,15.0,M,,,,*35
$GPRMC,081346.00,A,3205.04100,N,03447.91443,E,8.753,332.6,030416,,,A*55
$GPGGA,081348.00,3205.04418,N,03447.91434,E,1,08,0.00,15.2,M,,,,*35
$GPRMC,081348.00,A,3205.04418,N,03447.91434,E,8.712,332.6,030416,,,A*52
$GPGGA,081350.00,3205.04418,N,03447.91434,E,1,08,0.00,10.5,M,,,,*3E
$GPRMC,081350.00,A,3205.04418,N,03447.91434,E,8.613,332.6,030416,,,A*5B
$GPGGA,081351.00,3205.04563,N,03447.91157,E,1,08,0.00,5.4,M,,,,*07
$GPRMC,081351.00,A,3205.04563,N,03447.91157,E,8.572,332.6,030416,,,A*53
$GPGGA,081353.00,3205.04563,N,03447.91157,E,1,08,0.00,2.1,M,,,,*07
$GPRMC,081353.00,A,3205.04563,N,03447.91157,E,8.476,332.6,030416,,,A*54
$GPGGA,081355.00,3205.04695,N,03447.90828,E,1,08,0.00,-0.4,M,,,,*21
$GPRMC,081355.00,A,3205.04695,N,03447.90828,E,8.385,332.6,030416,,,A*53
$GPGGA,081357.00,3205.04695,N,03447.90828,E,1,08,0.00,-0.5,M,,,,*22
$GPRMC,081357.00,A,3205.04695,N,03447.90828,E,8.293,332.6,030416,,,A*57
$GPGGA,081358.00,3205.04695,N,03447.90828,E,1,08,0.00,-0.6,M,,,,*2E
$GPRMC,081358.00,A,3205.04695,N,03447.90828,E,8.248,332.6,030416,,,A*5E
$GPGGA,081400.00,3205.04695,N,03447.90828,E,1,08,0.00,-0.6,M,,,,*24
$GPRMC,081400.00,A,3205.04695,N,03447.90828,E,8.158,332.6,030416,,,A*56
$GPGGA,081402.00,3205.04695,N,03447.90828,E,1,08,0.00,-0.3,M,,,,*23
$GPRMC,081402.00,A,3205.04695,N,03447.90828,E,8.072,332.6,030416,,,A*5D
$GPGGA,081403.00,3205.04695,N,03447.90828,E,1,08,0.00,-0.4,M,,,,*25
$GPRMC,081403.00,A,3205.04695,N,03447.90828,E,8.029,332.6,030416,,,A*52
$GPGGA,081404.00,3205.04695,N,03447.90828,E,1,08,0.00,-0.5,M,,,,*23
$GPRMC,081404.00,A,3205.04695,N,03447.90828,E,7.984,332.6,030416,,,A*54
$GPGGA,081406.00,3205.04695,N,03447.90828,E,1,08,0.00,-0.6,M,,,,*22
$GPRMC,081406.00,A,3205.04695,N,03447.90828,E,7.903,332.6,030416,,,A*59
$GPGGA,081407.00,3205.04695,N,03447.90828,E,1,08,0.00,-0.7,M,,,,*22
$GPRMC,081407.00,A,3205.04695,N,03447.90828,E,7.862,332.6,030416,,,A*5E
$GPGGA,081409.00,3205.04695,N,03447.90828,E,1,08,0.00,-0.9,M,,,,*22
$GPRMC,081409.00,A,3205.04695,N,03447.90828,E,7.781,332.6,030416,,,A*52
$GPGGA,081411.00,3205.04695,N,03447.90828,E,1,08,0.00,-1.0,M,,,,*23
$GPRMC,081411.00,A,3205.04695,N,03447.90828,E,7.702,332.6,030416,,,A*50
$GPGGA,081413.00,3205.04695,N,03447.90828,E,1,08,0.00,-1.1,M,,,,*20
$GPRMC,081413.00,A,3205.04695,N,03447.90828,E,7.624,332.6,030416,,,A*57
$GPGGA,081415.00,3205.04695,N,03447.90828,E,1,08,0.00,-1.1,M,,,,*26
$GPRMC,081415.00,A,3205.04695,N,03447.90828,E,7.548,332.6,030416,,,A*58
$GPGGA,081417.00,3205.04695,N,03447.90828,E,1,08,0.00,-1.2,M,,,,*27
$GPRMC,081417.00,A,3205.04695,N,03447.90828,E,7.474,8.0,030416,,,A*58
$GPGGA,081418.00,3205.04953,N,03447.90784,E,1,08,0.00,-2.1,M,,,,*24
$GPRMC,081418.00,A,3205.04953,N,03447.90784,E,7.476,350.7,030416,,,A*50
$GPGGA,081419.00,3205.04935,N,03447.90805,E,1,08,0.00,-0.8,M,,,,*28
$GPRMC,081419.00,A,3205.04935,N,03447.90805,E,7.438,0.6,030416,,,A*5A
$GPGGA,081421.00,3205.04782,N,03447.90896,E,1,08,0.00,2.3,M,,,,*0F
$GPRMC,081421.00,A,3205.04782,N,03447.90896,E,7.347,1.4,030416,,,A*55
$GPGGA,081422.00,3205.04769,N,03447.90971,E,1,08,0.00,3.1,M,,,,*02
$GPRMC,081422.00,A,3205.04769,N,03447.90971,E,7.313,5.5,030416,,,A*5F
$GPGGA,081423.00,3205.04910,N,03447.91123,E,1,08,0.00,4.3,M,,,,*08
$GPRMC,081423.00,A,3205.04910,N,03447.91123,E,7.309,4.3,030416,,,A*5C
$GPGGA,081425.00,3205.05069,N,03447.91190,E,1,08,0.00,4.7,M,,,,*04
$GPRMC,081425.00,A,3205.05069,N,03447.91190,E,7.268,1.7,030416,,,A*53
$GPGGA,081427.00,3205.05127,N,03447.91092,E,1,08,0.00,7.9,M,,,,*03
$GPRMC,081427.00,A,3205.05127,N,03447.91092,E,7.203,357.1,030416,,,A*52
$GPGGA,081429.00,3205.05294,N,03447.91055,E,1,08,0.00,8.3,M,,,,*08
$GPRMC,081429.00,A,3205.05294,N,03447.91055,E,7.160,358.4,030416,,,A*50
$GPGGA,081431.00,3205.05624,N,03447.91060,E,1,08,0.00,10.9,M,,,,*3B
$GPRMC,081431.00,A,3205.05624,N,03447.91060,E,7.145,355.0,030416,,,A*5E
$GPGGA,081432.00,3205.05781,N,03447.91031,E,1,08,0.00,10.1,M,,,,*3A
$GPRMC,081432.00,A,3205.05781,N,03447.91031,E,7.134,355.0,030416,,,A*51
$GPGGA,081434.00,3205.05869,N,03447.90981,E,1,08,0.00,13.2,M,,,,*36
$GPRMC,081434.00,A,3205.05869,N,03447.90981,E,7.080,359.9,030416,,,A*56
$GPGGA,081435.00,3205.05869,N,03447.90981,E,1,08,0.00,12.5,M,,,,*31
$GPRMC,081435.00,A,3205.05869,N,03447.90981,E,7.048,2.8,030416,,,A*5F
$GPGGA,081437.00,3205.05946,N,03447.91431,E,1,08,0.00,12.3,M,,,,*3E
$GPRMC,081437.00,A,3205.05946,N,03447.91431,E,7.020,2.1,030416,,,A*51
$GPGGA,081439.00,3205.06398,N,03447.91425,E,1,08,0.00,13.0,M,,,,*3D
$GPRMC,081439.00,A,3205.06398,N,03447.91425,E,7.024,359.8,030416,,,A*50
$GPGGA,081440.00,3205.06398,N,03447.91425,E,1,08,0.00,14.7,M,,,,*33
$GPRMC,081440.00,A,3205.06398,N,03447.91425,E,6.993,0.9,030416,,,A*54
$GPGGA,081442.00,3205.07025,N,03447.91392,E,1,08,0.00,14.1,M,,,,*38
$GPRMC,081442.00,A,3205.07025,N,03447.91392,E,7.022,0.4,030416,,,A*56
$GPGGA,081443.00,3205.07879,N,03447.91366,E,1,08,0.00,15.8,M,,,,*3B
$GPRMC,081443.00,A,3205.07879,N,03447.91366,E,7.114,1.4,030416,,,A*58
$GPGGA,081445.00,3205.08730,N,03447.91711,E,1,08,0.00,16.4,M,,,,*3B
$GPRMC,081445.00,A,3205.08730,N,03447.91711,E,7.193,1.6,030416,,,A*5A
$GPGGA,081446.00,3205.10338,N,03447.91925,E,1,08,0.00,16.8,M,,,,*38
$GPRMC,081446.00,A,3205.10338,N,03447.91925,E,7.406,0.5,030416,,,A*5E
$GPGGA,081448.00,3205.10406,N,03447.92248,E,1,08,0.00,16.5,M,,,,*32
$GPRMC,081448.00,A,3205.10406,N,03447.92248,E,7.367,359.5,030416,,,A*56
$GPGGA,081450.00,3205.09134,N,03447.92904,E,1,08,0.00,16.8,M,,,,*39
$GPRMC,081450.00,A,3205.09134,N,03447.92904,E,7.156,359.2,030416,,,A*57
$GPGGA,081452.00,3205.09134,N,03447.92904,E,1,08,0.00,18.4,M,,,,*39
$GPRMC,081452.00,A,3205.09134,N,03447.92904,E,7.096,359.2,030416,,,A*58
$GPGGA,081453.00,3205.09444,N,03447.92871,E,1,08,0.00,15.1,M,,,,*31
$GPRMC,081453.00,A,3205.09444,N,03447.92871,E,7.108,0.2,030416,,,A*51
$GPGGA,081454.00,3205.09444,N,03447.92871,E,1,08,0.00,14.4,M,,,,*32
$GPRMC,081454.00,A,3205.09444,N,03447.92871,E,7.078,0.2,030416,,,A*50
$GPGGA,081456.00,3205.09832,N,03447.93057,E,1,08,0.00,9.6,M,,,,*0E
$GPRMC,081456.00,A,3205.09832,N,03447.93057,E,7.081,0.2,030416,,,A*54
$GPGGA,081458.00,3205.10128,N,03447.93176,E,1,08,0.00,1.9,M,,,,*0F
$GPRMC,081458.00,A,3205.10128,N,03447.93176,E,7.069,0.2,030416,,,A*54
$GPGGA,081500.00,3205.12405,N,03447.94652,E,1,08,0.00,-7.3,M,,,,*2C
$GPRMC,081500.00,A,3205.12405,N,03447.94652,E,7.391,1.8,030416,,,A*59
$GPGGA,081501.00,3205.15064,N,03447.94667,E,1,08,0.00,-11.5,M,,,,*1E
$GPRMC,081501.00,A,3205.15064,N,03447.94667,E,7.722,1.8,030416,,,A*56
$GPGGA,081503.00,3205.17790,N,03447.94750,E,1,08,0.00,-10.5,M,,,,*16
$GPRMC,081503.00,A,3205.17790,N,03447.94750,E,8.033,358.6,030416,,,A*56
$GPGGA,081505.00,3205.19678,N,03447.94907,E,1,08,0.00,-5.8,M,,,,*2C
$GPRMC,081505.00,A,3205.19678,N,03447.94907,E,8.230,1.4,030416,,,A*59
$GPGGA,081506.00,3205.20328,N,03447.95034,E,1,08,0.00,-3.2,M,,,,*21
$GPRMC,081506.00,A,3205.20328,N,03447.95034,E,8.290,359.5,030416,,,A*5D
$GPGGA,081508.00,3205.21564,N,03447.95645,E,1,08,0.00,-1.9,M,,,,*29
$GPRMC,081508.00,A,3205.21564,N,03447.95645,E,8.415,357.4,030416,,,A*58
$GPGGA,081510.00,3205.22761,N,03447.96305,E,1,08,0.00,0.5,M,,,,*06
$GPRMC,081510.00,A,3205.22761,N,03447.96305,E,8.535,359.5,030416,,,A*5B
$GPGGA,081511.00,3205.23325,N,03447.96306,E,1,08,0.00,-0.5,M,,,,*2C
$GPRMC,081511.00,A,3205.23325,N,03447.96306,E,8.577,1.0,030416,,,A*51
$GPGGA,081513.00,3205.24504,N,03447.96956,E,1,08,0.00,-0.4,M,,,,*22
$GPRMC,081513.00,A,3205.24504,N,03447.96956,E,8.691,2.0,030416,,,A*56
$GPGGA,081514.00,3205.25095,N,03447.97158,E,1,08,0.00,-0.3,M,,,,*29
$GPRMC,081514.00,A,3205.25095,N,03447.97158,E,8.742,360.0,030416,,,A*52
$GPGGA,081516.00,3205.26088,N,03447.97607,E,1,08,0.00,0.2,M,,,,*05
$GPRMC,081516.00,A,3205.26088,N,03447.97607,E,8.822,7.1,030416,,,A*58
$GPGGA,081518.00,3205.27201,N,03447.97982,E,1,08,0.00,1.7,M,,,,*0F
$GPRMC,081518.00,A,3205.27201,N,03447.97982,E,8.913,3.4,030416,,,A*54
$GPGGA,081520.00,3205.28407,N,03447.98349,E,1,08,0.00,1.5,M,,,,*0B
$GPRMC,081520.00,A,3205.28407,N,03447.98349,E,9.014,359.3,030416,,,A*56
$GPGGA,081522.00,3205.29625,N,03447.98758,E,1,08,0.00,-5.1,M,,,,*23
$GPRMC,081522.00,A,3205.29625,N,03447.98758,E,9.117,359.1,030416,,,A*53
$GPGGA,081524.00,3205.30713,N,03447.99280,E,1,08,0.00,-6.7,M,,,,*2D
$GPRMC,081524.00,A,3205.30713,N,03447.99280,E,9.207,357.8,030416,,,A*5D
$GPGGA,081525.00,3205.31271,N,03447.99560,E,1,08,0.00,-7.9,M,,,,*2A
$GPRMC,081525.00,A,3205.31271,N,03447.99560,E,9.253,355.7,030416,,,A*59
$GPGGA,081527.00,3205.32470,N,03447.99925,E,1,08,0.00,-7.9,M,,,,*21
$GPRMC,081527.00,A,3205.32470,N,03447.99925,E,9.348,3.0,030416,,,A*5E
$GPGGA,081528.00,3205.32951,N,03448.00318,E,1,08,0.00,-8.2,M,,,,*2F
$GPRMC,081528.00,A,3205.32951,N,03448.00318,E,9.389,1.8,030416,,,A*53
$GPGGA,081530.00,3205.34179,N,03448.00792,E,1,08,0.00,-10.8,M,,,,*17
$GPRMC,081530.00,A,3205.34179,N,03448.00792,E,9.489,6.7,030416,,,A*57
$GPGGA,081531.00,3205.34818,N,03448.00903,E,1,08,0.00,-9.0,M,,,,*2E
$GPRMC,081531.00,A,3205.34818,N,03448.00903,E,9.537,6.7,030416,,,A*5A
$GPGGA,081533.00,3205.35843,N,03448.01441,E,1,08,0.00,-8.3,M,,,,*2B
$GPRMC,081533.00,A,3205.35843,N,03448.01441,E,9.614,6.7,030416,,,A*5F
$GPGGA,081534.00,3205.36550,N,03448.01548,E,1,08,0.00,-9.1,M,,,,*2B
$GPRMC,081534.00,A,3205.36550,N,03448.01548,E,9.668,5.7,030416,,,A*54
$GPGGA,081536.00,3205.37619,N,03448.02017,E,1,08,0.00,-7.4,M,,,,*21
$GPRMC,081536.00,A,3205.37619,N,03448.02017,E,9.746,2.0,030416,,,A*58
$GPGGA,081538.00,3205.38882,N,03448.01853,E,1,08,0.00,-7.7,M,,,,*24
$GPRMC,081538.00,A,3205.38882,N,03448.01853,E,9.823,2.0,030416,,,A*52
$GPGGA,081539.00,3205.39507,N,03448.01958,E,1,08,0.00,-7.7,M,,,,*2E
$GPRMC,081539.00,A,3205.39507,N,03448.01958,E,9.867,4.5,030416,,,A*5B
$GPGGA,081541.00,3205.41306,N,03448.02379,E,1,08,0.00,-5.6,M,,,,*20
$GPRMC,081541.00,A,3205.41306,N,03448.02379,E,10.027,1.1,030416,,,A*63
$GPGGA,081542.00,3205.42032,N,03448.02763,E,1,08,0.00,-5.6,M,,,,*2B
$GPRMC,081542.00,A,3205.42032,N,03448.02763,E,10.091,1.1,030416,,,A*65
$GPGGA,081544.00,3205.43601,N,03448.02943,E,1,08,0.00,-2.3,M,,,,*24
$GPRMC,081544.00,A,3205.43601,N,03448.02943,E,10.212,354.0,030416,,,A*63
$GPGGA,081546.00,3205.45449,N,03448.03276,E,1,08,0.00,-4.6,M,,,,*21
$GPRMC,081546.00,A,3205.45449,N,03448.03276,E,10.370,352.2,030416,,,A*64
$GPGGA,081547.00,3205.46252,N,03448.03476,E,1,08,0.00,-3.3,M,,,,*2B
$GPRMC,081547.00,A,3205.46252,N,03448.03476,E,10.435,0.5,030416,,,A*69
$GPGGA,081548.00,3205.47144,N,03448.03637,E,1,08,0.00,-3.5,M,,,,*20
$GPRMC,081548.00,A,3205.47144,N,03448.03637,E,10.508,4.3,030416,,,A*69
$GPGGA,081550.00,3205.48948,N,03448.03981,E,1,08,0.00,-0.4,M,,,,*22
$GPRMC,081550.00,A,3205.48948,N,03448.03981,E,10.657,358.2,030416,,,A*6B
$GPGGA,081552.00,3205.50608,N,03448.04541,E,1,08,0.00,0.5,M,,,,*09
$GPRMC,081552.00,A,3205.50608,N,03448.04541,E,10.795,2.3,030416,,,A*6E
$GPGGA,081553.00,3205.51501,N,03448.04838,E,1,08,0.00,2.1,M,,,,*06
$GPRMC,081553.00,A,3205.51501,N,03448.04838,E,10.870,4.9,030416,,,A*6F
$GPGGA,081555.00,3205.53297,N,03448.05258,E,1,08,0.00,3.6,M,,,,*01
$GPRMC,081555.00,A,3205.53297,N,03448.05258,E,11.016,2.6,030416,,,A*6E
$GPGGA,081556.00,3205.54231,N,03448.05507,E,1,08,0.00,3.6,M,,,,*04
$GPRMC,081556.00,A,3205.54231,N,03448.05507,E,11.093,0.4,030416,,,A*66
$GPGGA,081558.00,3205.56276,N,03448.06126,E,1,08,0.00,4.9,M,,,,*07
$GPRMC,081558.00,A,3205.56276,N,03448.06126,E,11.271,345.1,030416,,,A*64
$GPGGA,081559.00,3205.57285,N,03448.06377,E,1,08,0.00,5.6,M,,,,*03
$GPRMC,081559.00,A,3205.57285,N,03448.06377,E,11.352,343.3,030416,,,A*6A
$GPGGA,081601.00,3205.59484,N,03448.06741,E,1,08,0.00,4.2,M,,,,*00
$GPRMC,081601.00,A,3205.59484,N,03448.06741,E,11.538,346.3,030416,,,A*63
$GPGGA,081602.00,3205.60577,N,03448.06906,E,1,08,0.00,3.1,M,,,,*0D
$GPRMC,081602.00,A,3205.60577,N,03448.06906,E,11.628,354.3,030416,,,A*6B
$GPGGA,081604.00,3205.62825,N,03448.07518,E,1,08,0.00,4.6,M,,,,*01
$GPRMC,081604.00,A,3205.62825,N,03448.07518,E,11.821,6.7,030416,,,A*60
$GPGGA,081605.00,3205.64095,N,03448.07757,E,1,08,0.00,5.4,M,,,,*0F
$GPRMC,081605.00,A,3205.64095,N,03448.07757,E,11.930,9.9,030416,,,A*6D
$GPGGA,081607.00,3205.66438,N,03448.08668,E,1,08,0.00,3.9,M,,,,*05
$GPRMC,081607.00,A,3205.66438,N,03448.08668,E,12.139,0.4,030416,,,A*6A
$GPGGA,081608.00,3205.67916,N,03448.08923,E,1,08,0.00,3.3,M,,,,*00
$GPRMC,081608.00,A,3205.67916,N,03448.08923,E,12.270,0.4,030416,,,A*6B
$GPGGA,081609.00,3205.68598,N,03448.09269,E,1,08,0.00,4.8,M,,,,*0C
$GPRMC,081609.00,A,3205.68598,N,03448.09269,E,12.314,0.4,030416,,,A*68
$GPGGA,081611.00,3205.70354,N,03448.09931,E,1,08,0.00,7.1,M,,,,*06
$GPRMC,081611.00,A,3205.70354,N,03448.09931,E,12.447,3.5,030416,,,A*6B
$GPGGA,081613.00,3205.71394,N,03448.12353,E,1,08,0.00,7.9,M,,,,*05
$GPRMC,081613.00,A,3205.71394,N,03448.12353,E,12.552,3.8,030416,,,A*68
$GPGGA,081614.00,3205.72698,N,03448.12599,E,1,08,0.00,7.0,M,,,,*01
$GPRMC,081614.00,A,3205.72698,N,03448.12599,E,12.660,2.2,030416,,,A*6C
$GPGGA,081615.00,3205.74271,N,03448.12897,E,1,08,0.00,6.6,M,,,,*01
$GPRMC,081615.00,A,3205.74271,N,03448.12897,E,12.797,2.2,030416,,,A*62
$GPGGA,081616.00,3205.75956,N,03448.13216,E,1,08,0.00,5.6,M,,,,*0C
$GPRMC,081616.00,A,3205.75956,N,03448.13216,E,12.946,2.2,030416,,,A*6E
$GPGGA,081618.00,3205.78338,N,03448.13666,E,1,08,0.00,7.3,M,,,,*09
$GPRMC,081618.00,A,3205.78338,N,03448.13666,E,13.133,2.2,030416,,,A*67
$GPGGA,081619.00,3205.80270,N,03448.14032,E,1,08,0.00,5.2,M,,,,*01
$GPRMC,081619.00,A,3205.80270,N,03448.14032,E,13.307,2.2,030416,,,A*69
$GPGGA,081620.00,3205.80626,N,03448.14099,E,1,08,0.00,5.3,M,,,,*0C
$GPRMC,081620.00,A,3205.80626,N,03448.14099,E,13.305,2.2,030416,,,A*67
$GPGGA,081622.00,3205.82824,N,03448.13919,E,1,08,0.00,6.6,M,,,,*00
$GPRMC,081622.00,A,3205.82824,N,03448.13919,E,13.450,3.5,030416,,,A*6C
$GPGGA,081623.00,3205.84270,N,03448.14192,E,1,08,0.00,6.0,M,,,,*06
$GPRMC,081623.00,A,3205.84270,N,03448.14192,E,13.568,3.5,030416,,,A*66
$GPGGA,081625.00,3205.85880,N,03448.14497,E,1,08,0.00,8.1,M,,,,*0B
$GPRMC,081625.00,A,3205.85880,N,03448.14497,E,13.661,3.2,030416,,,A*69
$GPGGA,081627.00,3205.87965,N,03448.14891,E,1,08,0.00,6.6,M,,,,*02
$GPRMC,081627.00,A,3205.87965,N,03448.14891,E,13.806,2.3,030416,,,A*66
$GPGGA,081629.00,3205.90047,N,03448.15285,E,1,08,0.00,7.6,M,,,,*0C
$GPRMC,081629.00,A,3205.90047,N,03448.15285,E,13.949,0.6,030416,,,A*64
$GPGGA,081631.00,3205.91850,N,03448.15626,E,1,08,0.00,8.4,M,,,,*0A
$GPRMC,081631.00,A,3205.91850,N,03448.15626,E,14.061,4.9,030416,,,A*60
$GPGGA,081632.00,3205.93053,N,03448.15856,E,1,08,0.00,9.0,M,,,,*0C
$GPRMC,081632.00,A,3205.93053,N,03448.15856,E,14.148,1.9,030416,,,A*6C
$GPGGA,081633.00,3205.93850,N,03448.16009,E,1,08,0.00,8.3,M,,,,*05
$GPRMC,081633.00,A,3205.93850,N,03448.16009,E,14.191,3.4,030416,,,A*6C
$GPGGA,081634.00,3205.94733,N,03448.16185,E,1,08,0.00,9.1,M,,,,*09
$GPRMC,081634.00,A,3205.94733,N,03448.16185,E,14.244,9.6,030416,,,A*60
$GPGGA,081636.00,3205.96519,N,03448.16568,E,1,08,0.00,9.1,M,,,,*04
$GPRMC,081636.00,A,3205.96519,N,03448.16568,E,14.351,2.7,030416,,,A*62
$GPGGA,081638.00,3205.98652,N,03448.17048,E,1,08,0.00,10.9,M,,,,*3E
$GPRMC,081638.00,A,3205.98652,N,03448.17048,E,14.495,5.3,030416,,,A*64
$GPGGA,081639.00,3205.99405,N,03448.17221,E,1,08,0.00,12.9,M,,,,*31
$GPRMC,081639.00,A,3205.99405,N,03448.17221,E,14.532,0.6,030416,,,A*65
$GPGGA,081640.00,3206.00431,N,03448.17464,E,1,08,0.00,11.6,M,,,,*30
$GPRMC,081640.00,A,3206.00431,N,03448.17464,E,14.599,1.9,030416,,,A*67
$GPGGA,081642.00,3206.02328,N,03448.18126,E,1,08,0.00,11.7,M,,,,*32
$GPRMC,081642.00,A,3206.02328,N,03448.18126,E,14.720,3.2,030416,,,A*6D
$GPGGA,081643.00,3206.03234,N,03448.18443,E,1,08,0.00,11.7,M,,,,*38
$GPRMC,081643.00,A,3206.03234,N,03448.18443,E,14.775,359.6,030416,,,A*6F
$GPGGA,081645.00,3206.05235,N,03448.19159,E,1,08,0.00,11.7,M,,,,*36
$GPRMC,081645.00,A,3206.05235,N,03448.19159,E,14.907,10.3,030416,,,A*51
$GPGGA,081646.00,3206.06158,N,03448.19499,E,1,08,0.00,13.0,M,,,,*32
$GPRMC,081646.00,A,3206.06158,N,03448.19499,E,14.963,19.2,030416,,,A*5A
$GPGGA,081647.00,3206.06940,N,03448.19795,E,1,08,0.00,11.8,M,,,,*37
$GPRMC,081647.00,A,3206.06940,N,03448.19795,E,15.004,18.3,030416,,,A*5C
$GPGGA,081649.00,3206.08557,N,03448.20467,E,1,08,0.00,13.9,M,,,,*3A
$GPRMC,081649.00,A,3206.08557,N,03448.20467,E,15.094,18.4,030416,,,A*5C
$GPGGA,081650.00,3206.09371,N,03448.20866,E,1,08,0.00,14.6,M,,,,*34
$GPRMC,081650.00,A,3206.09371,N,03448.20866,E,15.140,14.4,030416,,,A*5E
$GPGGA,081651.00,3206.10148,N,03448.21260,E,1,08,0.00,11.5,M,,,,*3E
$GPRMC,081651.00,A,3206.10148,N,03448.21260,E,15.182,15.4,030416,,,A*5D
$GPGGA,081652.00,3206.10879,N,03448.21649,E,1,08,0.00,11.9,M,,,,*35
$GPRMC,081652.00,A,3206.10879,N,03448.21649,E,15.219,9.3,030416,,,A*61
$GPGGA,081654.00,3206.12379,N,03448.22478,E,1,08,0.00,12.3,M,,,,*30
$GPRMC,081654.00,A,3206.12379,N,03448.22478,E,15.299,9.4,030416,,,A*62
$GPGGA,081656.00,3206.13809,N,03448.23326,E,1,08,0.00,12.6,M,,,,*37
$GPRMC,081656.00,A,3206.13809,N,03448.23326,E,15.372,13.9,030416,,,A*52
$GPGGA,081657.00,3206.14563,N,03448.23827,E,1,08,0.00,10.4,M,,,,*3A
$GPRMC,081657.00,A,3206.14563,N,03448.23827,E,15.413,9.4,030416,,,A*69
$GPGGA,081658.00,3206.15128,N,03448.24202,E,1,08,0.00,11.3,M,,,,*33
$GPRMC,081658.00,A,3206.15128,N,03448.24202,E,15.433,8.2,030416,,,A*63
$GPGGA,081700.00,3206.16354,N,03448.25015,E,1,08,0.00,10.0,M,,,,*32
$GPRMC,081700.00,A,3206.16354,N,03448.25015,E,15.485,3.8,030416,,,A*6C
$GPGGA,081701.00,3206.16928,N,03448.25396,E,1,08,0.00,9.0,M,,,,*02
$GPRMC,081701.00,A,3206.16928,N,03448.25396,E,15.505,2.2,030416,,,A*66
$GPGGA,081702.00,3206.17470,N,03448.25756,E,1,08,0.00,9.6,M,,,,*0E
$GPRMC,081702.00,A,3206.17470,N,03448.25756,E,15.519,2.9,030416,,,A*6A
$GPGGA,081704.00,3206.18451,N,03448.26406,E,1,08,0.00,9.5,M,,,,*02
$GPRMC,081704.00,A,3206.18451,N,03448.26406,E,15.546,7.1,030416,,,A*62
$GPGGA,081705.00,3206.18885,N,03448.26695,E,1,08,0.00,9.7,M,,,,*0C
$GPRMC,081705.00,A,3206.18885,N,03448.26695,E,15.551,7.1,030416,,,A*68
$GPGGA,081706.00,3206.19258,N,03448.26942,E,1,08,0.00,9.2,M,,,,*04
$GPRMC,081706.00,A,3206.19258,N,03448.26942,E,15.549,9.8,030416,,,A*6B
$GPGGA,081708.00,3206.19852,N,03448.27337,E,1,08,0.00,11.0,M,,,,*38
$GPRMC,081708.00,A,3206.19852,N,03448.27337,E,15.530,6.5,030416,,,A*60
$GPGGA,081709.00,3206.20320,N,03448.27647,E,1,08,0.00,10.8,M,,,,*36
$GPRMC,081709.00,A,3206.20320,N,03448.27647,E,15.539,2.7,030416,,,A*68
$GPGGA,081710.00,3206.20650,N,03448.27869,E,1,08,0.00,11.4,M,,,,*33
$GPRMC,081710.00,A,3206.20650,N,03448.27869,E,15.533,2.7,030416,,,A*6A
$GPGGA,081712.00,3206.21016,N,03448.28115,E,1,08,0.00,11.3,M,,,,*3E
$GPRMC,081712.00,A,3206.21016,N,03448.28115,E,15.491,4.5,030416,,,A*6D
$GPGGA,081713.00,3206.21239,N,03448.28265,E,1,08,0.00,11.1,M,,,,*36
$GPRMC,081713.00,A,3206.21239,N,03448.28265,E,15.473,5.6,030416,,,A*69
$GPGGA,081715.00,3206.21406,N,03448.28377,E,1,08,0.00,11.5,M,,,,*3C
$GPRMC,081715.00,A,3206.21406,N,03448.28377,E,15.410,6.6,030416,,,A*61
$GPGGA,081717.00,3206.21064,N,03448.28147,E,1,08,0.00,11.0,M,,,,*3A
$GPRMC,081717.00,A,3206.21064,N,03448.28147,E,15.293,7.6,030416,,,A*6E
$GPGGA,081718.00,3206.21184,N,03448.28228,E,1,08,0.00,11.1,M,,,,*31
$GPRMC,081718.00,A,3206.21184,N,03448.28228,E,15.266,7.6,030416,,,A*6E
$GPGGA,081719.00,3206.21237,N,03448.28264,E,1,08,0.00,11.6,M,,,,*34
$GPRMC,081719.00,A,3206.21237,N,03448.28264,E,15.231,5.5,030416,,,A*6F
$GPGGA,081721.00,3206.21440,N,03448.28400,E,1,08,0.00,11.2,M,,,,*39
$GPRMC,081721.00,A,3206.21440,N,03448.28400,E,15.173,3.0,030416,,,A*60
$GPGGA,081723.00,3206.21494,N,03448.28437,E,1,08,0.00,11.1,M,,,,*35
$GPRMC,081723.00,A,3206.21494,N,03448.28437,E,15.102,3.0,030416,,,A*69
$GPGGA,081724.00,3206.21423,N,03448.28388,E,1,08,0.00,11.2,M,,,,*3E
$GPRMC,081724.00,A,3206.21423,N,03448.28388,E,15.055,2.0,030416,,,A*63
$GPGGA,081726.00,3206.21584,N,03448.28497,E,1,08,0.00,15.8,M,,,,*37
$GPRMC,081726.00,A,3206.21584,N,03448.28497,E,14.995,2.0,030416,,,A*60
$GPGGA,081728.00,3206.21793,N,03448.28637,E,1,08,0.00,15.8,M,,,,*35
$GPRMC,081728.00,A,3206.21793,N,03448.28637,E,14.940,2.0,030416,,,A*6A
$GPGGA,081730.00,3206.21861,N,03448.28683,E,1,08,0.00,16.3,M,,,,*39
$GPRMC,081730.00,A,3206.21861,N,03448.28683,E,14.872,2.0,030416,,,A*6E
$GPGGA,081732.00,3206.22322,N,03448.28114,E,1,08,0.00,15.6,M,,,,*3B
$GPRMC,081732.00,A,3206.22322,N,03448.28114,E,14.824,2.0,030416,,,A*69
$GPGGA,081733.00,3206.22322,N,03448.28114,E,1,08,0.00,15.5,M,,,,*39
$GPRMC,081733.00,A,3206.22322,N,03448.28114,E,14.786,2.0,030416,,,A*6F
$GPGGA,081735.00,3206.22387,N,03448.28338,E,1,08,0.00,15.1,M,,,,*38
$GPRMC,081735.00,A,3206.22387,N,03448.28338,E,14.723,1.3,030416,,,A*65
$GPGGA,081737.00,3206.22141,N,03448.28093,E,1,08,0.00,17.6,M,,,,*35
$GPRMC,081737.00,A,3206.22141,N,03448.28093,E,14.623,1.3,030416,,,A*6C
$GPGGA,081739.00,3206.22141,N,03448.28093,E,1,08,0.00,16.8,M,,,,*34
$GPRMC,081739.00,A,3206.22141,N,03448.28093,E,14.551,1.3,030416,,,A*64
$GPGGA,081741.00,3206.22041,N,03448.27851,E,1,08,0.00,18.2,M,,,,*37
$GPRMC,081741.00,A,3206.22041,N,03448.27851,E,14.466,1.3,030416,,,A*66
$GPGGA,081742.00,3206.22060,N,03448.27919,E,1,08,0.00,17.6,M,,,,*31
$GPRMC,081742.00,A,3206.22060,N,03448.27919,E,14.433,1.3,030416,,,A*6B
$GPGGA,081744.00,3206.22195,N,03448.28064,E,1,08,0.00,17.2,M,,,,*34
$GPRMC,081744.00,A,3206.22195,N,03448.28064,E,14.378,2.3,030416,,,A*61
$GPGGA,081745.00,3206.22234,N,03448.28075,E,1,08,0.00,16.9,M,,,,*37
$GPRMC,081745.00,A,3206.22234,N,03448.28075,E,14.346,0.9,030416,,,A*6D
$GPGGA,081746.00,3206.22234,N,03448.28075,E,1,08,0.00,16.9,M,,,,*34
$GPRMC,081746.00,A,3206.22234,N,03448.28075,E,14.311,0.9,030416,,,A*6C
$GPGGA,081748.00,3206.22234,N,03448.28075,E,1,08,0.00,16.7,M,,,,*34
$GPRMC,081748.00,A,3206.22234,N,03448.28075,E,14.242,0.9,030416,,,A*65
$GPGGA,081750.00,3206.22339,N,03448.28201,E,1,08,0.00,17.2,M,,,,*34
$GPRMC,081750.00,A,3206.22339,N,03448.28201,E,14.185,0.9,030416,,,A*69
$GPGGA,081751.00,3206.22352,N,03448.28195,E,1,08,0.00,18.8,M,,,,*33
$GPRMC,081751.00,A,3206.22352,N,03448.28195,E,14.151,0.9,030416,,,A*62
$GPGGA,081753.00,3206.22352,N,03448.28195,E,1,08,0.00,18.5,M,,,,*3C
$GPRMC,081753.00,A,3206.22352,N,03448.28195,E,14.084,0.9,030416,,,A*69
$GPGGA,081755.00,3206.22320,N,03448.28207,E,1,08,0.00,18.3,M,,,,*31
$GPRMC,081755.00,A,3206.22320,N,03448.28207,E,14.015,0.9,030416,,,A*6A
$GPGGA,081756.00,3206.22320,N,03448.28207,E,1,08,0.00,18.4,M,,,,*35
$GPRMC,081756.00,A,3206.22320,N,03448.28207,E,13.981,0.9,030416,,,A*6A
$GPGGA,081757.00,3206.22378,N,03448.28224,E,1,08,0.00,18.4,M,,,,*38
$GPRMC,081757.00,A,3206.22378,N,03448.28224,E,13.953,0.9,030416,,,A*68
$GPGGA,081758.00,3206.22382,N,03448.28255,E,1,08,0.00,18.0,M,,,,*30
$GPRMC,081758.00,A,3206.22382,N,03448.28255,E,13.921,0.9,030416,,,A*61
$GPGGA,081800.00,3206.22382,N,03448.28255,E,1,08,0.00,18.3,M,,,,*31
$GPRMC,081800.00,A,3206.22382,N,03448.28255,E,13.855,0.9,030416,,,A*61
$GPGGA,081802.00,3206.22382,N,03448.28255,E,1,08,0.00,18.4,M,,,,*34
$GPRMC,081802.00,A,3206.22382,N,03448.28255,E,13.791,0.9,030416,,,A*64
$GPGGA,081803.00,3206.22382,N,03448.28255,E,1,08,0.00,18.7,M,,,,*36
$GPRMC,081803.00,A,3206.22382,N,03448.28255,E,13.759,0.9,030416,,,A*61
$GPGGA,081804.00,3206.22382,N,03448.28255,E,1,08,0.00,18.7,M,,,,*31
$GPRMC,081804.00,A,3206.22382,N,03448.28255,E,13.727,0.9,030416,,,A*6F
$GPGGA,081805.00,3206.22382,N,03448.28255,E,1,08,0.00,18.8,M,,,,*3F
$GPRMC,081805.00,A,3206.22382,N,03448.28255,E,13.695,0.9,030416,,,A*66
$GPGGA,081807.00,3206.22382,N,03448.28255,E,1,08,0.00,17.8,M,,,,*32
$GPRMC,081807.00,A,3206.22382,N,03448.28255,E,13.631,0.9,030416,,,A*6A
$GPGGA,081809.00,3206.22662,N,03448.28211,E,1,08,0.00,17.8,M,,,,*37
$GPRMC,081809.00,A,3206.22662,N,03448.28211,E,13.591,0.9,030416,,,A*66
$GPGGA,081810.00,3206.22678,N,03448.28144,E,1,08,0.00,16.9,M,,,,*37
$GPRMC,081810.00,A,3206.22678,N,03448.28144,E,13.559,0.9,030416,,,A*62
$GPGGA,081811.00,3206.22678,N,03448.28144,E,1,08,0.00,16.7,M,,,,*38
$GPRMC,081811.00,A,3206.22678,N,03448.28144,E,13.528,0.9,030416,,,A*65
$GPGGA,081812.00,3206.22678,N,03448.28144,E,1,08,0.00,17.1,M,,,,*3C
$GPRMC,081812.00,A,3206.22678,N,03448.28144,E,13.497,0.9,030416,,,A*63
$GPGGA,081814.00,3206.22786,N,03448.28031,E,1,08,0.00,16.9,M,,,,*30
$GPRMC,081814.00,A,3206.22786,N,03448.28031,E,13.441,0.9,030416,,,A*6D
$GPGGA,081816.00,3206.22495,N,03448.27922,E,1,08,0.00,13.7,M,,,,*3C
$GPRMC,081816.00,A,3206.22495,N,03448.27922,E,13.356,358.5,030416,,,A*69
$GPGGA,081818.00,3206.22328,N,03448.27886,E,1,08,0.00,13.7,M,,,,*3C
$GPRMC,081818.00,A,3206.22328,N,03448.27886,E,13.282,3.7,030416,,,A*6E
$GPGGA,081819.00,3206.22195,N,03448.27904,E,1,08,0.00,19.3,M,,,,*3C
$GPRMC,081819.00,A,3206.22195,N,03448.27904,E,13.242,2.3,030416,,,A*69
$GPGGA,081821.00,3206.22012,N,03448.27857,E,1,08,0.00,16.9,M,,,,*3B
$GPRMC,081821.00,A,3206.22012,N,03448.27857,E,13.168,5.6,030416,,,A*62
$GPGGA,081823.00,3206.21971,N,03448.27848,E,1,08,0.00,19.0,M,,,,*3E
$GPRMC,081823.00,A,3206.21971,N,03448.27848,E,13.105,6.9,030416,,,A*66
$GPGGA,081825.00,3206.22075,N,03448.27867,E,1,08,0.00,25.9,M,,,,*3D
$GPRMC,081825.00,A,3206.22075,N,03448.27867,E,13.056,5.6,030416,,,A*68
$GPGGA,081826.00,3206.22075,N,03448.27867,E,1,08,0.00,24.3,M,,,,*35
$GPRMC,081826.00,A,3206.22075,N,03448.27867,E,13.027,6.7,030416,,,A*6F
$GPGGA,081828.00,3206.22281,N,03448.27988,E,1,08,0.00,25.8,M,,,,*38
$GPRMC,081828.00,A,3206.22281,N,03448.27988,E,12.987,3.6,030416,,,A*6E
$GPGGA,081829.00,3206.22364,N,03448.28003,E,1,08,0.00,23.5,M,,,,*3D
$GPRMC,081829.00,A,3206.22364,N,03448.28003,E,12.965,3.7,030416,,,A*6D
$GPGGA,081831.00,3206.22760,N,03448.28168,E,1,08,0.00,22.3,M,,,,*3F
$GPRMC,081831.00,A,3206.22760,N,03448.28168,E,12.942,352.3,030416,,,A*6E
$GPGGA,081832.00,3206.23155,N,03448.28431,E,1,08,0.00,20.8,M,,,,*3D
$GPRMC,081832.00,A,3206.23155,N,03448.28431,E,12.948,350.2,030416,,,A*6C
$GPGGA,081833.00,3206.23513,N,03448.28683,E,1,08,0.00,21.2,M,,,,*3A
$GPRMC,081833.00,A,3206.23513,N,03448.28683,E,12.951,0.9,030416,,,A*65
$GPGGA,081835.00,3206.24130,N,03448.29191,E,1,08,0.00,22.3,M,,,,*39
$GPRMC,081835.00,A,3206.24130,N,03448.29191,E,12.951,9.2,030416,,,A*66
$GPGGA,081837.00,3206.24073,N,03448.30847,E,1,08,0.00,20.8,M,,,,*3E
$GPRMC,081837.00,A,3206.24073,N,03448.30847,E,12.924,8.6,030416,,,A*6F
$GPGGA,081839.00,3206.24692,N,03448.31263,E,1,08,0.00,19.0,M,,,,*36
$GPRMC,081839.00,A,3206.24692,N,03448.31263,E,12.922,8.6,030416,,,A*63
$GPGGA,081840.00,3206.25658,N,03448.31912,E,1,08,0.00,18.3,M,,,,*30
$GPRMC,081840.00,A,3206.25658,N,03448.31912,E,12.978,6.1,030416,,,A*61
$GPGGA,081842.00,3206.26290,N,03448.32337,E,1,08,0.00,17.9,M,,,,*3A
$GPRMC,081842.00,A,3206.26290,N,03448.32337,E,12.978,7.1,030416,,,A*6F
$GPGGA,081843.00,3206.26482,N,03448.32466,E,1,08,0.00,18.8,M,,,,*33
$GPRMC,081843.00,A,3206.26482,N,03448.32466,E,12.967,7.1,030416,,,A*66
$GPGGA,081844.00,3206.26718,N,03448.32625,E,1,08,0.00,19.7,M,,,,*3F
$GPRMC,081844.00,A,3206.26718,N,03448.32625,E,12.959,7.1,030416,,,A*69
$GPGGA,081846.00,3206.27518,N,03448.33163,E,1,08,0.00,22.1,M,,,,*34
$GPRMC,081846.00,A,3206.27518,N,03448.33163,E,12.973,4.9,030416,,,A*6F
$GPGGA,081848.00,3206.28222,N,03448.33635,E,1,08,0.00,22.4,M,,,,*3A
$GPRMC,081848.00,A,3206.28222,N,03448.33635,E,12.979,1.3,030416,,,A*61
$GPGGA,081850.00,3206.29346,N,03448.33714,E,1,08,0.00,20.1,M,,,,*34
$GPRMC,081850.00,A,3206.29346,N,03448.33714,E,13.007,5.4,030416,,,A*6A
$GPGGA,081852.00,3206.30121,N,03448.34234,E,1,08,0.00,23.0,M,,,,*3F
$GPRMC,081852.00,A,3206.30121,N,03448.34234,E,13.018,4.2,030416,,,A*6A
$GPGGA,081853.00,3206.30528,N,03448.34508,E,1,08,0.00,22.0,M,,,,*3A
$GPRMC,081853.00,A,3206.30528,N,03448.34508,E,13.026,6.7,030416,,,A*64
$GPGGA,081855.00,3206.31622,N,03448.35243,E,1,08,0.00,22.2,M,,,,*3F
$GPRMC,081855.00,A,3206.31622,N,03448.35243,E,13.064,358.7,030416,,,A*6D
$GPGGA,081856.00,3206.32082,N,03448.35553,E,1,08,0.00,20.7,M,,,,*32
$GPRMC,081856.00,A,3206.32082,N,03448.35553,E,13.075,13.2,030416,,,A*5E
$GPGGA,081858.00,3206.32681,N,03448.35956,E,1,08,0.00,20.7,M,,,,*30
$GPRMC,081858.00,A,3206.32681,N,03448.35956,E,13.072,2.2,030416,,,A*6B
$GPGGA,081859.00,3206.33268,N,03448.36350,E,1,08,0.00,19.0,M,,,,*31
$GPRMC,081859.00,A,3206.33268,N,03448.36350,E,13.094,2.2,030416,,,A*6F
$GPGGA,081901.00,3206.34207,N,03448.36981,E,1,08,0.00,17.1,M,,,,*3A
$GPRMC,081901.00,A,3206.34207,N,03448.36981,E,13.119,3.2,030416,,,A*6E
$GPGGA,081902.00,3206.34676,N,03448.37297,E,1,08,0.00,18.9,M,,,,*31
$GPRMC,081902.00,A,3206.34676,N,03448.37297,E,13.130,3.2,030416,,,A*69
$GPGGA,081904.00,3206.35297,N,03448.37714,E,1,08,0.00,17.4,M,,,,*31
$GPRMC,081904.00,A,3206.35297,N,03448.37714,E,13.129,3.0,030416,,,A*61
$GPGGA,081906.00,3206.36344,N,03448.38418,E,1,08,0.00,15.7,M,,,,*3E
$GPRMC,081906.00,A,3206.36344,N,03448.38418,E,13.162,7.1,030416,,,A*65
$GPGGA,081908.00,3206.37388,N,03448.39119,E,1,08,0.00,14.7,M,,,,*35
$GPRMC,081908.00,A,3206.37388,N,03448.39119,E,13.194,6.0,030416,,,A*66
$GPGGA,081909.00,3206.37937,N,03448.39528,E,1,08,0.00,14.7,M,,,,*3C
$GPRMC,081909.00,A,3206.37937,N,03448.39528,E,13.213,9.4,030416,,,A*68
$GPGGA,081911.00,3206.39099,N,03448.40593,E,1,08,0.00,11.6,M,,,,*3C
$GPRMC,081911.00,A,3206.39099,N,03448.40593,E,13.261,13.1,030416,,,A*57
$GPGGA,081913.00,3206.39826,N,03448.41375,E,1,08,0.00,10.1,M,,,,*3B
$GPRMC,081913.00,A,3206.39826,N,03448.41375,E,13.273,12.1,030416,,,A*54
$GPGGA,081915.00,3206.40677,N,03448.42007,E,1,08,0.00,10.1,M,,,,*3C
$GPRMC,081915.00,A,3206.40677,N,03448.42007,E,13.290,14.4,030416,,,A*5D
$GPGGA,081924.00,3206.43793,N,03448.45985,E,1,08,0.00,10.1,M,,,,*32
$GPRMC,081924.00,A,3206.43793,N,03448.45985,E,13.344,17.9,030416,,,A*55
$GPGGA,081925.00,3206.45176,N,03448.47615,E,1,08,0.00,13.3,M,,,,*3D
$GPRMC,081925.00,A,3206.45176,N,03448.47615,E,13.441,23.8,030416,,,A*5F
$GPGGA,081926.00,3206.45313,N,03448.48748,E,1,08,0.00,13.4,M,,,,*3E
$GPRMC,081926.00,A,3206.45313,N,03448.48748,E,13.446,25.2,030416,,,A*50
$GPGGA,081928.00,3206.45622,N,03448.49802,E,1,08,0.00,18.1,M,,,,*39
$GPRMC,081928.00,A,3206.45622,N,03448.49802,E,13.436,22.6,030416,,,A*5D
$GPGGA,081930.00,3206.46114,N,03448.51273,E,1,08,0.00,18.4,M,,,,*31
$GPRMC,081930.00,A,3206.46114,N,03448.51273,E,13.446,23.7,030416,,,A*57
$GPGGA,081931.00,3206.46318,N,03448.51861,E,1,08,0.00,17.2,M,,,,*3E
$GPRMC,081931.00,A,3206.46318,N,03448.51861,E,13.445,43.1,030416,,,A*52
$GPGGA,081933.00,3206.46615,N,03448.52663,E,1,08,0.00,16.2,M,,,,*3A
$GPRMC,081933.00,A,3206.46615,N,03448.52663,E,13.430,57.1,030416,,,A*50
$GPGGA,081934.00,3206.46607,N,03448.53299,E,1,08,0.00,16.1,M,,,,*3D
$GPRMC,081934.00,A,3206.46607,N,03448.53299,E,13.416,55.8,030416,,,A*5B
$GPGGA,081935.00,3206.46778,N,03448.54068,E,1,08,0.00,17.2,M,,,,*3C
$GPRMC,081935.00,A,3206.46778,N,03448.54068,E,13.418,59.4,030416,,,A*56
$GPGGA,081937.00,3206.46986,N,03448.55255,E,1,08,0.00,15.7,M,,,,*3B
$GPRMC,081937.00,A,3206.46986,N,03448.55255,E,13.405,55.3,030416,,,A*51
$GPGGA,081938.00,3206.47207,N,03448.56107,E,1,08,0.00,16.5,M,,,,*31
$GPRMC,081938.00,A,3206.47207,N,03448.56107,E,13.412,57.7,030416,,,A*5A
$GPGGA,081939.00,3206.47293,N,03448.56504,E,1,08,0.00,13.4,M,,,,*3E
$GPRMC,081939.00,A,3206.47293,N,03448.56504,E,13.400,55.5,030416,,,A*52
$GPGGA,081940.00,3206.47504,N,03448.57302,E,1,08,0.00,14.8,M,,,,*33
$GPRMC,081940.00,A,3206.47504,N,03448.57302,E,13.405,53.4,030416,,,A*56
$GPGGA,081942.00,3206.47771,N,03448.58616,E,1,08,0.00,16.8,M,,,,*3C
$GPRMC,081942.00,A,3206.47771,N,03448.58616,E,13.400,56.5,030416,,,A*5A
$GPGGA,081944.00,3206.48062,N,03448.59573,E,1,08,0.00,16.2,M,,,,*3B
$GPRMC,081944.00,A,3206.48062,N,03448.59573,E,13.388,61.1,030416,,,A*50
$GPGGA,081946.00,3206.48235,N,03448.60904,E,1,08,0.00,17.4,M,,,,*38
$GPRMC,081946.00,A,3206.48235,N,03448.60904,E,13.378,70.6,030416,,,A*5C
$GPGGA,081947.00,3206.48202,N,03448.61511,E,1,08,0.00,18.2,M,,,,*3D
$GPRMC,081947.00,A,3206.48202,N,03448.61511,E,13.364,80.1,030416,,,A*55
$GPGGA,081949.00,3206.48254,N,03448.62891,E,1,08,0.00,21.0,M,,,,*3E
$GPRMC,081949.00,A,3206.48254,N,03448.62891,E,13.347,60.5,030416,,,A*55
$GPGGA,081950.00,3206.48296,N,03448.63522,E,1,08,0.00,21.5,M,,,,*39
$GPRMC,081950.00,A,3206.48296,N,03448.63522,E,13.339,46.4,030416,,,A*5B
$GPGGA,081952.00,3206.48332,N,03448.64839,E,1,08,0.00,20.1,M,,,,*31
$GPRMC,081952.00,A,3206.48332,N,03448.64839,E,13.321,54.7,030416,,,A*5F
$GPGGA,081954.00,3206.48258,N,03448.66098,E,1,08,0.00,19.5,M,,,,*35
$GPRMC,081954.00,A,3206.48258,N,03448.66098,E,13.296,60.2,030416,,,A*5A
$GPGGA,081955.00,3206.48175,N,03448.66711,E,1,08,0.00,19.7,M,,,,*3C
$GPRMC,081955.00,A,3206.48175,N,03448.66711,E,13.280,54.1,030416,,,A*52
$GPGGA,081956.00,3206.48043,N,03448.67408,E,1,08,0.00,20.2,M,,,,*3E
$GPRMC,081956.00,A,3206.48043,N,03448.67408,E,13.263,52.9,030416,,,A*5C
$GPGGA,081958.00,3206.48002,N,03448.68610,E,1,08,0.00,21.9,M,,,,*3B
$GPRMC,081958.00,A,3206.48002,N,03448.68610,E,13.239,64.3,030416,,,A*53
$GPGGA,082000.00,3206.47809,N,03448.69982,E,1,08,0.00,21.2,M,,,,*3E
$GPRMC,082000.00,A,3206.47809,N,03448.69982,E,13.211,65.7,030416,,,A*52
$GPGGA,082002.00,3206.47570,N,03448.71229,E,1,08,0.00,21.3,M,,,,*3D
$GPRMC,082002.00,A,3206.47570,N,03448.71229,E,13.177,70.9,030416,,,A*59
$GPGGA,082004.00,3206.47451,N,03448.72268,E,1,08,0.00,20.3,M,,,,*3E
$GPRMC,082004.00,A,3206.47451,N,03448.72268,E,13.147,74.4,030416,,,A*51
$GPGGA,082005.00,3206.46997,N,03448.72969,E,1,08,0.00,20.4,M,,,,*34
$GPRMC,082005.00,A,3206.46997,N,03448.72969,E,13.113,67.0,030416,,,A*5B
$GPGGA,082007.00,3206.46729,N,03448.74191,E,1,08,0.00,24.2,M,,,,*36
$GPRMC,082007.00,A,3206.46729,N,03448.74191,E,13.078,75.2,030416,,,A*56
$GPGGA,082009.00,3206.46139,N,03448.75319,E,1,08,0.00,23.3,M,,,,*3A
$GPRMC,082009.00,A,3206.46139,N,03448.75319,E,13.024,74.6,030416,,,A*50
$GPGGA,082010.00,3206.45875,N,03448.75899,E,1,08,0.00,23.5,M,,,,*35
$GPRMC,082010.00,A,3206.45875,N,03448.75899,E,12.999,93.9,030416,,,A*51
$GPGGA,082012.00,3206.45224,N,03448.76969,E,1,08,0.00,24.3,M,,,,*35
$GPRMC,082012.00,A,3206.45224,N,03448.76969,E,12.941,89.5,030416,,,A*52
$GPGGA,082014.00,3206.44509,N,03448.78026,E,1,08,0.00,24.7,M,,,,*32
$GPRMC,082014.00,A,3206.44509,N,03448.78026,E,12.879,91.5,030416,,,A*52
$GPGGA,082015.00,3206.44044,N,03448.78659,E,1,08,0.00,24.5,M,,,,*33
$GPRMC,082015.00,A,3206.44044,N,03448.78659,E,12.845,100.5,030416,,,A*67
$GPGGA,082017.00,3206.42208,N,03448.78463,E,1,08,0.00,25.9,M,,,,*3B
$GPRMC,082017.00,A,3206.42208,N,03448.78463,E,12.690,102.0,030416,,,A*63
$GPGGA,082019.00,3206.41239,N,03448.79741,E,1,08,0.00,26.0,M,,,,*3C
$GPRMC,082019.00,A,3206.41239,N,03448.79741,E,12.622,81.7,030416,,,A*5A
$GPGGA,082020.00,3206.40651,N,03448.80543,E,1,08,0.00,25.3,M,,,,*3B
$GPRMC,082020.00,A,3206.40651,N,03448.80543,E,12.585,77.7,030416,,,A*5A
$GPGGA,082022.00,3206.39800,N,03448.81733,E,1,08,0.00,27.5,M,,,,*3D
$GPRMC,082022.00,A,3206.39800,N,03448.81733,E,12.524,91.7,030416,,,A*5B
$GPGGA,082024.00,3206.39738,N,03448.81999,E,1,08,0.00,26.3,M,,,,*36
$GPRMC,082024.00,A,3206.39738,N,03448.81999,E,12.483,87.5,030416,,,A*5E
$GPGGA,082025.00,3206.39658,N,03448.82132,E,1,08,0.00,26.9,M,,,,*30
$GPRMC,082025.00,A,3206.39658,N,03448.82132,E,12.460,92.5,030416,,,A*5B
$GPGGA,082027.00,3206.38742,N,03448.81773,E,1,08,0.00,26.0,M,,,,*30
$GPRMC,082027.00,A,3206.38742,N,03448.81773,E,12.357,82.9,030416,,,A*5C
$GPGGA,082028.00,3206.37318,N,03448.87368,E,1,08,0.00,26.5,M,,,,*36
$GPRMC,082028.00,A,3206.37318,N,03448.87368,E,12.402,86.3,030416,,,A*56
$GPGGA,082030.00,3206.36157,N,03448.88943,E,1,08,0.00,25.7,M,,,,*3A
$GPRMC,082030.00,A,3206.36157,N,03448.88943,E,12.337,83.0,030416,,,A*5C
$GPGGA,082032.00,3206.35074,N,03448.90486,E,1,08,0.00,25.2,M,,,,*33
$GPRMC,082032.00,A,3206.35074,N,03448.90486,E,12.278,85.3,030416,,,A*5F
$GPGGA,082034.00,3206.33908,N,03448.92335,E,1,08,0.00,26.0,M,,,,*3D
$GPRMC,082034.00,A,3206.33908,N,03448.92335,E,12.223,91.0,030416,,,A*58
$GPGGA,082036.00,3206.31864,N,03448.92846,E,1,08,0.00,24.2,M,,,,*39
$GPRMC,082036.00,A,3206.31864,N,03448.92846,E,12.088,92.0,030416,,,A*5C
$GPGGA,082037.00,3206.31305,N,03448.93656,E,1,08,0.00,23.4,M,,,,*3B
$GPRMC,082037.00,A,3206.31305,N,03448.93656,E,12.060,94.5,030416,,,A*5A
$GPGGA,082038.00,3206.30601,N,03448.94674,E,1,08,0.00,23.9,M,,,,*3E
$GPRMC,082038.00,A,3206.30601,N,03448.94674,E,12.030,94.5,030416,,,A*57
$GPGGA,082040.00,3206.29263,N,03448.96605,E,1,08,0.00,24.0,M,,,,*33
$GPRMC,082040.00,A,3206.29263,N,03448.96605,E,11.974,90.7,030416,,,A*58
$GPGGA,082041.00,3206.28477,N,03448.98060,E,1,08,0.00,25.1,M,,,,*3B
$GPRMC,082041.00,A,3206.28477,N,03448.98060,E,11.955,88.4,030416,,,A*59
$GPGGA,082043.00,3206.27466,N,03449.00012,E,1,08,0.00,24.5,M,,,,*36
$GPRMC,082043.00,A,3206.27466,N,03449.00012,E,11.919,88.4,030416,,,A*59
$GPGGA,082044.00,3206.27151,N,03449.00643,E,1,08,0.00,24.6,M,,,,*31
$GPRMC,082044.00,A,3206.27151,N,03449.00643,E,11.900,91.4,030416,,,A*5D
$GPGGA,082045.00,3206.26963,N,03449.01027,E,1,08,0.00,24.5,M,,,,*3E
$GPRMC,082045.00,A,3206.26963,N,03449.01027,E,11.881,89.2,030416,,,A*56
$GPGGA,082047.00,3206.26329,N,03449.02324,E,1,08,0.00,24.6,M,,,,*38
$GPRMC,082047.00,A,3206.26329,N,03449.02324,E,11.849,89.3,030416,,,A*56
$GPGGA,082048.00,3206.25636,N,03449.03875,E,1,08,0.00,24.8,M,,,,*3F
$GPRMC,082048.00,A,3206.25636,N,03449.03875,E,11.839,88.2,030416,,,A*58
$GPGGA,082049.00,3206.25024,N,03449.05548,E,1,08,0.00,24.8,M,,,,*3E
$GPRMC,082049.00,A,3206.25024,N,03449.05548,E,11.838,85.5,030416,,,A*52
$GPGGA,082051.00,3206.24275,N,03449.07834,E,1,08,0.00,25.7,M,,,,*3A
$GPRMC,082051.00,A,3206.24275,N,03449.07834,E,11.831,82.0,030416,,,A*53
$GPGGA,082052.00,3206.23833,N,03449.09196,E,1,08,0.00,25.4,M,,,,*3A
$GPRMC,082052.00,A,3206.23833,N,03449.09196,E,11.830,82.3,030416,,,A*52
$GPGGA,082054.00,3206.23025,N,03449.11680,E,1,08,0.00,24.8,M,,,,*37
$GPRMC,082054.00,A,3206.23025,N,03449.11680,E,11.828,81.3,030416,,,A*58
$GPGGA,082056.00,3206.22309,N,03449.13884,E,1,08,0.00,25.0,M,,,,*38
$GPRMC,082056.00,A,3206.22309,N,03449.13884,E,11.822,80.2,030416,,,A*54
$GPGGA,082057.00,3206.21987,N,03449.14875,E,1,08,0.00,26.0,M,,,,*3C
$GPRMC,082057.00,A,3206.21987,N,03449.14875,E,11.818,76.6,030416,,,A*57
$GPGGA,082059.00,3206.21302,N,03449.16981,E,1,08,0.00,26.0,M,,,,*3D
$GPRMC,082059.00,A,3206.21302,N,03449.16981,E,11.812,73.9,030416,,,A*56
$GPGGA,082101.00,3206.20570,N,03449.19236,E,1,08,0.00,26.9,M,,,,*32
$GPRMC,082101.00,A,3206.20570,N,03449.19236,E,11.810,71.1,030416,,,A*58
$GPGGA,082103.00,3206.19906,N,03449.21280,E,1,08,0.00,28.2,M,,,,*34
$GPRMC,082103.00,A,3206.19906,N,03449.21280,E,11.806,66.7,030416,,,A*5C
$GPGGA,082104.00,3206.19540,N,03449.22279,E,1,08,0.00,28.4,M,,,,*3E
$GPRMC,082104.00,A,3206.19540,N,03449.22279,E,11.802,63.4,030416,,,A*52
$GPGGA,082105.00,3206.19117,N,03449.23263,E,1,08,0.00,30.6,M,,,,*38
$GPRMC,082105.00,A,3206.19117,N,03449.23263,E,11.794,70.7,030416,,,A*5E
$GPGGA,082107.00,3206.18123,N,03449.25274,E,1,08,0.00,33.5,M,,,,*3C
$GPRMC,082107.00,A,3206.18123,N,03449.25274,E,11.776,73.4,030416,,,A*56
$GPGGA,082108.00,3206.17631,N,03449.26198,E,1,08,0.00,34.0,M,,,,*38
$GPRMC,082108.00,A,3206.17631,N,03449.26198,E,11.765,72.2,030416,,,A*55
$GPGGA,082110.00,3206.16729,N,03449.29205,E,1,08,0.00,34.8,M,,,,*38
$GPRMC,082110.00,A,3206.16729,N,03449.29205,E,11.785,71.2,030416,,,A*50
$GPGGA,082111.00,3206.16914,N,03449.30337,E,1,08,0.00,35.1,M,,,,*39
$GPRMC,082111.00,A,3206.16914,N,03449.30337,E,11.811,71.2,030416,,,A*5B
$GPGGA,082112.00,3206.17069,N,03449.30766,E,1,08,0.00,36.0,M,,,,*3A
$GPRMC,082112.00,A,3206.17069,N,03449.30766,E,11.813,72.3,030416,,,A*5A
$GPGGA,082114.00,3206.20240,N,03449.34497,E,1,08,0.00,36.5,M,,,,*3D
$GPRMC,082114.00,A,3206.20240,N,03449.34497,E,12.035,61.7,030416,,,A*51
$GPGGA,082115.00,3206.19981,N,03449.35581,E,1,08,0.00,36.3,M,,,,*31
$GPRMC,082115.00,A,3206.19981,N,03449.35581,E,12.040,57.9,030416,,,A*52
$GPGGA,082117.00,3206.19728,N,03449.38051,E,1,08,0.00,35.9,M,,,,*32
$GPRMC,082117.00,A,3206.19728,N,03449.38051,E,12.072,58.9,030416,,,A*56
$GPGGA,082119.00,3206.20130,N,03449.40507,E,1,08,0.00,32.0,M,,,,*3E
$GPRMC,082119.00,A,3206.20130,N,03449.40507,E,12.132,69.2,030416,,,A*58
$GPGGA,082120.00,3206.20049,N,03449.41675,E,1,08,0.00,30.9,M,,,,*37
$GPRMC,082120.00,A,3206.20049,N,03449.41675,E,12.148,68.1,030416,,,A*55
$GPGGA,082122.00,3206.20156,N,03449.43938,E,1,08,0.00,27.3,M,,,,*32
$GPRMC,082122.00,A,3206.20156,N,03449.43938,E,12.189,72.5,030416,,,A*5E
$GPGGA,082124.00,3206.19982,N,03449.46222,E,1,08,0.00,25.4,M,,,,*3F
$GPRMC,082124.00,A,3206.19982,N,03449.46222,E,12.219,75.1,030416,,,A*5F
$GPGGA,082126.00,3206.19557,N,03449.48535,E,1,08,0.00,23.9,M,,,,*3D
$GPRMC,082126.00,A,3206.19557,N,03449.48535,E,12.241,73.0,030416,,,A*5C
$GPGGA,082127.00,3206.19453,N,03449.49723,E,1,08,0.00,24.2,M,,,,*31
$GPRMC,082127.00,A,3206.19453,N,03449.49723,E,12.257,75.9,030416,,,A*54
$GPGGA,082128.00,3206.19541,N,03449.50992,E,1,08,0.00,25.5,M,,,,*36
$GPRMC,082128.00,A,3206.19541,N,03449.50992,E,12.284,74.9,030416,,,A*5A
$GPGGA,082130.00,3206.19286,N,03449.53172,E,1,08,0.00,23.9,M,,,,*3C
$GPRMC,082130.00,A,3206.19286,N,03449.53172,E,12.309,70.5,030416,,,A*56
$GPGGA,082131.00,3206.19325,N,03449.54294,E,1,08,0.00,24.1,M,,,,*36
$GPRMC,082131.00,A,3206.19325,N,03449.54294,E,12.330,74.1,030416,,,A*59
$GPGGA,082133.00,3206.19219,N,03449.56484,E,1,08,0.00,21.9,M,,,,*32
$GPRMC,082133.00,A,3206.19219,N,03449.56484,E,12.361,74.7,030416,,,A*52
$GPGGA,082135.00,3206.19279,N,03449.58995,E,1,08,0.00,21.9,M,,,,*31
$GPRMC,082135.00,A,3206.19279,N,03449.58995,E,12.411,77.8,030416,,,A*5D
$GPGGA,082136.00,3206.19313,N,03449.60048,E,1,08,0.00,15.4,M,,,,*37
$GPRMC,082136.00,A,3206.19313,N,03449.60048,E,12.429,74.0,030416,,,A*51
$GPGGA,082138.00,3206.19298,N,03449.62243,E,1,08,0.00,10.0,M,,,,*31
$GPRMC,082138.00,A,3206.19298,N,03449.62243,E,12.465,77.8,030416,,,A*55
$GPGGA,082140.00,3206.19069,N,03449.64306,E,1,08,0.00,8.5,M,,,,*08
$GPRMC,082140.00,A,3206.19069,N,03449.64306,E,12.488,73.8,030416,,,A*57
$GPGGA,082142.00,3206.18805,N,03449.66160,E,1,08,0.00,7.7,M,,,,*04
$GPRMC,082142.00,A,3206.18805,N,03449.66160,E,12.503,81.2,030416,,,A*53
$GPGGA,082144.00,3206.18687,N,03449.68026,E,1,08,0.00,7.8,M,,,,*04
$GPRMC,082144.00,A,3206.18687,N,03449.68026,E,12.525,78.1,030416,,,A*5D
$GPGGA,082146.00,3206.18259,N,03449.69952,E,1,08,0.00,10.0,M,,,,*34
$GPRMC,082146.00,A,3206.18259,N,03449.69952,E,12.538,77.1,030416,,,A*50
$GPGGA,082147.00,3206.18150,N,03449.70659,E,1,08,0.00,11.1,M,,,,*33
$GPRMC,082147.00,A,3206.18150,N,03449.70659,E,12.539,75.6,030416,,,A*53
$GPGGA,082149.00,3206.18305,N,03449.71782,E,1,08,0.00,12.2,M,,,,*39
$GPRMC,082149.00,A,3206.18305,N,03449.71782,E,12.545,73.2,030416,,,A*50
$GPGGA,082151.00,3206.18061,N,03449.72975,E,1,08,0.00,11.6,M,,,,*33
$GPRMC,082151.00,A,3206.18061,N,03449.72975,E,12.539,67.8,030416,,,A*59
$GPGGA,082152.00,3206.18112,N,03449.73676,E,1,08,0.00,12.1,M,,,,*3C
$GPRMC,082152.00,A,3206.18112,N,03449.73676,E,12.546,59.8,030416,,,A*57
$GPGGA,082154.00,3206.17933,N,03449.74912,E,1,08,0.00,12.7,M,,,,*32
$GPRMC,082154.00,A,3206.17933,N,03449.74912,E,12.544,75.5,030416,,,A*5E
$GPGGA,082156.00,3206.17776,N,03449.76159,E,1,08,0.00,13.8,M,,,,*34
$GPRMC,082156.00,A,3206.17776,N,03449.76159,E,12.544,68.6,030416,,,A*59
$GPGGA,082158.00,3206.17636,N,03449.77401,E,1,08,0.00,14.0,M,,,,*39
$GPRMC,082158.00,A,3206.17636,N,03449.77401,E,12.544,68.3,030416,,,A*5E
$GPGGA,082200.00,3206.17788,N,03449.78660,E,1,08,0.00,13.5,M,,,,*3B
$GPRMC,082200.00,A,3206.17788,N,03449.78660,E,12.555,68.4,030416,,,A*59
$GPGGA,082202.00,3206.17821,N,03449.79867,E,1,08,0.00,14.0,M,,,,*3F
$GPRMC,082202.00,A,3206.17821,N,03449.79867,E,12.561,67.3,030416,,,A*50
$GPGGA,082203.00,3206.18020,N,03449.80542,E,1,08,0.00,15.1,M,,,,*34
$GPRMC,082203.00,A,3206.18020,N,03449.80542,E,12.573,67.3,030416,,,A*58
$GPGGA,082204.00,3206.17869,N,03449.81179,E,1,08,0.00,14.3,M,,,,*37
$GPRMC,082204.00,A,3206.17869,N,03449.81179,E,12.571,68.3,030416,,,A*55
$GPGGA,082205.00,3206.17753,N,03449.81702,E,1,08,0.00,13.3,M,,,,*3D
$GPRMC,082205.00,A,3206.17753,N,03449.81702,E,12.566,69.4,030416,,,A*58
$GPGGA,082207.00,3206.17867,N,03449.82768,E,1,08,0.00,15.6,M,,,,*3B
$GPRMC,082207.00,A,3206.17867,N,03449.82768,E,12.569,72.8,030416,,,A*54
$GPGGA,082208.00,3206.17657,N,03449.83266,E,1,08,0.00,15.3,M,,,,*36
$GPRMC,082208.00,A,3206.17657,N,03449.83266,E,12.561,70.7,030416,,,A*59
$GPGGA,082209.00,3206.17517,N,03449.83739,E,1,08,0.00,14.8,M,,,,*35
