$GPGGA,142701.00,3144.80388,N,03458.74122,E,1,08,0.00,232.5,M,,,,*01
$GPRMC,142701.00,A,3144.80388,N,03458.74122,E,0.000,304.3,020416,,,A*5B
$GPGGA,142702.00,3144.80605,N,03458.73706,E,1,08,0.00,232.4,M,,,,*04
$GPRMC,142702.00,A,3144.80605,N,03458.73706,E,10.021,280.5,020416,,,A*66
$GPGGA,142704.00,3144.80708,N,03458.73525,E,1,08,0.00,231.8,M,,,,*02
$GPRMC,142704.00,A,3144.80708,N,03458.73525,E,8.086,287.6,020416,,,A*5F
$GPGGA,142705.00,3144.80733,N,03458.73446,E,1,08,0.00,232.1,M,,,,*05
$GPRMC,142705.00,A,3144.80733,N,03458.73446,E,6.571,255.6,020416,,,A*5E
$GPGGA,142706.00,3144.80767,N,03458.73370,E,1,08,0.00,232.8,M,,,,*0C
$GPRMC,142706.00,A,3144.80767,N,03458.73370,E,5.721,276.3,020416,,,A*5E
$GPGGA,142708.00,3144.80865,N,03458.73213,E,1,08,0.00,233.6,M,,,,*04
$GPRMC,142708.00,A,3144.80865,N,03458.73213,E,4.894,292.4,020416,,,A*54
$GPGGA,142709.00,3144.80917,N,03458.73132,E,1,08,0.00,234.4,M,,,,*04
$GPRMC,142709.00,A,3144.80917,N,03458.73132,E,4.653,284.3,020416,,,A*54
$GPGGA,142711.00,3144.80996,N,03458.72943,E,1,08,0.00,235.9,M,,,,*07
$GPRMC,142711.00,A,3144.80996,N,03458.72943,E,4.365,284.3,020416,,,A*5B
$GPGGA,142712.00,3144.81033,N,03458.72854,E,1,08,0.00,235.4,M,,,,*09
$GPRMC,142712.00,A,3144.81033,N,03458.72854,E,4.236,291.7,020416,,,A*5F
$GPGGA,142714.00,3144.81120,N,03458.72697,E,1,08,0.00,234.4,M,,,,*0C
$GPRMC,142714.00,A,3144.81120,N,03458.72697,E,4.021,40.5,020416,,,A*63
$GPGGA,142716.00,3144.81203,N,03458.72539,E,1,08,0.00,235.2,M,,,,*0C
$GPRMC,142716.00,A,3144.81203,N,03458.72539,E,3.867,351.5,020416,,,A*5A
$GPGGA,142717.00,3144.81242,N,03458.72453,E,1,08,0.00,234.6,M,,,,*00
$GPRMC,142717.00,A,3144.81242,N,03458.72453,E,3.808,335.5,020416,,,A*58
$GPGGA,142719.00,3144.81332,N,03458.72268,E,1,08,0.00,234.8,M,,,,*08
$GPRMC,142719.00,A,3144.81332,N,03458.72268,E,3.747,327.6,020416,,,A*5A
$GPGGA,142720.00,3144.81388,N,03458.72166,E,1,08,0.00,235.2,M,,,,*05
$GPRMC,142720.00,A,3144.81388,N,03458.72166,E,3.744,278.8,020416,,,A*5A
$GPGGA,142722.00,3144.81531,N,03458.71992,E,1,08,0.00,233.7,M,,,,*00
$GPRMC,142722.00,A,3144.81531,N,03458.71992,E,3.731,297.6,020416,,,A*51
$GPGGA,142724.00,3144.81671,N,03458.71820,E,1,08,0.00,235.0,M,,,,*08
$GPRMC,142724.00,A,3144.81671,N,03458.71820,E,3.719,351.3,020416,,,A*5C
$GPGGA,142725.00,3144.81725,N,03458.71730,E,1,08,0.00,235.4,M,,,,*03
$GPRMC,142725.00,A,3144.81725,N,03458.71730,E,3.698,14.2,020416,,,A*68
$GPGGA,142726.00,3144.81752,N,03458.71637,E,1,08,0.00,236.2,M,,,,*03
$GPRMC,142726.00,A,3144.81752,N,03458.71637,E,3.662,19.1,020416,,,A*66
$GPGGA,142728.00,3144.81804,N,03458.71448,E,1,08,0.00,233.3,M,,,,*0F
$GPRMC,142728.00,A,3144.81804,N,03458.71448,E,3.620,13.6,020416,,,A*65
$GPGGA,142730.00,3144.81853,N,03458.71246,E,1,08,0.00,233.5,M,,,,*0A
$GPRMC,142730.00,A,3144.81853,N,03458.71246,E,3.582,6.7,020416,,,A*58
$GPGGA,142732.00,3144.81897,N,03458.71068,E,1,08,0.00,232.8,M,,,,*02
$GPRMC,142732.00,A,3144.81897,N,03458.71068,E,3.530,358.3,020416,,,A*59
$GPGGA,142733.00,3144.81943,N,03458.71024,E,1,08,0.00,234.4,M,,,,*09
$GPRMC,142733.00,A,3144.81943,N,03458.71024,E,3.481,13.3,020416,,,A*6F
$GPGGA,142734.00,3144.81959,N,03458.70960,E,1,08,0.00,235.3,M,,,,*0B
$GPRMC,142734.00,A,3144.81959,N,03458.70960,E,3.433,15.5,020416,,,A*62
$GPGGA,142735.00,3144.81954,N,03458.70904,E,1,08,0.00,236.6,M,,,,*03
$GPRMC,142735.00,A,3144.81954,N,03458.70904,E,3.371,24.5,020416,,,A*6F
$GPGGA,142736.00,3144.81956,N,03458.70849,E,1,08,0.00,237.0,M,,,,*0D
$GPRMC,142736.00,A,3144.81956,N,03458.70849,E,3.316,18.1,020416,,,A*6C
$GPGGA,142737.00,3144.81963,N,03458.70796,E,1,08,0.00,236.5,M,,,,*03
$GPRMC,142737.00,A,3144.81963,N,03458.70796,E,3.266,15.5,020416,,,A*69
$GPGGA,142739.00,3144.82010,N,03458.70666,E,1,08,0.00,237.1,M,,,,*08
$GPRMC,142739.00,A,3144.82010,N,03458.70666,E,3.208,357.3,020416,,,A*5C
$GPGGA,142740.00,3144.82068,N,03458.70597,E,1,08,0.00,236.8,M,,,,*0C
$GPRMC,142740.00,A,3144.82068,N,03458.70597,E,3.198,16.2,020416,,,A*6D
$GPGGA,142742.00,3144.82252,N,03458.70458,E,1,08,0.00,235.5,M,,,,*09
$GPRMC,142742.00,A,3144.82252,N,03458.70458,E,3.214,304.3,020416,,,A*50
$GPGGA,142743.00,3144.82362,N,03458.70399,E,1,08,0.00,234.7,M,,,,*03
$GPRMC,142743.00,A,3144.82362,N,03458.70399,E,3.223,328.1,020416,,,A*51
$GPGGA,142745.00,3144.82609,N,03458.70268,E,1,08,0.00,235.2,M,,,,*06
$GPRMC,142745.00,A,3144.82609,N,03458.70268,E,3.263,359.1,020416,,,A*52
$GPGGA,142747.00,3144.82890,N,03458.70123,E,1,08,0.00,233.8,M,,,,*0A
$GPRMC,142747.00,A,3144.82890,N,03458.70123,E,3.328,324.7,020416,,,A*50
$GPGGA,142749.00,3144.83229,N,03458.69982,E,1,08,0.00,232.4,M,,,,*0B
$GPRMC,142749.00,A,3144.83229,N,03458.69982,E,3.416,324.9,020416,,,A*58
$GPGGA,142751.00,3144.83645,N,03458.69794,E,1,08,0.00,234.6,M,,,,*01
$GPRMC,142751.00,A,3144.83645,N,03458.69794,E,3.564,338.2,020416,,,A*54
$GPGGA,142752.00,3144.83850,N,03458.69700,E,1,08,0.00,234.2,M,,,,*01
$GPRMC,142752.00,A,3144.83850,N,03458.69700,E,3.633,345.9,020416,,,A*50
$GPGGA,142753.00,3144.84039,N,03458.69636,E,1,08,0.00,233.2,M,,,,*03
$GPRMC,142753.00,A,3144.84039,N,03458.69636,E,3.680,328.6,020416,,,A*59
$GPGGA,142754.00,3144.84216,N,03458.69574,E,1,08,0.00,233.4,M,,,,*08
$GPRMC,142754.00,A,3144.84216,N,03458.69574,E,3.718,321.1,020416,,,A*5A
$GPGGA,142756.00,3144.84560,N,03458.69489,E,1,08,0.00,236.8,M,,,,*06
$GPRMC,142756.00,A,3144.84560,N,03458.69489,E,3.780,340.1,020416,,,A*5B
$GPGGA,142757.00,3144.84696,N,03458.69457,E,1,08,0.00,238.6,M,,,,*0E
$GPRMC,142757.00,A,3144.84696,N,03458.69457,E,3.788,336.4,020416,,,A*5F
$GPGGA,142759.00,3144.84936,N,03458.69376,E,1,08,0.00,240.0,M,,,,*08
$GPRMC,142759.00,A,3144.84936,N,03458.69376,E,3.798,343.6,020416,,,A*51
$GPGGA,142800.00,3144.85014,N,03458.69359,E,1,08,0.00,239.3,M,,,,*03
$GPRMC,142800.00,A,3144.85014,N,03458.69359,E,3.774,354.3,020416,,,A*56
$GPGGA,142801.00,3144.85043,N,03458.69330,E,1,08,0.00,239.3,M,,,,*0F
$GPRMC,142801.00,A,3144.85043,N,03458.69330,E,3.734,5.1,020416,,,A*5B
$GPGGA,142802.00,3144.85035,N,03458.69328,E,1,08,0.00,239.2,M,,,,*05
$GPRMC,142802.00,A,3144.85035,N,03458.69328,E,3.669,0.4,020416,,,A*59
$GPGGA,142804.00,3144.85017,N,03458.69395,E,1,08,0.00,238.5,M,,,,*03
$GPRMC,142804.00,A,3144.85017,N,03458.69395,E,3.523,32.4,020416,,,A*65
$GPGGA,142805.00,3144.85087,N,03458.69408,E,1,08,0.00,238.6,M,,,,*0B
$GPRMC,142805.00,A,3144.85087,N,03458.69408,E,3.494,19.5,020416,,,A*6B
$GPGGA,142806.00,3144.85020,N,03458.69502,E,1,08,0.00,237.2,M,,,,*05
$GPRMC,142806.00,A,3144.85020,N,03458.69502,E,3.382,24.3,020416,,,A*66
$GPGGA,142808.00,3144.85032,N,03458.69573,E,1,08,0.00,236.3,M,,,,*0E
$GPRMC,142808.00,A,3144.85032,N,03458.69573,E,3.263,1.7,020416,,,A*50
$GPGGA,142810.00,3144.85056,N,03458.69535,E,1,08,0.00,236.5,M,,,,*01
$GPRMC,142810.00,A,3144.85056,N,03458.69535,E,3.191,21.9,020416,,,A*6B
$GPGGA,142812.00,3144.85045,N,03458.69392,E,1,08,0.00,237.7,M,,,,*09
$GPRMC,142812.00,A,3144.85045,N,03458.69392,E,3.136,8.5,020416,,,A*5A
$GPGGA,142813.00,3144.85065,N,03458.69331,E,1,08,0.00,238.2,M,,,,*09
$GPRMC,142813.00,A,3144.85065,N,03458.69331,E,3.117,4.8,020416,,,A*52
$GPGGA,142814.00,3144.85094,N,03458.69270,E,1,08,0.00,235.3,M,,,,*08
$GPRMC,142814.00,A,3144.85094,N,03458.69270,E,3.101,322.2,020416,,,A*55
$GPGGA,142816.00,3144.85211,N,03458.69191,E,1,08,0.00,234.8,M,,,,*03
$GPRMC,142816.00,A,3144.85211,N,03458.69191,E,3.083,305.2,020416,,,A*5A
$GPGGA,142817.00,3144.85290,N,03458.69132,E,1,08,0.00,236.9,M,,,,*01
$GPRMC,142817.00,A,3144.85290,N,03458.69132,E,3.086,320.8,020416,,,A*53
$GPGGA,142819.00,3144.85423,N,03458.69048,E,1,08,0.00,237.5,M,,,,*00
$GPRMC,142819.00,A,3144.85423,N,03458.69048,E,3.074,52.4,020416,,,A*68
$GPGGA,142821.00,3144.85572,N,03458.69004,E,1,08,0.00,237.7,M,,,,*04
$GPRMC,142821.00,A,3144.85572,N,03458.69004,E,3.060,41.2,020416,,,A*6F
$GPGGA,142822.00,3144.85639,N,03458.68986,E,1,08,0.00,238.3,M,,,,*02
$GPRMC,142822.00,A,3144.85639,N,03458.68986,E,3.050,61.2,020416,,,A*63
$GPGGA,142823.00,3144.85700,N,03458.68958,E,1,08,0.00,237.0,M,,,,*07
$GPRMC,142823.00,A,3144.85700,N,03458.68958,E,3.039,57.1,020416,,,A*63
$GPGGA,142824.00,3144.85752,N,03458.68941,E,1,08,0.00,237.1,M,,,,*0E
$GPRMC,142824.00,A,3144.85752,N,03458.68941,E,3.024,66.8,020416,,,A*6C
$GPGGA,142825.00,3144.85812,N,03458.68908,E,1,08,0.00,237.3,M,,,,*0B
$GPRMC,142825.00,A,3144.85812,N,03458.68908,E,3.014,41.7,020416,,,A*62
$GPGGA,142827.00,3144.85914,N,03458.68827,E,1,08,0.00,237.3,M,,,,*02
$GPRMC,142827.00,A,3144.85914,N,03458.68827,E,2.998,52.1,020416,,,A*63
$GPGGA,142828.00,3144.86012,N,03458.68846,E,1,08,0.00,233.5,M,,,,*04
$GPRMC,142828.00,A,3144.86012,N,03458.68846,E,2.990,51.0,020416,,,A*6D
$GPGGA,142830.00,3144.86274,N,03458.68938,E,1,08,0.00,230.7,M,,,,*06
$GPRMC,142830.00,A,3144.86274,N,03458.68938,E,2.988,50.6,020416,,,A*60
$GPGGA,142831.00,3144.86391,N,03458.68967,E,1,08,0.00,230.8,M,,,,*08
$GPRMC,142831.00,A,3144.86391,N,03458.68967,E,2.986,55.1,020416,,,A*6D
$GPGGA,142832.00,3144.86495,N,03458.68992,E,1,08,0.00,232.0,M,,,,*08
$GPRMC,142832.00,A,3144.86495,N,03458.68992,E,2.981,37.9,020416,,,A*6C
$GPGGA,142833.00,3144.86612,N,03458.69014,E,1,08,0.00,229.6,M,,,,*0E
$GPRMC,142833.00,A,3144.86612,N,03458.69014,E,2.981,36.3,020416,,,A*6D
$GPGGA,142835.00,3144.86873,N,03458.69037,E,1,08,0.00,228.5,M,,,,*02
$GPRMC,142835.00,A,3144.86873,N,03458.69037,E,2.997,42.2,020416,,,A*66
$GPGGA,142836.00,3144.87017,N,03458.69051,E,1,08,0.00,225.8,M,,,,*0A
$GPRMC,142836.00,A,3144.87017,N,03458.69051,E,3.008,34.6,020416,,,A*65
$GPGGA,142838.00,3144.87212,N,03458.69064,E,1,08,0.00,229.8,M,,,,*09
$GPRMC,142838.00,A,3144.87212,N,03458.69064,E,3.006,49.1,020416,,,A*69
$GPGGA,142839.00,3144.87425,N,03458.69087,E,1,08,0.00,230.9,M,,,,*0E
$GPRMC,142839.00,A,3144.87425,N,03458.69087,E,3.038,46.4,020416,,,A*60
$GPGGA,142841.00,3144.87626,N,03458.69115,E,1,08,0.00,230.5,M,,,,*06
$GPRMC,142841.00,A,3144.87626,N,03458.69115,E,3.035,32.1,020416,,,A*6F
$GPGGA,142843.00,3144.87866,N,03458.69159,E,1,08,0.00,230.8,M,,,,*0B
$GPRMC,142843.00,A,3144.87866,N,03458.69159,E,3.043,38.8,020416,,,A*6D
$GPGGA,142844.00,3144.88001,N,03458.69209,E,1,08,0.00,231.1,M,,,,*04
$GPRMC,142844.00,A,3144.88001,N,03458.69209,E,3.047,11.2,020416,,,A*6F
$GPGGA,142845.00,3144.88080,N,03458.69230,E,1,08,0.00,230.7,M,,,,*01
$GPRMC,142845.00,A,3144.88080,N,03458.69230,E,3.039,15.0,020416,,,A*62
$GPGGA,142847.00,3144.88323,N,03458.69271,E,1,08,0.00,230.3,M,,,,*08
$GPRMC,142847.00,A,3144.88323,N,03458.69271,E,3.049,23.3,020416,,,A*6E
$GPGGA,142848.00,3144.88453,N,03458.69297,E,1,08,0.00,232.3,M,,,,*0D
$GPRMC,142848.00,A,3144.88453,N,03458.69297,E,3.056,23.7,020416,,,A*63
$GPGGA,142850.00,3144.88697,N,03458.69381,E,1,08,0.00,234.2,M,,,,*0F
$GPRMC,142850.00,A,3144.88697,N,03458.69381,E,3.062,358.8,020416,,,A*51
$GPGGA,142851.00,3144.88785,N,03458.69417,E,1,08,0.00,234.8,M,,,,*0E
$GPRMC,142851.00,A,3144.88785,N,03458.69417,E,3.056,1.0,020416,,,A*5A
$GPGGA,142852.00,3144.88975,N,03458.69427,E,1,08,0.00,234.8,M,,,,*0F
$GPRMC,142852.00,A,3144.88975,N,03458.69427,E,3.082,22.4,020416,,,A*67
$GPGGA,142853.00,3144.89079,N,03458.69455,E,1,08,0.00,234.6,M,,,,*01
$GPRMC,142853.00,A,3144.89079,N,03458.69455,E,3.082,7.9,020416,,,A*5D
$GPGGA,142855.00,3144.89285,N,03458.69550,E,1,08,0.00,234.2,M,,,,*06
$GPRMC,142855.00,A,3144.89285,N,03458.69550,E,3.077,4.0,020416,,,A*5E
$GPGGA,142856.00,3144.89342,N,03458.69609,E,1,08,0.00,235.6,M,,,,*05
$GPRMC,142856.00,A,3144.89342,N,03458.69609,E,3.060,357.5,020416,,,A*5E
$GPGGA,142857.00,3144.89432,N,03458.69649,E,1,08,0.00,235.5,M,,,,*03
$GPRMC,142857.00,A,3144.89432,N,03458.69649,E,3.055,14.4,020416,,,A*68
$GPGGA,142859.00,3144.89606,N,03458.69709,E,1,08,0.00,238.5,M,,,,*00
$GPRMC,142859.00,A,3144.89606,N,03458.69709,E,3.047,35.2,020416,,,A*60
$GPGGA,142900.00,3144.89699,N,03458.69739,E,1,08,0.00,239.0,M,,,,*0C
$GPRMC,142900.00,A,3144.89699,N,03458.69739,E,3.043,38.0,020416,,,A*63
$GPGGA,142902.00,3144.89841,N,03458.69805,E,1,08,0.00,238.3,M,,,,*07
$GPRMC,142902.00,A,3144.89841,N,03458.69805,E,3.027,42.9,020416,,,A*6C
$GPGGA,142903.00,3144.89892,N,03458.69823,E,1,08,0.00,238.4,M,,,,*0B
$GPRMC,142903.00,A,3144.89892,N,03458.69823,E,3.014,31.7,020416,,,A*6D
$GPGGA,142904.00,3144.89928,N,03458.69834,E,1,08,0.00,238.6,M,,,,*08
$GPRMC,142904.00,A,3144.89928,N,03458.69834,E,2.998,62.3,020416,,,A*62
$GPGGA,142906.00,3144.89996,N,03458.69849,E,1,08,0.00,238.7,M,,,,*04
$GPRMC,142906.00,A,3144.89996,N,03458.69849,E,2.968,56.8,020416,,,A*6C
$GPGGA,142907.00,3144.90042,N,03458.69853,E,1,08,0.00,237.8,M,,,,*06
$GPRMC,142907.00,A,3144.90042,N,03458.69853,E,2.956,53.0,020416,,,A*6E
$GPGGA,142908.00,3144.90131,N,03458.69881,E,1,08,0.00,237.7,M,,,,*0C
$GPRMC,142908.00,A,3144.90131,N,03458.69881,E,2.954,24.1,020416,,,A*68
$GPGGA,142910.00,3144.90174,N,03458.69861,E,1,08,0.00,235.8,M,,,,*07
$GPRMC,142910.00,A,3144.90174,N,03458.69861,E,2.921,58.1,020416,,,A*67
$GPGGA,142912.00,3144.90306,N,03458.69820,E,1,08,0.00,233.5,M,,,,*0C
$GPRMC,142912.00,A,3144.90306,N,03458.69820,E,2.914,9.2,020416,,,A*56
$GPGGA,142914.00,3144.90438,N,03458.69887,E,1,08,0.00,231.4,M,,,,*0E
$GPRMC,142914.00,A,3144.90438,N,03458.69887,E,2.899,320.0,020416,,,A*59
$GPGGA,142915.00,3144.90429,N,03458.69979,E,1,08,0.00,234.0,M,,,,*0E
$GPRMC,142915.00,A,3144.90429,N,03458.69979,E,2.867,73.9,020416,,,A*65
$GPGGA,142917.00,3144.90552,N,03458.70095,E,1,08,0.00,234.5,M,,,,*07
$GPRMC,142917.00,A,3144.90552,N,03458.70095,E,2.848,75.6,020416,,,A*6D
$GPGGA,142919.00,3144.90659,N,03458.70111,E,1,08,0.00,236.2,M,,,,*09
$GPRMC,142919.00,A,3144.90659,N,03458.70111,E,2.832,73.8,020416,,,A*63
$GPGGA,142921.00,3144.90831,N,03458.70143,E,1,08,0.00,236.0,M,,,,*07
$GPRMC,142921.00,A,3144.90831,N,03458.70143,E,2.832,79.1,020416,,,A*6C
$GPGGA,142922.00,3144.90904,N,03458.70180,E,1,08,0.00,235.6,M,,,,*09
$GPRMC,142922.00,A,3144.90904,N,03458.70180,E,2.827,60.3,020416,,,A*69
$GPGGA,142923.00,3144.91017,N,03458.70186,E,1,08,0.00,233.6,M,,,,*02
$GPRMC,142923.00,A,3144.91017,N,03458.70186,E,2.834,50.4,020416,,,A*62
$GPGGA,142924.00,3144.91118,N,03458.70211,E,1,08,0.00,231.2,M,,,,*00
$GPRMC,142924.00,A,3144.91118,N,03458.70211,E,2.836,56.1,020416,,,A*67
$GPGGA,142926.00,3144.91328,N,03458.70270,E,1,08,0.00,232.4,M,,,,*01
$GPRMC,142926.00,A,3144.91328,N,03458.70270,E,2.844,46.2,020416,,,A*64
$GPGGA,142927.00,3144.91421,N,03458.70284,E,1,08,0.00,233.5,M,,,,*05
$GPRMC,142927.00,A,3144.91421,N,03458.70284,E,2.845,43.9,020416,,,A*6F
$GPGGA,142928.00,3144.91528,N,03458.70300,E,1,08,0.00,231.5,M,,,,*0D
$GPRMC,142928.00,A,3144.91528,N,03458.70300,E,2.849,48.9,020416,,,A*62
$GPGGA,142930.00,3144.91729,N,03458.70345,E,1,08,0.00,231.5,M,,,,*06
$GPRMC,142930.00,A,3144.91729,N,03458.70345,E,2.856,10.2,020416,,,A*61
$GPGGA,142931.00,3144.91908,N,03458.70406,E,1,08,0.00,231.8,M,,,,*07
$GPRMC,142931.00,A,3144.91908,N,03458.70406,E,2.875,45.5,020416,,,A*6B
$GPGGA,142932.00,3144.92036,N,03458.70455,E,1,08,0.00,231.9,M,,,,*04
$GPRMC,142932.00,A,3144.92036,N,03458.70455,E,2.882,48.4,020416,,,A*6D
$GPGGA,142934.00,3144.92306,N,03458.70579,E,1,08,0.00,230.3,M,,,,*06
$GPRMC,142934.00,A,3144.92306,N,03458.70579,E,2.900,27.6,020416,,,A*64
$GPGGA,142935.00,3144.92432,N,03458.70627,E,1,08,0.00,230.9,M,,,,*05
$GPRMC,142935.00,A,3144.92432,N,03458.70627,E,2.907,44.8,020416,,,A*61
$GPGGA,142937.00,3144.92645,N,03458.70718,E,1,08,0.00,231.7,M,,,,*07
$GPRMC,142937.00,A,3144.92645,N,03458.70718,E,2.914,14.3,020416,,,A*60
$GPGGA,142939.00,3144.92885,N,03458.70848,E,1,08,0.00,233.0,M,,,,*04
$GPRMC,142939.00,A,3144.92885,N,03458.70848,E,2.925,6.0,020416,,,A*54
$GPGGA,142941.00,3144.93101,N,03458.70950,E,1,08,0.00,231.3,M,,,,*06
$GPRMC,142941.00,A,3144.93101,N,03458.70950,E,2.932,50.4,020416,,,A*66
$GPGGA,142943.00,3144.93318,N,03458.71075,E,1,08,0.00,233.6,M,,,,*06
$GPRMC,142943.00,A,3144.93318,N,03458.71075,E,2.938,19.8,020416,,,A*6A
$GPGGA,142945.00,3144.93530,N,03458.71194,E,1,08,0.00,233.0,M,,,,*04
$GPRMC,142945.00,A,3144.93530,N,03458.71194,E,2.944,26.8,020416,,,A*69
$GPGGA,142946.00,3144.93647,N,03458.71259,E,1,08,0.00,232.2,M,,,,*05
$GPRMC,142946.00,A,3144.93647,N,03458.71259,E,2.949,27.7,020416,,,A*68
$GPGGA,142947.00,3144.93773,N,03458.71320,E,1,08,0.00,230.7,M,,,,*0A
$GPRMC,142947.00,A,3144.93773,N,03458.71320,E,2.955,26.5,020416,,,A*6E
$GPGGA,142949.00,3144.93951,N,03458.71447,E,1,08,0.00,231.3,M,,,,*09
$GPRMC,142949.00,A,3144.93951,N,03458.71447,E,2.954,345.4,020416,,,A*5E
$GPGGA,142950.00,3144.94043,N,03458.71508,E,1,08,0.00,231.4,M,,,,*01
$GPRMC,142950.00,A,3144.94043,N,03458.71508,E,2.954,4.0,020416,,,A*53
$GPGGA,142952.00,3144.94260,N,03458.71562,E,1,08,0.00,232.1,M,,,,*0A
$GPRMC,142952.00,A,3144.94260,N,03458.71562,E,2.964,52.9,020416,,,A*67
$GPGGA,142953.00,3144.94369,N,03458.71607,E,1,08,0.00,232.9,M,,,,*0B
$GPRMC,142953.00,A,3144.94369,N,03458.71607,E,2.968,53.6,020416,,,A*6C
$GPGGA,142955.00,3144.94462,N,03458.71686,E,1,08,0.00,232.7,M,,,,*06
$GPRMC,142955.00,A,3144.94462,N,03458.71686,E,2.950,50.7,020416,,,A*66
$GPGGA,142956.00,3144.94517,N,03458.71760,E,1,08,0.00,232.2,M,,,,*0A
$GPRMC,142956.00,A,3144.94517,N,03458.71760,E,2.943,56.6,020416,,,A*6A
$GPGGA,142958.00,3144.94622,N,03458.71884,E,1,08,0.00,232.9,M,,,,*0F
$GPRMC,142958.00,A,3144.94622,N,03458.71884,E,2.928,56.7,020416,,,A*68
$GPGGA,142959.00,3144.94685,N,03458.71938,E,1,08,0.00,233.2,M,,,,*0F
$GPRMC,142959.00,A,3144.94685,N,03458.71938,E,2.922,45.2,020416,,,A*6F
$GPGGA,143000.00,3144.94744,N,03458.71990,E,1,08,0.00,233.3,M,,,,*04
$GPRMC,143000.00,A,3144.94744,N,03458.71990,E,2.916,38.6,020416,,,A*6C
$GPGGA,143002.00,3144.94952,N,03458.72063,E,1,08,0.00,234.3,M,,,,*0E
$GPRMC,143002.00,A,3144.94952,N,03458.72063,E,2.925,60.2,020416,,,A*68
$GPGGA,143003.00,3144.95037,N,03458.71940,E,1,08,0.00,233.9,M,,,,*02
$GPRMC,143003.00,A,3144.95037,N,03458.71940,E,2.928,58.0,020416,,,A*6D
$GPGGA,143004.00,3144.95138,N,03458.71932,E,1,08,0.00,233.5,M,,,,*02
$GPRMC,143004.00,A,3144.95138,N,03458.71932,E,2.932,56.9,020416,,,A*6D
$GPGGA,143005.00,3144.95223,N,03458.71960,E,1,08,0.00,233.0,M,,,,*08
$GPRMC,143005.00,A,3144.95223,N,03458.71960,E,2.932,50.7,020416,,,A*6A
$GPGGA,143006.00,3144.95305,N,03458.72013,E,1,08,0.00,234.7,M,,,,*00
$GPRMC,143006.00,A,3144.95305,N,03458.72013,E,2.930,32.0,020416,,,A*63
$GPGGA,143007.00,3144.95377,N,03458.72083,E,1,08,0.00,234.7,M,,,,*0D
$GPRMC,143007.00,A,3144.95377,N,03458.72083,E,2.927,32.8,020416,,,A*60
$GPGGA,143009.00,3144.95533,N,03458.72205,E,1,08,0.00,234.3,M,,,,*0D
$GPRMC,143009.00,A,3144.95533,N,03458.72205,E,2.923,75.9,020416,,,A*62
$GPGGA,143011.00,3144.95776,N,03458.72315,E,1,08,0.00,235.9,M,,,,*0C
$GPRMC,143011.00,A,3144.95776,N,03458.72315,E,2.937,60.2,020416,,,A*62
$GPGGA,143013.00,3144.96070,N,03458.72447,E,1,08,0.00,237.2,M,,,,*05
$GPRMC,143013.00,A,3144.96070,N,03458.72447,E,2.959,67.0,020416,,,A*6F
$GPGGA,143014.00,3144.96197,N,03458.72527,E,1,08,0.00,238.5,M,,,,*05
$GPRMC,143014.00,A,3144.96197,N,03458.72527,E,2.966,65.2,020416,,,A*6B
$GPGGA,143016.00,3144.96478,N,03458.72700,E,1,08,0.00,239.4,M,,,,*04
$GPRMC,143016.00,A,3144.96478,N,03458.72700,E,2.985,69.1,020416,,,A*68
$GPGGA,143018.00,3144.96777,N,03458.72847,E,1,08,0.00,240.1,M,,,,*01
$GPRMC,143018.00,A,3144.96777,N,03458.72847,E,3.008,72.6,020416,,,A*66
$GPGGA,143019.00,3144.96882,N,03458.72936,E,1,08,0.00,242.2,M,,,,*03
$GPRMC,143019.00,A,3144.96882,N,03458.72936,E,3.011,55.4,020416,,,A*6A
$GPGGA,143020.00,3144.96988,N,03458.73039,E,1,08,0.00,243.0,M,,,,*06
$GPRMC,143020.00,A,3144.96988,N,03458.73039,E,3.014,59.2,020416,,,A*63
$GPGGA,143021.00,3144.97062,N,03458.73123,E,1,08,0.00,244.3,M,,,,*05
$GPRMC,143021.00,A,3144.97062,N,03458.73123,E,3.011,52.7,020416,,,A*6F
$GPGGA,143023.00,3144.97176,N,03458.73221,E,1,08,0.00,248.4,M,,,,*09
$GPRMC,143023.00,A,3144.97176,N,03458.73221,E,3.001,62.5,020416,,,A*68
$GPGGA,143025.00,3144.97284,N,03458.73359,E,1,08,0.00,249.4,M,,,,*0E
$GPRMC,143025.00,A,3144.97284,N,03458.73359,E,2.990,44.9,020416,,,A*66
$GPGGA,143027.00,3144.97423,N,03458.73351,E,1,08,0.00,248.8,M,,,,*02
$GPRMC,143027.00,A,3144.97423,N,03458.73351,E,2.986,28.0,020416,,,A*63
$GPGGA,143028.00,3144.97451,N,03458.73245,E,1,08,0.00,250.9,M,,,,*04
$GPRMC,143028.00,A,3144.97451,N,03458.73245,E,2.977,28.4,020416,,,A*67
$GPGGA,143030.00,3144.97424,N,03458.73030,E,1,08,0.00,249.9,M,,,,*07
$GPRMC,143030.00,A,3144.97424,N,03458.73030,E,2.945,26.1,020416,,,A*66
$GPGGA,143032.00,3144.97449,N,03458.72828,E,1,08,0.00,250.0,M,,,,*0F
$GPRMC,143032.00,A,3144.97449,N,03458.72828,E,2.923,20.7,020416,,,A*6F
$GPGGA,143033.00,3144.97495,N,03458.72765,E,1,08,0.00,250.0,M,,,,*09
$GPRMC,143033.00,A,3144.97495,N,03458.72765,E,2.918,39.7,020416,,,A*69
$GPGGA,143035.00,3144.97568,N,03458.72744,E,1,08,0.00,250.8,M,,,,*07
$GPRMC,143035.00,A,3144.97568,N,03458.72744,E,2.903,29.9,020416,,,A*6A
$GPGGA,143037.00,3144.97617,N,03458.72754,E,1,08,0.00,249.7,M,,,,*08
$GPRMC,143037.00,A,3144.97617,N,03458.72754,E,2.884,41.1,020416,,,A*6A
$GPGGA,143039.00,3144.97653,N,03458.72796,E,1,08,0.00,249.0,M,,,,*0F
$GPRMC,143039.00,A,3144.97653,N,03458.72796,E,2.863,63.1,020416,,,A*63
$GPGGA,143041.00,3144.97637,N,03458.72865,E,1,08,0.00,251.0,M,,,,*08
$GPRMC,143041.00,A,3144.97637,N,03458.72865,E,2.834,97.0,020416,,,A*65
$GPGGA,143043.00,3144.97674,N,03458.72924,E,1,08,0.00,252.1,M,,,,*0B
$GPRMC,143043.00,A,3144.97674,N,03458.72924,E,2.814,79.0,020416,,,A*66
$GPGGA,143045.00,3144.97771,N,03458.72982,E,1,08,0.00,253.7,M,,,,*02
$GPRMC,143045.00,A,3144.97771,N,03458.72982,E,2.804,55.4,020416,,,A*63
$GPGGA,143046.00,3144.97812,N,03458.73049,E,1,08,0.00,253.5,M,,,,*06
$GPRMC,143046.00,A,3144.97812,N,03458.73049,E,2.797,59.9,020416,,,A*61
$GPGGA,143048.00,3144.97973,N,03458.73230,E,1,08,0.00,253.3,M,,,,*04
$GPRMC,143048.00,A,3144.97973,N,03458.73230,E,2.797,72.2,020416,,,A*67
$GPGGA,143049.00,3144.98078,N,03458.73339,E,1,08,0.00,253.7,M,,,,*04
$GPRMC,143049.00,A,3144.98078,N,03458.73339,E,2.801,69.8,020416,,,A*63
$GPGGA,143051.00,3144.98328,N,03458.73638,E,1,08,0.00,252.7,M,,,,*0E
$GPRMC,143051.00,A,3144.98328,N,03458.73638,E,2.814,74.2,020416,,,A*6A
$GPGGA,143052.00,3144.98490,N,03458.73800,E,1,08,0.00,252.5,M,,,,*0E
$GPRMC,143052.00,A,3144.98490,N,03458.73800,E,2.827,76.3,020416,,,A*6B
$GPGGA,143054.00,3144.98783,N,03458.74077,E,1,08,0.00,251.4,M,,,,*04
$GPRMC,143054.00,A,3144.98783,N,03458.74077,E,2.848,78.6,020416,,,A*61
$GPGGA,143055.00,3144.98916,N,03458.74136,E,1,08,0.00,252.2,M,,,,*06
$GPRMC,143055.00,A,3144.98916,N,03458.74136,E,2.856,76.8,020416,,,A*69
$GPGGA,143056.00,3144.99035,N,03458.74193,E,1,08,0.00,250.9,M,,,,*0A
$GPRMC,143056.00,A,3144.99035,N,03458.74193,E,2.862,68.5,020416,,,A*69
$GPGGA,143058.00,3144.99290,N,03458.74289,E,1,08,0.00,248.4,M,,,,*05
$GPRMC,143058.00,A,3144.99290,N,03458.74289,E,2.877,75.3,020416,,,A*6C
$GPGGA,143059.00,3144.99425,N,03458.74341,E,1,08,0.00,247.1,M,,,,*03
$GPRMC,143059.00,A,3144.99425,N,03458.74341,E,2.885,83.6,020416,,,A*61
$GPGGA,143100.00,3144.99558,N,03458.74394,E,1,08,0.00,246.4,M,,,,*09
$GPRMC,143100.00,A,3144.99558,N,03458.74394,E,2.893,94.0,020416,,,A*68
$GPGGA,143102.00,3144.99746,N,03458.74516,E,1,08,0.00,246.6,M,,,,*08
$GPRMC,143102.00,A,3144.99746,N,03458.74516,E,2.898,90.7,020416,,,A*63
$GPGGA,143103.00,3144.99834,N,03458.74564,E,1,08,0.00,247.5,M,,,,*04
$GPRMC,143103.00,A,3144.99834,N,03458.74564,E,2.899,92.4,020416,,,A*6D
$GPGGA,143104.00,3144.99908,N,03458.74601,E,1,08,0.00,248.3,M,,,,*04
$GPRMC,143104.00,A,3144.99908,N,03458.74601,E,2.898,109.0,020416,,,A*52
$GPGGA,143106.00,3145.00044,N,03458.74573,E,1,08,0.00,249.4,M,,,,*06
$GPRMC,143106.00,A,3145.00044,N,03458.74573,E,2.894,109.5,020416,,,A*5F
$GPGGA,143107.00,3145.00097,N,03458.74481,E,1,08,0.00,251.5,M,,,,*0D
$GPRMC,143107.00,A,3145.00097,N,03458.74481,E,2.890,110.8,020416,,,A*5D
$GPGGA,143108.00,3145.00148,N,03458.74396,E,1,08,0.00,252.1,M,,,,*07
$GPRMC,143108.00,A,3145.00148,N,03458.74396,E,2.886,105.2,020416,,,A*59
$GPGGA,143110.00,3145.00181,N,03458.74227,E,1,08,0.00,251.6,M,,,,*04
$GPRMC,143110.00,A,3145.00181,N,03458.74227,E,2.867,81.8,020416,,,A*66
$GPGGA,143112.00,3145.00128,N,03458.74032,E,1,08,0.00,250.2,M,,,,*06
$GPRMC,143112.00,A,3145.00128,N,03458.74032,E,2.837,87.4,020416,,,A*6E
$GPGGA,143113.00,3145.00081,N,03458.73942,E,1,08,0.00,250.3,M,,,,*0D
$GPRMC,143113.00,A,3145.00081,N,03458.73942,E,2.819,82.9,020416,,,A*60
$GPGGA,143114.00,3145.00023,N,03458.73885,E,1,08,0.00,250.0,M,,,,*0B
$GPRMC,143114.00,A,3145.00023,N,03458.73885,E,2.799,75.7,020416,,,A*64
$GPGGA,143116.00,3144.99933,N,03458.73820,E,1,08,0.00,250.0,M,,,,*0F
$GPRMC,143116.00,A,3144.99933,N,03458.73820,E,2.764,27.4,020416,,,A*66
$GPGGA,143118.00,3144.99952,N,03458.73859,E,1,08,0.00,248.7,M,,,,*06
$GPRMC,143118.00,A,3144.99952,N,03458.73859,E,2.746,30.4,020416,,,A*67
$GPGGA,143119.00,3145.00004,N,03458.73882,E,1,08,0.00,248.5,M,,,,*08
$GPRMC,143119.00,A,3145.00004,N,03458.73882,E,2.743,37.3,020416,,,A*6E
$GPGGA,143120.00,3145.00025,N,03458.73989,E,1,08,0.00,250.3,M,,,,*04
$GPRMC,143120.00,A,3145.00025,N,03458.73989,E,2.734,44.5,020416,,,A*6F
$GPGGA,143122.00,3145.00153,N,03458.74154,E,1,08,0.00,250.2,M,,,,*08
$GPRMC,143122.00,A,3145.00153,N,03458.74154,E,2.731,92.8,020416,,,A*61
$GPGGA,143124.00,3145.00270,N,03458.74346,E,1,08,0.00,247.7,M,,,,*0E
$GPRMC,143124.00,A,3145.00270,N,03458.74346,E,2.727,99.4,020416,,,A*64
$GPGGA,143125.00,3145.00319,N,03458.74445,E,1,08,0.00,247.3,M,,,,*01
$GPRMC,143125.00,A,3145.00319,N,03458.74445,E,2.723,36.1,020416,,,A*6B
$GPGGA,143127.00,3145.00389,N,03458.74609,E,1,08,0.00,247.2,M,,,,*01
$GPRMC,143127.00,A,3145.00389,N,03458.74609,E,2.713,48.1,020416,,,A*60
$GPGGA,143128.00,3145.00395,N,03458.74716,E,1,08,0.00,246.4,M,,,,*0B
$GPRMC,143128.00,A,3145.00395,N,03458.74716,E,2.703,45.9,020416,,,A*69
$GPGGA,143130.00,3145.00448,N,03458.74903,E,1,08,0.00,246.1,M,,,,*0A
$GPRMC,143130.00,A,3145.00448,N,03458.74903,E,2.691,93.3,020416,,,A*66
$GPGGA,143132.00,3145.00553,N,03458.75183,E,1,08,0.00,245.2,M,,,,*02
$GPRMC,143132.00,A,3145.00553,N,03458.75183,E,2.686,51.3,020416,,,A*66
$GPGGA,143134.00,3145.00770,N,03458.75552,E,1,08,0.00,244.3,M,,,,*0F
$GPRMC,143134.00,A,3145.00770,N,03458.75552,E,2.698,106.7,020416,,,A*53
$GPGGA,143135.00,3145.00868,N,03458.75688,E,1,08,0.00,244.7,M,,,,*08
$GPRMC,143135.00,A,3145.00868,N,03458.75688,E,2.701,115.3,020416,,,A*57
$GPGGA,143136.00,3145.01038,N,03458.75808,E,1,08,0.00,245.6,M,,,,*01
$GPRMC,143136.00,A,3145.01038,N,03458.75808,E,2.715,104.0,020416,,,A*58
$GPGGA,143137.00,3145.01143,N,03458.75903,E,1,08,0.00,248.3,M,,,,*0F
$GPRMC,143137.00,A,3145.01143,N,03458.75903,E,2.719,115.5,020416,,,A*57
$GPGGA,143139.00,3145.01267,N,03458.76053,E,1,08,0.00,250.2,M,,,,*03
$GPRMC,143139.00,A,3145.01267,N,03458.76053,E,2.717,126.7,020416,,,A*5F
$GPGGA,143141.00,3145.01321,N,03458.76138,E,1,08,0.00,245.9,M,,,,*0C
$GPRMC,143141.00,A,3145.01321,N,03458.76138,E,2.705,134.7,020416,,,A*5F
$GPGGA,143143.00,3145.01431,N,03458.76173,E,1,08,0.00,244.7,M,,,,*08
$GPRMC,143143.00,A,3145.01431,N,03458.76173,E,2.700,142.0,020416,,,A*57
$GPGGA,143144.00,3145.01474,N,03458.76177,E,1,08,0.00,244.1,M,,,,*0C
$GPRMC,143144.00,A,3145.01474,N,03458.76177,E,2.696,89.3,020416,,,A*6E
$GPGGA,143145.00,3145.01507,N,03458.76194,E,1,08,0.00,245.4,M,,,,*01
$GPRMC,143145.00,A,3145.01507,N,03458.76194,E,2.691,133.0,020416,,,A*53
$GPGGA,143146.00,3145.01544,N,03458.76174,E,1,08,0.00,247.4,M,,,,*09
$GPRMC,143146.00,A,3145.01544,N,03458.76174,E,2.686,142.5,020416,,,A*5C
$GPGGA,143148.00,3145.01547,N,03458.76193,E,1,08,0.00,247.7,M,,,,*0E
$GPRMC,143148.00,A,3145.01547,N,03458.76193,E,2.668,119.1,020416,,,A*52
$GPGGA,143150.00,3145.01425,N,03458.76156,E,1,08,0.00,250.6,M,,,,*0C
$GPRMC,143150.00,A,3145.01425,N,03458.76156,E,2.634,143.3,020416,,,A*53
$GPGGA,143152.00,3145.01473,N,03458.76085,E,1,08,0.00,251.0,M,,,,*05
$GPRMC,143152.00,A,3145.01473,N,03458.76085,E,2.621,111.1,020416,,,A*5C
$GPGGA,143154.00,3145.01561,N,03458.76230,E,1,08,0.00,250.7,M,,,,*0B
$GPRMC,143154.00,A,3145.01561,N,03458.76230,E,2.615,57.9,020416,,,A*68
$GPGGA,143156.00,3145.01610,N,03458.76514,E,1,08,0.00,253.2,M,,,,*0B
$GPRMC,143156.00,A,3145.01610,N,03458.76514,E,2.606,60.1,020416,,,A*60
$GPGGA,143158.00,3145.01657,N,03458.76803,E,1,08,0.00,254.4,M,,,,*0C
$GPRMC,143158.00,A,3145.01657,N,03458.76803,E,2.597,65.1,020416,,,A*68
$GPGGA,143200.00,3145.01688,N,03458.77107,E,1,08,0.00,255.8,M,,,,*01
$GPRMC,143200.00,A,3145.01688,N,03458.77107,E,2.587,354.6,020416,,,A*5F
$GPGGA,143201.00,3145.01732,N,03458.77347,E,1,08,0.00,255.4,M,,,,*0A
$GPRMC,143201.00,A,3145.01732,N,03458.77347,E,2.587,307.7,020416,,,A*5F
$GPGGA,143202.00,3145.01762,N,03458.77491,E,1,08,0.00,254.9,M,,,,*0C
$GPRMC,143202.00,A,3145.01762,N,03458.77491,E,2.584,339.2,020416,,,A*5E
$GPGGA,143203.00,3145.01795,N,03458.77632,E,1,08,0.00,254.3,M,,,,*04
$GPRMC,143203.00,A,3145.01795,N,03458.77632,E,2.581,336.7,020416,,,A*53
$GPGGA,143205.00,3145.01872,N,03458.77896,E,1,08,0.00,254.4,M,,,,*03
$GPRMC,143205.00,A,3145.01872,N,03458.77896,E,2.577,310.6,020416,,,A*5F
$GPGGA,143207.00,3145.01936,N,03458.78123,E,1,08,0.00,255.7,M,,,,*0A
$GPRMC,143207.00,A,3145.01936,N,03458.78123,E,2.571,336.4,020416,,,A*54
$GPGGA,143208.00,3145.01972,N,03458.78229,E,1,08,0.00,256.2,M,,,,*0A
$GPRMC,143208.00,A,3145.01972,N,03458.78229,E,2.568,359.0,020416,,,A*57
$GPGGA,143210.00,3145.02051,N,03458.78439,E,1,08,0.00,256.5,M,,,,*08
$GPRMC,143210.00,A,3145.02051,N,03458.78439,E,2.564,359.8,020416,,,A*56
$GPGGA,143212.00,3145.02115,N,03458.78642,E,1,08,0.00,256.7,M,,,,*07
$GPRMC,143212.00,A,3145.02115,N,03458.78642,E,2.558,2.2,020416,,,A*53
$GPGGA,143214.00,3145.02149,N,03458.78855,E,1,08,0.00,258.6,M,,,,*0F
$GPRMC,143214.00,A,3145.02149,N,03458.78855,E,2.550,343.4,020416,,,A*5C
$GPGGA,143215.00,3145.02161,N,03458.78966,E,1,08,0.00,259.3,M,,,,*01
$GPRMC,143215.00,A,3145.02161,N,03458.78966,E,2.545,344.8,020416,,,A*59
$GPGGA,143217.00,3145.02189,N,03458.79180,E,1,08,0.00,260.1,M,,,,*0C
$GPRMC,143217.00,A,3145.02189,N,03458.79180,E,2.536,354.3,020416,,,A*52
$GPGGA,143219.00,3145.02200,N,03458.79389,E,1,08,0.00,260.2,M,,,,*08
$GPRMC,143219.00,A,3145.02200,N,03458.79389,E,2.525,355.8,020416,,,A*5D
$GPGGA,143221.00,3145.02238,N,03458.79601,E,1,08,0.00,261.1,M,,,,*0F
$GPRMC,143221.00,A,3145.02238,N,03458.79601,E,2.518,36.4,020416,,,A*6C
$GPGGA,143223.00,3145.02300,N,03458.79759,E,1,08,0.00,260.2,M,,,,*09
$GPRMC,143223.00,A,3145.02300,N,03458.79759,E,2.512,52.4,020416,,,A*60
$GPGGA,143224.00,3145.02324,N,03458.79818,E,1,08,0.00,260.7,M,,,,*07
$GPRMC,143224.00,A,3145.02324,N,03458.79818,E,2.508,44.2,020416,,,A*61
$GPGGA,143225.00,3145.02351,N,03458.79875,E,1,08,0.00,261.2,M,,,,*0B
$GPRMC,143225.00,A,3145.02351,N,03458.79875,E,2.504,60.3,020416,,,A*62
$GPGGA,143226.00,3145.02387,N,03458.79942,E,1,08,0.00,261.9,M,,,,*0D
$GPRMC,143226.00,A,3145.02387,N,03458.79942,E,2.502,79.3,020416,,,A*61
$GPGGA,143228.00,3145.02496,N,03458.80126,E,1,08,0.00,261.4,M,,,,*05
$GPRMC,143228.00,A,3145.02496,N,03458.80126,E,2.502,82.8,020416,,,A*6B
$GPGGA,143229.00,3145.02549,N,03458.80244,E,1,08,0.00,262.0,M,,,,*07
$GPRMC,143229.00,A,3145.02549,N,03458.80244,E,2.502,93.6,020416,,,A*60
$GPGGA,143231.00,3145.02633,N,03458.80535,E,1,08,0.00,261.7,M,,,,*05
$GPRMC,143231.00,A,3145.02633,N,03458.80535,E,2.503,127.2,020416,,,A*5D
$GPGGA,143232.00,3145.02653,N,03458.80701,E,1,08,0.00,261.0,M,,,,*02
$GPRMC,143232.00,A,3145.02653,N,03458.80701,E,2.501,93.6,020416,,,A*65
$GPGGA,143234.00,3145.02663,N,03458.81102,E,1,08,0.00,258.9,M,,,,*00
$GPRMC,143234.00,A,3145.02663,N,03458.81102,E,2.496,93.9,020416,,,A*64
$GPGGA,143235.00,3145.02644,N,03458.81294,E,1,08,0.00,257.9,M,,,,*07
$GPRMC,143235.00,A,3145.02644,N,03458.81294,E,2.491,99.2,020416,,,A*6A
$GPGGA,143237.00,3145.02594,N,03458.81667,E,1,08,0.00,256.3,M,,,,*08
$GPRMC,143237.00,A,3145.02594,N,03458.81667,E,2.481,150.7,020416,,,A*5E
$GPGGA,143239.00,3145.02490,N,03458.81883,E,1,08,0.00,257.1,M,,,,*04
$GPRMC,143239.00,A,3145.02490,N,03458.81883,E,2.460,130.1,020416,,,A*5E
$GPGGA,143240.00,3145.02464,N,03458.81946,E,1,08,0.00,257.7,M,,,,*0F
$GPRMC,143240.00,A,3145.02464,N,03458.81946,E,2.452,147.4,020416,,,A*57
$GPGGA,143241.00,3145.02444,N,03458.81976,E,1,08,0.00,259.1,M,,,,*07
$GPRMC,143241.00,A,3145.02444,N,03458.81976,E,2.444,175.1,020416,,,A*54
$GPGGA,143243.00,3145.02390,N,03458.81953,E,1,08,0.00,262.4,M,,,,*01
$GPRMC,143243.00,A,3145.02390,N,03458.81953,E,2.423,71.5,020416,,,A*6F
$GPGGA,143245.00,3145.02364,N,03458.81848,E,1,08,0.00,263.3,M,,,,*01
$GPRMC,143245.00,A,3145.02364,N,03458.81848,E,2.404,51.3,020416,,,A*68
$GPGGA,143246.00,3145.02364,N,03458.81722,E,1,08,0.00,264.3,M,,,,*06
$GPRMC,143246.00,A,3145.02364,N,03458.81722,E,2.394,52.3,020416,,,A*65
$GPGGA,143247.00,3145.02397,N,03458.81588,E,1,08,0.00,262.7,M,,,,*0B
$GPRMC,143247.00,A,3145.02397,N,03458.81588,E,2.387,158.8,020416,,,A*58
$GPGGA,143248.00,3145.02421,N,03458.81481,E,1,08,0.00,264.0,M,,,,*07
$GPRMC,143248.00,A,3145.02421,N,03458.81481,E,2.380,40.7,020416,,,A*65
$GPGGA,143250.00,3145.02480,N,03458.81362,E,1,08,0.00,264.1,M,,,,*0E
$GPRMC,143250.00,A,3145.02480,N,03458.81362,E,2.369,20.8,020416,,,A*63
$GPGGA,143251.00,3145.02537,N,03458.81372,E,1,08,0.00,264.5,M,,,,*07
$GPRMC,143251.00,A,3145.02537,N,03458.81372,E,2.368,47.5,020416,,,A*63
$GPGGA,143252.00,3145.02592,N,03458.81454,E,1,08,0.00,264.3,M,,,,*0E
$GPRMC,143252.00,A,3145.02592,N,03458.81454,E,2.369,27.9,020416,,,A*67
$GPGGA,143254.00,3145.02677,N,03458.81489,E,1,08,0.00,262.5,M,,,,*00
$GPRMC,143254.00,A,3145.02677,N,03458.81489,E,2.365,36.0,020416,,,A*6C
$GPGGA,143255.00,3145.02723,N,03458.81475,E,1,08,0.00,262.4,M,,,,*03
$GPRMC,143255.00,A,3145.02723,N,03458.81475,E,2.362,22.2,020416,,,A*6E
$GPGGA,143257.00,3145.02745,N,03458.81443,E,1,08,0.00,262.4,M,,,,*04
$GPRMC,143257.00,A,3145.02745,N,03458.81443,E,2.350,66.4,020416,,,A*6E
$GPGGA,143258.00,3145.02714,N,03458.81461,E,1,08,0.00,262.5,M,,,,*0E
$GPRMC,143258.00,A,3145.02714,N,03458.81461,E,2.341,56.5,020416,,,A*67
$GPGGA,143300.00,3145.02705,N,03458.81782,E,1,08,0.00,258.3,M,,,,*03
$GPRMC,143300.00,A,3145.02705,N,03458.81782,E,2.335,79.7,020416,,,A*69
$GPGGA,143302.00,3145.02722,N,03458.82222,E,1,08,0.00,262.0,M,,,,*02
$GPRMC,143302.00,A,3145.02722,N,03458.82222,E,2.334,91.8,020416,,,A*6A
$GPGGA,143304.00,3145.02752,N,03458.82713,E,1,08,0.00,263.7,M,,,,*02
$GPRMC,143304.00,A,3145.02752,N,03458.82713,E,2.337,69.0,020416,,,A*60
$GPGGA,143305.00,3145.02762,N,03458.82984,E,1,08,0.00,263.3,M,,,,*04
$GPRMC,143305.00,A,3145.02762,N,03458.82984,E,2.338,53.3,020416,,,A*67
$GPGGA,143307.00,3145.02756,N,03458.83600,E,1,08,0.00,262.9,M,,,,*08
$GPRMC,143307.00,A,3145.02756,N,03458.83600,E,2.342,70.7,020416,,,A*68
$GPGGA,143309.00,3145.02784,N,03458.84173,E,1,08,0.00,264.7,M,,,,*05
$GPRMC,143309.00,A,3145.02784,N,03458.84173,E,2.348,80.4,020416,,,A*6B
$GPGGA,143311.00,3145.02788,N,03458.84710,E,1,08,0.00,262.5,M,,,,*07
$GPRMC,143311.00,A,3145.02788,N,03458.84710,E,2.352,68.6,020416,,,A*62
$GPGGA,143313.00,3145.02760,N,03458.85159,E,1,08,0.00,262.6,M,,,,*0A
$GPRMC,143313.00,A,3145.02760,N,03458.85159,E,2.351,58.7,020416,,,A*6D
$GPGGA,143315.00,3145.02758,N,03458.85521,E,1,08,0.00,261.7,M,,,,*0E
$GPRMC,143315.00,A,3145.02758,N,03458.85521,E,2.350,54.8,020416,,,A*69
$GPGGA,143316.00,3145.02755,N,03458.85693,E,1,08,0.00,262.0,M,,,,*0E
$GPRMC,143316.00,A,3145.02755,N,03458.85693,E,2.349,52.5,020416,,,A*6E
$GPGGA,143318.00,3145.02735,N,03458.85954,E,1,08,0.00,263.4,M,,,,*07
$GPRMC,143318.00,A,3145.02735,N,03458.85954,E,2.344,50.2,020416,,,A*6A
$GPGGA,143319.00,3145.02718,N,03458.86049,E,1,08,0.00,262.1,M,,,,*0B
$GPRMC,143319.00,A,3145.02718,N,03458.86049,E,2.339,53.7,020416,,,A*6E
$GPGGA,143321.00,3145.02668,N,03458.86155,E,1,08,0.00,261.1,M,,,,*09
$GPRMC,143321.00,A,3145.02668,N,03458.86155,E,2.326,57.6,020416,,,A*64
$GPGGA,143323.00,3145.02587,N,03458.86276,E,1,08,0.00,259.7,M,,,,*06
$GPRMC,143323.00,A,3145.02587,N,03458.86276,E,2.311,84.0,020416,,,A*6A
$GPGGA,143324.00,3145.02531,N,03458.86329,E,1,08,0.00,258.7,M,,,,*06
$GPRMC,143324.00,A,3145.02531,N,03458.86329,E,2.302,85.8,020416,,,A*60
$GPGGA,143326.00,3145.02458,N,03458.86450,E,1,08,0.00,257.0,M,,,,*0B
$GPRMC,143326.00,A,3145.02458,N,03458.86450,E,2.288,77.4,020416,,,A*67
$GPGGA,143327.00,3145.02474,N,03458.86537,E,1,08,0.00,256.4,M,,,,*01
$GPRMC,143327.00,A,3145.02474,N,03458.86537,E,2.286,95.9,020416,,,A*67
$GPGGA,143328.00,3145.02514,N,03458.86638,E,1,08,0.00,256.0,M,,,,*01
$GPRMC,143328.00,A,3145.02514,N,03458.86638,E,2.287,102.3,020416,,,A*57
$GPGGA,143330.00,3145.02597,N,03458.86898,E,1,08,0.00,257.6,M,,,,*00
$GPRMC,143330.00,A,3145.02597,N,03458.86898,E,2.291,113.1,020416,,,A*54
$GPGGA,143331.00,3145.02635,N,03458.87045,E,1,08,0.00,258.1,M,,,,*0B
$GPRMC,143331.00,A,3145.02635,N,03458.87045,E,2.294,108.9,020416,,,A*50
$GPGGA,143333.00,3145.02658,N,03458.87390,E,1,08,0.00,256.4,M,,,,*02
$GPRMC,143333.00,A,3145.02658,N,03458.87390,E,2.296,170.5,020416,,,A*53
$GPGGA,143335.00,3145.02609,N,03458.87663,E,1,08,0.00,258.1,M,,,,*02
$GPRMC,143335.00,A,3145.02609,N,03458.87663,E,2.290,107.6,020416,,,A*5D
$GPGGA,143336.00,3145.02593,N,03458.87777,E,1,08,0.00,259.1,M,,,,*04
$GPRMC,143336.00,A,3145.02593,N,03458.87777,E,2.287,118.9,020416,,,A*5D
$GPGGA,143338.00,3145.02551,N,03458.87927,E,1,08,0.00,257.4,M,,,,*04
$GPRMC,143338.00,A,3145.02551,N,03458.87927,E,2.277,87.0,020416,,,A*67
$GPGGA,143339.00,3145.02500,N,03458.87982,E,1,08,0.00,257.2,M,,,,*08
$GPRMC,143339.00,A,3145.02500,N,03458.87982,E,2.269,69.0,020416,,,A*62
$GPGGA,143341.00,3145.02347,N,03458.88123,E,1,08,0.00,257.6,M,,,,*0A
$GPRMC,143341.00,A,3145.02347,N,03458.88123,E,2.251,85.1,020416,,,A*6C
$GPGGA,143343.00,3145.02228,N,03458.88317,E,1,08,0.00,257.9,M,,,,*0A
$GPRMC,143343.00,A,3145.02228,N,03458.88317,E,2.238,49.8,020416,,,A*65
$GPGGA,143345.00,3145.02140,N,03458.88590,E,1,08,0.00,256.4,M,,,,*04
$GPRMC,143345.00,A,3145.02140,N,03458.88590,E,2.230,52.9,020416,,,A*64
$GPGGA,143346.00,3145.02125,N,03458.88709,E,1,08,0.00,255.7,M,,,,*06
$GPRMC,143346.00,A,3145.02125,N,03458.88709,E,2.228,47.3,020416,,,A*61
$GPGGA,143347.00,3145.02095,N,03458.88807,E,1,08,0.00,257.3,M,,,,*0A
$GPRMC,143347.00,A,3145.02095,N,03458.88807,E,2.224,66.4,020416,,,A*63
$GPGGA,143349.00,3145.02017,N,03458.89022,E,1,08,0.00,250.5,M,,,,*01
$GPRMC,143349.00,A,3145.02017,N,03458.89022,E,2.215,50.2,020416,,,A*68
$GPGGA,143351.00,3145.01954,N,03458.89241,E,1,08,0.00,248.8,M,,,,*06
$GPRMC,143351.00,A,3145.01954,N,03458.89241,E,2.208,16.6,020416,,,A*61
$GPGGA,143353.00,3145.01865,N,03458.89418,E,1,08,0.00,251.2,M,,,,*0F
$GPRMC,143353.00,A,3145.01865,N,03458.89418,E,2.197,47.1,020416,,,A*6C
$GPGGA,143355.00,3145.01829,N,03458.89484,E,1,08,0.00,254.2,M,,,,*01
$GPRMC,143355.00,A,3145.01829,N,03458.89484,E,2.186,72.1,020416,,,A*61
$GPGGA,143356.00,3145.01839,N,03458.89497,E,1,08,0.00,255.0,M,,,,*02
$GPRMC,143356.00,A,3145.01839,N,03458.89497,E,2.182,49.1,020416,,,A*6D
$GPGGA,143358.00,3145.01874,N,03458.89452,E,1,08,0.00,258.9,M,,,,*08
$GPRMC,143358.00,A,3145.01874,N,03458.89452,E,2.173,34.1,020416,,,A*67
$GPGGA,143359.00,3145.01870,N,03458.89442,E,1,08,0.00,258.8,M,,,,*0D
$GPRMC,143359.00,A,3145.01870,N,03458.89442,E,2.167,15.7,020416,,,A*63
$GPGGA,143400.00,3145.01861,N,03458.89443,E,1,08,0.00,259.5,M,,,,*0B
$GPRMC,143400.00,A,3145.01861,N,03458.89443,E,2.161,22.4,020416,,,A*68
$GPGGA,143402.00,3145.01840,N,03458.89472,E,1,08,0.00,262.2,M,,,,*07
$GPRMC,143402.00,A,3145.01840,N,03458.89472,E,2.150,18.3,020416,,,A*67
$GPGGA,143404.00,3145.01831,N,03458.89505,E,1,08,0.00,265.4,M,,,,*07
$GPRMC,143404.00,A,3145.01831,N,03458.89505,E,2.141,3.7,020416,,,A*58
$GPGGA,143405.00,3145.01843,N,03458.89533,E,1,08,0.00,266.9,M,,,,*08
$GPRMC,143405.00,A,3145.01843,N,03458.89533,E,2.137,30.9,020416,,,A*66
$GPGGA,143407.00,3145.01820,N,03458.89676,E,1,08,0.00,268.3,M,,,,*09
$GPRMC,143407.00,A,3145.01820,N,03458.89676,E,2.131,14.9,020416,,,A*63
$GPGGA,143408.00,3145.01816,N,03458.89729,E,1,08,0.00,268.2,M,,,,*09
$GPRMC,143408.00,A,3145.01816,N,03458.89729,E,2.128,27.3,020416,,,A*60
$GPGGA,143410.00,3145.01855,N,03458.89805,E,1,08,0.00,265.5,M,,,,*0C
$GPRMC,143410.00,A,3145.01855,N,03458.89805,E,2.124,357.3,020416,,,A*57
$GPGGA,143412.00,3145.01886,N,03458.89905,E,1,08,0.00,266.8,M,,,,*0F
$GPRMC,143412.00,A,3145.01886,N,03458.89905,E,2.120,12.9,020416,,,A*66
$GPGGA,143414.00,3145.01943,N,03458.90024,E,1,08,0.00,264.9,M,,,,*00
$GPRMC,143414.00,A,3145.01943,N,03458.90024,E,2.118,46.7,020416,,,A*6E
$GPGGA,143416.00,3145.01935,N,03458.90124,E,1,08,0.00,263.3,M,,,,*0F
$GPRMC,143416.00,A,3145.01935,N,03458.90124,E,2.112,17.1,020416,,,A*64
$GPGGA,143418.00,3145.01876,N,03458.90211,E,1,08,0.00,264.1,M,,,,*07
$GPRMC,143418.00,A,3145.01876,N,03458.90211,E,2.101,143.1,020416,,,A*5B
$GPGGA,143419.00,3145.01839,N,03458.90200,E,1,08,0.00,263.2,M,,,,*09
$GPRMC,143419.00,A,3145.01839,N,03458.90200,E,2.094,30.5,020416,,,A*6D
$GPGGA,143420.00,3145.01804,N,03458.90175,E,1,08,0.00,263.5,M,,,,*0B
$GPRMC,143420.00,A,3145.01804,N,03458.90175,E,2.085,26.9,020416,,,A*63
$GPGGA,143422.00,3145.01739,N,03458.90075,E,1,08,0.00,264.4,M,,,,*0F
$GPRMC,143422.00,A,3145.01739,N,03458.90075,E,2.068,12.7,020416,,,A*6B
$GPGGA,143424.00,3145.01775,N,03458.89985,E,1,08,0.00,263.1,M,,,,*0D
$GPRMC,143424.00,A,3145.01775,N,03458.89985,E,2.058,9.9,020416,,,A*5C
$GPGGA,143426.00,3145.01888,N,03458.89970,E,1,08,0.00,261.5,M,,,,*0E
$GPRMC,143426.00,A,3145.01888,N,03458.89970,E,2.056,44.7,020416,,,A*60
$GPGGA,143427.00,3145.01967,N,03458.89998,E,1,08,0.00,263.6,M,,,,*08
$GPRMC,143427.00,A,3145.01967,N,03458.89998,E,2.057,64.4,020416,,,A*67
$GPGGA,143429.00,3145.02096,N,03458.90232,E,1,08,0.00,265.8,M,,,,*09
$GPRMC,143429.00,A,3145.02096,N,03458.90232,E,2.065,61.6,020416,,,A*68
$GPGGA,143431.00,3145.01988,N,03458.90670,E,1,08,0.00,265.7,M,,,,*08
$GPRMC,143431.00,A,3145.01988,N,03458.90670,E,2.065,84.1,020416,,,A*6A
$GPGGA,143433.00,3145.01839,N,03458.91080,E,1,08,0.00,264.3,M,,,,*0C
$GPRMC,143433.00,A,3145.01839,N,03458.91080,E,2.061,38.8,020416,,,A*61
$GPGGA,143435.00,3145.01715,N,03458.91472,E,1,08,0.00,265.4,M,,,,*04
$GPRMC,143435.00,A,3145.01715,N,03458.91472,E,2.059,67.9,020416,,,A*6F
$GPGGA,143437.00,3145.01604,N,03458.91823,E,1,08,0.00,266.7,M,,,,*0F
$GPRMC,143437.00,A,3145.01604,N,03458.91823,E,2.056,45.2,020416,,,A*60
$GPGGA,143439.00,3145.01505,N,03458.92154,E,1,08,0.00,266.7,M,,,,*09
$GPRMC,143439.00,A,3145.01505,N,03458.92154,E,2.054,48.3,020416,,,A*68
$GPGGA,143441.00,3145.01390,N,03458.92437,E,1,08,0.00,268.0,M,,,,*05
$GPRMC,143441.00,A,3145.01390,N,03458.92437,E,2.049,29.9,020416,,,A*6C
$GPGGA,143442.00,3145.01342,N,03458.92564,E,1,08,0.00,268.6,M,,,,*08
$GPRMC,143442.00,A,3145.01342,N,03458.92564,E,2.047,86.4,020416,,,A*61
$GPGGA,143444.00,3145.01267,N,03458.92797,E,1,08,0.00,270.4,M,,,,*0D
$GPRMC,143444.00,A,3145.01267,N,03458.92797,E,2.042,87.4,020416,,,A*6B
$GPGGA,143446.00,3145.01202,N,03458.93017,E,1,08,0.00,270.2,M,,,,*04
$GPRMC,143446.00,A,3145.01202,N,03458.93017,E,2.038,97.4,020416,,,A*68
$GPGGA,143448.00,3145.01130,N,03458.93220,E,1,08,0.00,270.6,M,,,,*0A
$GPRMC,143448.00,A,3145.01130,N,03458.93220,E,2.034,108.2,020416,,,A*5F
$GPGGA,143450.00,3145.01058,N,03458.93382,E,1,08,0.00,271.7,M,,,,*05
$GPRMC,143450.00,A,3145.01058,N,03458.93382,E,2.027,120.1,020416,,,A*5B
$GPGGA,143451.00,3145.01027,N,03458.93459,E,1,08,0.00,271.3,M,,,,*09
$GPRMC,143451.00,A,3145.01027,N,03458.93459,E,2.024,107.8,020416,,,A*5C
$GPGGA,143452.00,3145.01016,N,03458.93534,E,1,08,0.00,270.8,M,,,,*08
$GPRMC,143452.00,A,3145.01016,N,03458.93534,E,2.022,73.5,020416,,,A*6E
$GPGGA,143453.00,3145.00996,N,03458.93606,E,1,08,0.00,268.9,M,,,,*03
$GPRMC,143453.00,A,3145.00996,N,03458.93606,E,2.019,50.0,020416,,,A*61
$GPGGA,143455.00,3145.00946,N,03458.93820,E,1,08,0.00,266.8,M,,,,*0D
$GPRMC,143455.00,A,3145.00946,N,03458.93820,E,2.017,106.9,020416,,,A*55
$GPGGA,143457.00,3145.00886,N,03458.94043,E,1,08,0.00,267.3,M,,,,*02
$GPRMC,143457.00,A,3145.00886,N,03458.94043,E,2.014,69.0,020416,,,A*62
$GPGGA,143458.00,3145.00833,N,03458.94239,E,1,08,0.00,268.8,M,,,,*08
$GPRMC,143458.00,A,3145.00833,N,03458.94239,E,2.015,62.8,020416,,,A*6E
$GPGGA,143459.00,3145.00809,N,03458.94401,E,1,08,0.00,267.5,M,,,,*0F
$GPRMC,143459.00,A,3145.00809,N,03458.94401,E,2.016,74.4,020416,,,A*63
$GPGGA,143501.00,3145.00725,N,03458.94755,E,1,08,0.00,266.2,M,,,,*06
$GPRMC,143501.00,A,3145.00725,N,03458.94755,E,2.017,44.5,020416,,,A*6F
$GPGGA,143503.00,3145.00629,N,03458.95155,E,1,08,0.00,265.9,M,,,,*06
$GPRMC,143503.00,A,3145.00629,N,03458.95155,E,2.020,51.1,020416,,,A*63
$GPGGA,143505.00,3145.00590,N,03458.95365,E,1,08,0.00,266.7,M,,,,*0D
$GPRMC,143505.00,A,3145.00590,N,03458.95365,E,2.018,15.1,020416,,,A*6E
$GPGGA,143506.00,3145.00583,N,03458.95386,E,1,08,0.00,267.8,M,,,,*0F
$GPRMC,143506.00,A,3145.00583,N,03458.95386,E,2.015,28.1,020416,,,A*61
$GPGGA,143508.00,3145.00574,N,03458.95451,E,1,08,0.00,268.2,M,,,,*01
$GPRMC,143508.00,A,3145.00574,N,03458.95451,E,2.009,21.9,020416,,,A*66
$GPGGA,143510.00,3145.00545,N,03458.95574,E,1,08,0.00,268.7,M,,,,*09
$GPRMC,143510.00,A,3145.00545,N,03458.95574,E,2.004,356.8,020416,,,A*54
$GPGGA,143512.00,3145.00556,N,03458.95698,E,1,08,0.00,269.1,M,,,,*0F
$GPRMC,143512.00,A,3145.00556,N,03458.95698,E,2.002,350.5,020416,,,A*58
$GPGGA,143514.00,3145.00596,N,03458.95815,E,1,08,0.00,268.3,M,,,,*0D
$GPRMC,143514.00,A,3145.00596,N,03458.95815,E,2.001,104.4,020416,,,A*58
$GPGGA,143515.00,3145.00619,N,03458.95881,E,1,08,0.00,268.8,M,,,,*0E
$GPRMC,143515.00,A,3145.00619,N,03458.95881,E,2.001,116.6,020416,,,A*51
$GPGGA,143516.00,3145.00637,N,03458.95941,E,1,08,0.00,269.5,M,,,,*00
$GPRMC,143516.00,A,3145.00637,N,03458.95941,E,2.000,60.7,020416,,,A*63
$GPGGA,143518.00,3145.00652,N,03458.96051,E,1,08,0.00,269.2,M,,,,*01
$GPRMC,143518.00,A,3145.00652,N,03458.96051,E,1.997,1.3,020416,,,A*52
$GPGGA,143519.00,3145.00647,N,03458.96088,E,1,08,0.00,270.3,M,,,,*09
$GPRMC,143519.00,A,3145.00647,N,03458.96088,E,1.995,355.0,020416,,,A*50
$GPGGA,143520.00,3145.00631,N,03458.96110,E,1,08,0.00,271.1,M,,,,*01
$GPRMC,143520.00,A,3145.00631,N,03458.96110,E,1.991,353.2,020416,,,A*5B
$GPGGA,143522.00,3145.00659,N,03458.95917,E,1,08,0.00,271.3,M,,,,*03
$GPRMC,143522.00,A,3145.00659,N,03458.95917,E,1.976,2.3,020416,,,A*54
$GPGGA,143524.00,3145.00716,N,03458.95767,E,1,08,0.00,271.5,M,,,,*00
$GPRMC,143524.00,A,3145.00716,N,03458.95767,E,1.965,133.0,020416,,,A*53
$GPGGA,143525.00,3145.00732,N,03458.95727,E,1,08,0.00,271.6,M,,,,*00
$GPRMC,143525.00,A,3145.00732,N,03458.95727,E,1.960,348.8,020416,,,A*53
$GPGGA,143527.00,3145.00749,N,03458.95684,E,1,08,0.00,272.0,M,,,,*03
$GPRMC,143527.00,A,3145.00749,N,03458.95684,E,1.952,351.7,020416,,,A*53
$GPGGA,143529.00,3145.00786,N,03458.95883,E,1,08,0.00,270.3,M,,,,*06
$GPRMC,143529.00,A,3145.00786,N,03458.95883,E,1.954,14.3,020416,,,A*67
$GPGGA,143530.00,3145.00779,N,03458.96042,E,1,08,0.00,270.7,M,,,,*0C
$GPRMC,143530.00,A,3145.00779,N,03458.96042,E,1.956,7.4,020416,,,A*5E
$GPGGA,143532.00,3145.00705,N,03458.96312,E,1,08,0.00,271.6,M,,,,*03
$GPRMC,143532.00,A,3145.00705,N,03458.96312,E,1.956,39.6,020416,,,A*6E
$GPGGA,143534.00,3145.00631,N,03458.96570,E,1,08,0.00,270.7,M,,,,*01
$GPRMC,143534.00,A,3145.00631,N,03458.96570,E,1.955,56.6,020416,,,A*66
$GPGGA,143536.00,3145.00582,N,03458.96887,E,1,08,0.00,270.6,M,,,,*0C
$GPRMC,143536.00,A,3145.00582,N,03458.96887,E,1.958,76.8,020416,,,A*6B
$GPGGA,143538.00,3145.00521,N,03458.97286,E,1,08,0.00,270.5,M,,,,*02
$GPRMC,143538.00,A,3145.00521,N,03458.97286,E,1.964,75.3,020416,,,A*61
$GPGGA,143539.00,3145.00493,N,03458.97500,E,1,08,0.00,272.4,M,,,,*01
$GPRMC,143539.00,A,3145.00493,N,03458.97500,E,1.967,68.4,020416,,,A*69
$GPGGA,143540.00,3145.00461,N,03458.97752,E,1,08,0.00,273.7,M,,,,*05
$GPRMC,143540.00,A,3145.00461,N,03458.97752,E,1.973,77.2,020416,,,A*62
$GPGGA,143542.00,3145.00388,N,03458.98332,E,1,08,0.00,272.9,M,,,,*05
$GPRMC,143542.00,A,3145.00388,N,03458.98332,E,1.986,69.8,020416,,,A*62
$GPGGA,143543.00,3145.00347,N,03458.98622,E,1,08,0.00,271.7,M,,,,*0E
$GPRMC,143543.00,A,3145.00347,N,03458.98622,E,1.992,72.3,020416,,,A*60
$GPGGA,143544.00,3145.00299,N,03458.98895,E,1,08,0.00,270.6,M,,,,*09
$GPRMC,143544.00,A,3145.00299,N,03458.98895,E,1.998,79.9,020416,,,A*6C
$GPGGA,143546.00,3145.00197,N,03458.99367,E,1,08,0.00,271.3,M,,,,*05
$GPRMC,143546.00,A,3145.00197,N,03458.99367,E,2.005,59.9,020416,,,A*68
$GPGGA,143548.00,3145.00125,N,03458.99769,E,1,08,0.00,271.4,M,,,,*0F
$GPRMC,143548.00,A,3145.00125,N,03458.99769,E,2.012,58.9,020416,,,A*62
$GPGGA,143549.00,3145.00085,N,03458.99941,E,1,08,0.00,271.0,M,,,,*05
$GPRMC,143549.00,A,3145.00085,N,03458.99941,E,2.013,72.5,020416,,,A*69
$GPGGA,143551.00,3145.00013,N,03459.00240,E,1,08,0.00,269.6,M,,,,*07
$GPRMC,143551.00,A,3145.00013,N,03459.00240,E,2.016,69.1,020416,,,A*6F
$GPGGA,143553.00,3144.99963,N,03459.00482,E,1,08,0.00,270.7,M,,,,*0B
$GPRMC,143553.00,A,3144.99963,N,03459.00482,E,2.016,79.9,020416,,,A*63
$GPGGA,143554.00,3144.99937,N,03459.00555,E,1,08,0.00,271.3,M,,,,*03
$GPRMC,143554.00,A,3144.99937,N,03459.00555,E,2.014,84.8,020416,,,A*6F
$GPGGA,143556.00,3144.99963,N,03459.00644,E,1,08,0.00,271.5,M,,,,*05
$GPRMC,143556.00,A,3144.99963,N,03459.00644,E,2.012,55.5,020416,,,A*68
$GPGGA,143558.00,3145.00024,N,03459.00709,E,1,08,0.00,268.3,M,,,,*06
$GPRMC,143558.00,A,3145.00024,N,03459.00709,E,2.010,157.7,020416,,,A*56
$GPGGA,143559.00,3145.00049,N,03459.00726,E,1,08,0.00,268.9,M,,,,*0B
$GPRMC,143559.00,A,3145.00049,N,03459.00726,E,2.008,163.1,020416,,,A*59
$GPGGA,143600.00,3145.00068,N,03459.00728,E,1,08,0.00,269.3,M,,,,*02
$GPRMC,143600.00,A,3145.00068,N,03459.00728,E,2.005,164.0,020416,,,A*50
$GPGGA,143602.00,3145.00021,N,03459.00690,E,1,08,0.00,267.6,M,,,,*04
$GPRMC,143602.00,A,3145.00021,N,03459.00690,E,1.994,246.5,020416,,,A*59
$GPGGA,143604.00,3144.99896,N,03459.00494,E,1,08,0.00,267.1,M,,,,*06
$GPRMC,143604.00,A,3144.99896,N,03459.00494,E,1.973,5.7,020416,,,A*52
$GPGGA,143605.00,3144.99848,N,03459.00384,E,1,08,0.00,269.7,M,,,,*0A
$GPRMC,143605.00,A,3144.99848,N,03459.00384,E,1.963,322.7,020416,,,A*51
$GPGGA,143606.00,3144.99848,N,03459.00273,E,1,08,0.00,271.6,M,,,,*08
$GPRMC,143606.00,A,3144.99848,N,03459.00273,E,1.954,357.5,020416,,,A*5F
$GPGGA,143608.00,3144.99906,N,03459.00116,E,1,08,0.00,272.9,M,,,,*01
$GPRMC,143608.00,A,3144.99906,N,03459.00116,E,1.943,11.5,020416,,,A*6D
$GPGGA,143610.00,3145.00018,N,03459.00121,E,1,08,0.00,273.9,M,,,,*0A
$GPRMC,143610.00,A,3145.00018,N,03459.00121,E,1.941,138.5,020416,,,A*5F
$GPGGA,143611.00,3145.00070,N,03459.00230,E,1,08,0.00,273.5,M,,,,*0A
$GPRMC,143611.00,A,3145.00070,N,03459.00230,E,1.944,84.3,020416,,,A*66
$GPGGA,143612.00,3145.00086,N,03459.00371,E,1,08,0.00,272.9,M,,,,*09
$GPRMC,143612.00,A,3145.00086,N,03459.00371,E,1.947,56.7,020416,,,A*60
$GPGGA,143614.00,3145.00067,N,03459.00619,E,1,08,0.00,274.6,M,,,,*02
$GPRMC,143614.00,A,3145.00067,N,03459.00619,E,1.950,55.0,020416,,,A*60
$GPGGA,143616.00,3145.00041,N,03459.00863,E,1,08,0.00,275.2,M,,,,*02
$GPRMC,143616.00,A,3145.00041,N,03459.00863,E,1.952,74.1,020416,,,A*65
$GPGGA,143618.00,3145.00012,N,03459.01135,E,1,08,0.00,274.4,M,,,,*06
$GPRMC,143618.00,A,3145.00012,N,03459.01135,E,1.955,69.0,020416,,,A*6C
$GPGGA,143620.00,3144.99957,N,03459.01451,E,1,08,0.00,275.3,M,,,,*05
$GPRMC,143620.00,A,3144.99957,N,03459.01451,E,1.959,88.1,020416,,,A*6B
$GPGGA,143622.00,3144.99892,N,03459.01813,E,1,08,0.00,273.8,M,,,,*08
$GPRMC,143622.00,A,3144.99892,N,03459.01813,E,1.964,100.3,020416,,,A*56
$GPGGA,143624.00,3144.99849,N,03459.02244,E,1,08,0.00,276.2,M,,,,*0C
$GPRMC,143624.00,A,3144.99849,N,03459.02244,E,1.974,87.7,020416,,,A*66
$GPGGA,143625.00,3144.99822,N,03459.02493,E,1,08,0.00,278.1,M,,,,*01
$GPRMC,143625.00,A,3144.99822,N,03459.02493,E,1.980,82.9,020416,,,A*66
$GPGGA,143627.00,3144.99767,N,03459.02960,E,1,08,0.00,277.2,M,,,,*00
$GPRMC,143627.00,A,3144.99767,N,03459.02960,E,1.990,98.3,020416,,,A*6B
$GPGGA,143629.00,3144.99697,N,03459.03404,E,1,08,0.00,278.7,M,,,,*04
$GPRMC,143629.00,A,3144.99697,N,03459.03404,E,1.999,98.2,020416,,,A*6D
$GPGGA,143631.00,3144.99659,N,03459.03806,E,1,08,0.00,285.3,M,,,,*07
$GPRMC,143631.00,A,3144.99659,N,03459.03806,E,2.008,91.6,020416,,,A*67
$GPGGA,143632.00,3144.99658,N,03459.03992,E,1,08,0.00,284.1,M,,,,*0A
$GPRMC,143632.00,A,3144.99658,N,03459.03992,E,2.013,69.5,020416,,,A*67
$GPGGA,143633.00,3144.99643,N,03459.04175,E,1,08,0.00,283.8,M,,,,*09
$GPRMC,143633.00,A,3144.99643,N,03459.04175,E,2.016,77.9,020416,,,A*6C
$GPGGA,143634.00,3144.99630,N,03459.04346,E,1,08,0.00,279.6,M,,,,*03
$GPRMC,143634.00,A,3144.99630,N,03459.04346,E,2.019,129.9,020416,,,A*58
$GPGGA,143636.00,3144.99585,N,03459.04649,E,1,08,0.00,279.7,M,,,,*07
$GPRMC,143636.00,A,3144.99585,N,03459.04649,E,2.024,165.1,020416,,,A*53
$GPGGA,143638.00,3144.99566,N,03459.04915,E,1,08,0.00,276.8,M,,,,*02
$GPRMC,143638.00,A,3144.99566,N,03459.04915,E,2.028,70.6,020416,,,A*68
$GPGGA,143639.00,3144.99567,N,03459.05024,E,1,08,0.00,276.6,M,,,,*06
$GPRMC,143639.00,A,3144.99567,N,03459.05024,E,2.029,48.4,020416,,,A*6A
$GPGGA,143641.00,3144.99574,N,03459.05093,E,1,08,0.00,275.6,M,,,,*04
$GPRMC,143641.00,A,3144.99574,N,03459.05093,E,2.025,21.1,020416,,,A*6D
$GPGGA,143642.00,3144.99581,N,03459.05100,E,1,08,0.00,276.3,M,,,,*00
$GPRMC,143642.00,A,3144.99581,N,03459.05100,E,2.022,359.1,020416,,,A*54
$GPGGA,143644.00,3144.99592,N,03459.05115,E,1,08,0.00,280.1,M,,,,*0B
$GPRMC,143644.00,A,3144.99592,N,03459.05115,E,2.016,17.1,020416,,,A*6A
$GPGGA,143646.00,3144.99589,N,03459.05114,E,1,08,0.00,281.3,M,,,,*01
$GPRMC,143646.00,A,3144.99589,N,03459.05114,E,2.009,14.5,020416,,,A*6A
$GPGGA,143648.00,3144.99608,N,03459.05123,E,1,08,0.00,281.3,M,,,,*01
$GPRMC,143648.00,A,3144.99608,N,03459.05123,E,2.003,4.9,020416,,,A*5D
$GPGGA,143650.00,3144.99644,N,03459.05106,E,1,08,0.00,282.3,M,,,,*04
$GPRMC,143650.00,A,3144.99644,N,03459.05106,E,1.997,2.7,020416,,,A*54
$GPGGA,143651.00,3144.99675,N,03459.05083,E,1,08,0.00,282.5,M,,,,*0D
$GPRMC,143651.00,A,3144.99675,N,03459.05083,E,1.994,357.1,020416,,,A*5D
$GPGGA,143653.00,3144.99753,N,03459.04997,E,1,08,0.00,279.9,M,,,,*0F
$GPRMC,143653.00,A,3144.99753,N,03459.04997,E,1.986,3.7,020416,,,A*50
$GPGGA,143655.00,3144.99796,N,03459.04878,E,1,08,0.00,279.7,M,,,,*0E
$GPRMC,143655.00,A,3144.99796,N,03459.04878,E,1.976,36.4,020416,,,A*65
$GPGGA,143656.00,3144.99801,N,03459.04828,E,1,08,0.00,279.1,M,,,,*0F
$GPRMC,143656.00,A,3144.99801,N,03459.04828,E,1.971,5.3,020416,,,A*52
$GPGGA,143658.00,3144.99794,N,03459.04735,E,1,08,0.00,281.7,M,,,,*00
$GPRMC,143658.00,A,3144.99794,N,03459.04735,E,1.960,347.1,020416,,,A*5B
$GPGGA,143659.00,3144.99780,N,03459.04702,E,1,08,0.00,281.8,M,,,,*0F
$GPRMC,143659.00,A,3144.99780,N,03459.04702,E,1.955,115.7,020416,,,A*5E
$GPGGA,143701.00,3144.99797,N,03459.04644,E,1,08,0.00,281.3,M,,,,*0D
$GPRMC,143701.00,A,3144.99797,N,03459.04644,E,1.947,67.2,020416,,,A*65
$GPGGA,143703.00,3144.99845,N,03459.04837,E,1,08,0.00,283.9,M,,,,*0D
$GPRMC,143703.00,A,3144.99845,N,03459.04837,E,1.950,43.3,020416,,,A*6C
$GPGGA,143705.00,3144.99935,N,03459.05052,E,1,08,0.00,277.9,M,,,,*0C
$GPRMC,143705.00,A,3144.99935,N,03459.05052,E,1.955,65.6,020416,,,A*62
$GPGGA,143706.00,3144.99983,N,03459.05186,E,1,08,0.00,277.1,M,,,,*02
$GPRMC,143706.00,A,3144.99983,N,03459.05186,E,1.959,132.1,020416,,,A*5C
$GPGGA,143708.00,3145.00009,N,03459.05453,E,1,08,0.00,277.5,M,,,,*0F
$GPRMC,143708.00,A,3145.00009,N,03459.05453,E,1.965,83.4,020416,,,A*64
$GPGGA,143709.00,3144.99971,N,03459.05598,E,1,08,0.00,278.1,M,,,,*04
$GPRMC,143709.00,A,3144.99971,N,03459.05598,E,1.966,95.9,020416,,,A*6D
$GPGGA,143711.00,3144.99828,N,03459.05895,E,1,08,0.00,279.9,M,,,,*09
$GPRMC,143711.00,A,3144.99828,N,03459.05895,E,1.967,42.2,020416,,,A*69
$GPGGA,143713.00,3144.99656,N,03459.06164,E,1,08,0.00,281.6,M,,,,*00
$GPRMC,143713.00,A,3144.99656,N,03459.06164,E,1.965,80.3,020416,,,A*65
$GPGGA,143715.00,3144.99513,N,03459.06459,E,1,08,0.00,281.0,M,,,,*09
$GPRMC,143715.00,A,3144.99513,N,03459.06459,E,1.966,141.3,020416,,,A*55
$GPGGA,143717.00,3144.99375,N,03459.06807,E,1,08,0.00,280.9,M,,,,*02
$GPRMC,143717.00,A,3144.99375,N,03459.06807,E,1.969,151.6,020416,,,A*5D
$GPGGA,143718.00,3144.99320,N,03459.06996,E,1,08,0.00,281.4,M,,,,*08
$GPRMC,143718.00,A,3144.99320,N,03459.06996,E,1.972,144.0,020416,,,A*53
$GPGGA,143720.00,3144.99222,N,03459.07499,E,1,08,0.00,280.9,M,,,,*0F
$GPRMC,143720.00,A,3144.99222,N,03459.07499,E,1.983,131.2,020416,,,A*56
$GPGGA,143722.00,3144.99129,N,03459.08016,E,1,08,0.00,283.6,M,,,,*05
$GPRMC,143722.00,A,3144.99129,N,03459.08016,E,1.995,115.3,020416,,,A*50
$GPGGA,143723.00,3144.99078,N,03459.08252,E,1,08,0.00,283.6,M,,,,*03
$GPRMC,143723.00,A,3144.99078,N,03459.08252,E,2.000,114.2,020416,,,A*50
$GPGGA,143725.00,3144.98978,N,03459.08682,E,1,08,0.00,284.5,M,,,,*00
$GPRMC,143725.00,A,3144.98978,N,03459.08682,E,2.009,109.0,020416,,,A*50
$GPGGA,143727.00,3144.98844,N,03459.08955,E,1,08,0.00,285.9,M,,,,*04
$GPRMC,143727.00,A,3144.98844,N,03459.08955,E,2.009,115.7,020416,,,A*53
$GPGGA,143728.00,3144.98816,N,03459.09126,E,1,08,0.00,285.1,M,,,,*09
$GPRMC,143728.00,A,3144.98816,N,03459.09126,E,2.012,110.5,020416,,,A*5B
$GPGGA,143730.00,3144.98795,N,03459.09468,E,1,08,0.00,282.9,M,,,,*04
$GPRMC,143730.00,A,3144.98795,N,03459.09468,E,2.020,96.9,020416,,,A*6B
$GPGGA,143732.00,3144.98788,N,03459.09742,E,1,08,0.00,282.8,M,,,,*00
$GPRMC,143732.00,A,3144.98788,N,03459.09742,E,2.024,86.2,020416,,,A*60
$GPGGA,143733.00,3144.98786,N,03459.09849,E,1,08,0.00,282.6,M,,,,*05
$GPRMC,143733.00,A,3144.98786,N,03459.09849,E,2.025,73.1,020416,,,A*63
$GPGGA,143735.00,3144.98805,N,03459.10028,E,1,08,0.00,283.7,M,,,,*00
$GPRMC,143735.00,A,3144.98805,N,03459.10028,E,2.027,70.1,020416,,,A*67
$GPGGA,143736.00,3144.98830,N,03459.10069,E,1,08,0.00,284.6,M,,,,*06
$GPRMC,143736.00,A,3144.98830,N,03459.10069,E,2.026,93.3,020416,,,A*69
$GPGGA,143738.00,3144.98867,N,03459.10013,E,1,08,0.00,280.4,M,,,,*01
$GPRMC,143738.00,A,3144.98867,N,03459.10013,E,2.019,8.8,020416,,,A*5D
$GPGGA,143740.00,3144.98883,N,03459.09933,E,1,08,0.00,279.9,M,,,,*0C
$GPRMC,143740.00,A,3144.98883,N,03459.09933,E,2.010,44.7,020416,,,A*65
$GPGGA,143742.00,3144.98879,N,03459.09918,E,1,08,0.00,279.9,M,,,,*02
$GPRMC,143742.00,A,3144.98879,N,03459.09918,E,2.003,103.4,020416,,,A*58
$GPGGA,143744.00,3144.98732,N,03459.09987,E,1,08,0.00,278.5,M,,,,*0F
$GPRMC,143744.00,A,3144.98732,N,03459.09987,E,1.995,95.2,020416,,,A*65
$GPGGA,143746.00,3144.98594,N,03459.10114,E,1,08,0.00,276.9,M,,,,*0B
$GPRMC,143746.00,A,3144.98594,N,03459.10114,E,1.990,73.5,020416,,,A*69
$GPGGA,143747.00,3144.98526,N,03459.10206,E,1,08,0.00,276.7,M,,,,*0D
$GPRMC,143747.00,A,3144.98526,N,03459.10206,E,1.989,90.9,020416,,,A*68
$GPGGA,143749.00,3144.98439,N,03459.10415,E,1,08,0.00,281.0,M,,,,*07
$GPRMC,143749.00,A,3144.98439,N,03459.10415,E,1.989,88.2,020416,,,A*6F
$GPGGA,143750.00,3144.98429,N,03459.10556,E,1,08,0.00,278.4,M,,,,*0A
$GPRMC,143750.00,A,3144.98429,N,03459.10556,E,1.991,90.5,020416,,,A*67
$GPGGA,143752.00,3144.98462,N,03459.10883,E,1,08,0.00,278.4,M,,,,*02
$GPRMC,143752.00,A,3144.98462,N,03459.10883,E,1.999,78.7,020416,,,A*63
$GPGGA,143753.00,3144.98466,N,03459.11099,E,1,08,0.00,277.7,M,,,,*09
$GPRMC,143753.00,A,3144.98466,N,03459.11099,E,2.005,90.3,020416,,,A*69
$GPGGA,143755.00,3144.98424,N,03459.11562,E,1,08,0.00,280.9,M,,,,*0E
$GPRMC,143755.00,A,3144.98424,N,03459.11562,E,2.016,76.8,020416,,,A*69
$GPGGA,143756.00,3144.98398,N,03459.11781,E,1,08,0.00,280.8,M,,,,*03
$GPRMC,143756.00,A,3144.98398,N,03459.11781,E,2.022,85.4,020416,,,A*62
$GPGGA,143758.00,3144.98333,N,03459.12186,E,1,08,0.00,278.0,M,,,,*01
