1459275589344;$GPGSV,2,1,07,04,,,23,21,,,28,24,,,23,29,,,29
1459275589356;$GPGSV,2,2,07,31,,,28,33,,,29,40,,,29
1459275589357;$GLGSV,2,1,08,78,71,282,17,77,37,171,17,79,30,326,24,88,52,354,21
1459275589358;$GLGSV,2,2,08,81,37,270,30,65,09,108,,87,17,039,,72,09,060,
1459275589364;$GPGGA,181949.0,3205.975122,N,03512.288667,E,1,00,1.8,732.4,M,19.0,M,,
1459275589366;$GNGNS,181949.0,3205.975122,N,03512.288667,E,NA,05,1.8,732.4,19.0,,
1459275589387;$GPVTG,316.4,T,313.5,M,0.0,N,0.0,K,A
1459275589388;$GPRMC,181949.0,A,3205.975122,N,03512.288667,E,0.0,316.4,290316,3.0,E,A
1459275589388;$GPGSA,A,1,,,,,,,,,,,,,,,
1459275589389;$GNGSA,A,2,,,,,,,,,,,,,2.0,1.8,0.9
1459275589389;$GNGSA,A,2,77,78,79,81,88,,,,,,,,2.0,1.8,0.9
1459275590341;$GPGSV,2,1,07,04,,,23,21,,,27,24,,,24,29,,,30
1459275590344;$GPGSV,2,2,07,31,,,29,33,,,29,40,,,29
1459275590360;$GLGSV,2,1,08,78,71,282,18,77,37,171,17,79,30,326,24,88,52,354,20
1459275590362;$GLGSV,2,2,08,81,37,270,30,65,09,108,,87,17,039,,72,09,060,
1459275590364;$GPGGA,181950.0,3205.975114,N,03512.288751,E,1,00,1.8,731.2,M,19.0,M,,
1459275590365;$GNGNS,181950.0,3205.975114,N,03512.288751,E,NA,05,1.8,731.2,19.0,,
1459275590376;$GPVTG,316.4,T,313.5,M,0.0,N,0.0,K,A
1459275590377;$GPRMC,181950.0,A,3205.975114,N,03512.288751,E,0.0,316.4,290316,3.0,E,A
1459275590377;$GPGSA,A,1,,,,,,,,,,,,,,,
1459275590378;$GNGSA,A,2,,,,,,,,,,,,,2.0,1.8,0.9
1459275590378;$GNGSA,A,2,77,78,79,81,88,,,,,,,,2.0,1.8,0.9
1459275591342;$GPGSV,2,1,07,04,,,23,21,,,28,24,,,23,29,,,29
1459275591344;$GPGSV,2,2,07,31,,,28,33,,,29,40,,,29
1459275591346;$GLGSV,2,1,08,78,71,282,18,77,37,171,15,79,30,326,24,88,52,354,20
1459275591348;$GLGSV,2,2,08,81,37,270,30,65,09,108,,87,17,039,,72,09,060,
1459275591356;$GPGGA,181951.0,3205.975127,N,03512.288686,E,1,00,1.8,731.7,M,19.0,M,,
1459275591358;$GNGNS,181951.0,3205.975127,N,03512.288686,E,NA,05,1.8,731.7,19.0,,
1459275591363;$GPVTG,316.4,T,313.5,M,0.0,N,0.0,K,A
1459275591364;$GPRMC,181951.0,A,3205.975127,N,03512.288686,E,0.0,316.4,290316,3.0,E,A
1459275591364;$GPGSA,A,1,,,,,,,,,,,,,,,
1459275591364;$GNGSA,A,2,,,,,,,,,,,,,2.0,1.8,0.9
1459275591365;$GNGSA,A,2,77,78,79,81,88,,,,,,,,2.0,1.8,0.9
1459275592342;$GPGSV,2,1,07,04,,,23,21,,,28,24,,,24,29,,,30
1459275592342;$GPGSV,2,2,07,31,,,27,33,,,29,40,,,29
1459275592348;$GLGSV,2,1,08,78,71,282,17,77,37,171,15,79,30,326,24,88,52,354,19
1459275592348;$GLGSV,2,2,08,81,37,270,30,65,09,108,,87,17,039,,72,09,060,
1459275592350;$GPGGA,181952.0,3205.975106,N,03512.288737,E,1,00,1.8,731.7,M,19.0,M,,
1459275592351;$GNGNS,181952.0,3205.975106,N,03512.288737,E,NA,05,1.8,731.7,19.0,,
1459275592351;$GPVTG,316.4,T,313.5,M,0.0,N,0.0,K,A
1459275592351;$GPRMC,181952.0,A,3205.975106,N,03512.288737,E,0.0,316.4,290316,3.0,E,A
1459275592352;$GPGSA,A,1,,,,,,,,,,,,,,,
1459275592354;$GNGSA,A,2,,,,,,,,,,,,,2.0,1.8,0.9
1459275592354;$GNGSA,A,2,77,78,79,81,88,,,,,,,,2.0,1.8,0.9
1459275593342;$GPGSV,2,1,07,04,,,23,21,,,27,24,,,25,29,,,30
1459275593343;$GPGSV,2,2,07,31,,,27,33,,,29,40,,,29
1459275593346;$GLGSV,2,1,08,78,71,282,19,77,37,171,15,79,30,326,23,88,52,354,20
1459275593346;$GLGSV,2,2,08,81,37,270,31,65,09,108,,87,17,039,,72,09,060,
1459275593347;$GPGGA,181953.0,3205.975087,N,03512.288789,E,1,00,1.8,731.8,M,19.0,M,,
1459275593347;$GNGNS,181953.0,3205.975087,N,03512.288789,E,NA,05,1.8,731.8,19.0,,
1459275593349;$GPVTG,316.4,T,313.5,M,0.0,N,0.0,K,A
1459275593350;$GPRMC,181953.0,A,3205.975087,N,03512.288789,E,0.0,316.4,290316,3.0,E,A
1459275593350;$GPGSA,A,1,,,,,,,,,,,,,,,
1459275593365;$GNGSA,A,2,,,,,,,,,,,,,2.0,1.8,0.9
1459275593366;$GNGSA,A,2,77,78,79,81,88,,,,,,,,2.0,1.8,0.9
1459275594345;$GPGSV,2,1,07,04,,,23,21,,,26,24,,,24,29,,,29
1459275594358;$GPGSV,2,2,07,31,,,26,33,,,29,40,,,29
1459275594395;$GLGSV,2,1,08,78,71,282,18,77,37,171,16,79,30,326,23,88,52,354,19
1459275594399;$GLGSV,2,2,08,81,37,270,32,65,09,108,,87,17,039,,72,09,060,
1459275594402;$GPGGA,181954.0,3205.975050,N,03512.288889,E,1,00,1.8,731.7,M,19.0,M,,
1459275594448;$GNGNS,181954.0,3205.975050,N,03512.288889,E,NA,05,1.8,731.7,19.0,,
1459275594450;$GPVTG,316.4,T,313.5,M,0.0,N,0.0,K,A
1459275594452;$GPRMC,181954.0,A,3205.975050,N,03512.288889,E,0.0,316.4,290316,3.0,E,A
1459275594456;$GPGSA,A,1,,,,,,,,,,,,,,,
1459275594462;$GNGSA,A,2,,,,,,,,,,,,,2.0,1.8,0.9
1459275594481;$GNGSA,A,2,77,78,79,81,88,,,,,,,,2.0,1.8,0.9
1459275595342;$GPGSV,2,1,07,04,,,23,21,,,27,24,,,24,29,,,30
1459275595346;$GPGSV,2,2,07,31,,,25,33,,,29,40,,,29
1459275595347;$GLGSV,2,1,08,78,71,282,20,77,37,171,17,79,30,326,23,88,52,354,17
1459275595347;$GLGSV,2,2,08,81,37,270,32,65,09,108,,87,17,039,,72,09,060,
1459275595349;$GPGGA,181955.0,3205.975070,N,03512.288896,E,1,00,1.8,731.9,M,19.0,M,,
1459275595350;$GNGNS,181955.0,3205.975070,N,03512.288896,E,NA,05,1.8,731.9,19.0,,
1459275595350;$GPVTG,316.4,T,313.5,M,0.0,N,0.0,K,A
1459275595350;$GPRMC,181955.0,A,3205.975070,N,03512.288896,E,0.0,316.4,290316,3.0,E,A
1459275595351;$GPGSA,A,1,,,,,,,,,,,,,,,
1459275595351;$GNGSA,A,2,,,,,,,,,,,,,2.0,1.8,0.9
1459275595351;$GNGSA,A,2,77,78,79,81,88,,,,,,,,2.0,1.8,0.9
1459275596342;$GPGSV,2,1,07,04,,,24,21,,,30,24,,,25,29,,,31
1459275596342;$GPGSV,2,2,07,31,,,28,33,,,29,40,,,29
1459275596345;$GLGSV,2,1,08,78,71,282,19,77,37,171,17,79,30,326,22,88,52,354,23
1459275596348;$GLGSV,2,2,08,81,37,270,30,65,09,108,,87,17,039,,72,09,060,
1459275596349;$GPGGA,,,,,,0,,,,,,,,
1459275596390;$GNGNS,,,,,,NN,,,,,,
1459275596399;$GPVTG,,T,,M,,N,,K,N
1459275596401;$GPRMC,,V,,,,,,,,,,N
1459275596406;$GPGSA,A,1,,,,,,,,,,,,,,,
1459275596408;$GNGSA,A,1,,,,,,,,,,,,,,,
1459275597342;$GPGSV,2,1,07,04,,,23,21,,,32,24,,,27,29,,,31
1459275597354;$GPGSV,2,2,07,31,,,26,33,,,29,40,,,29
1459275597362;$GLGSV,2,1,08,78,71,282,23,77,37,171,19,79,30,326,19,88,52,354,20
1459275597397;$GLGSV,2,2,08,81,37,270,25,65,09,108,,87,17,039,,72,09,060,
1459275597400;$GPGGA,181957.0,3205.975030,N,03512.288928,E,1,00,1.8,731.5,M,19.0,M,,
1459275597405;$GNGNS,181957.0,3205.975030,N,03512.288928,E,NA,05,1.8,731.5,19.0,,
1459275597408;$GPVTG,316.4,T,313.5,M,0.0,N,0.0,K,A
1459275597410;$GPRMC,181957.0,A,3205.975030,N,03512.288928,E,0.0,316.4,290316,3.0,E,A
1459275597420;$GPGSA,A,1,,,,,,,,,,,,,,,
1459275597422;$GNGSA,A,2,,,,,,,,,,,,,2.0,1.8,0.9
1459275597424;$GNGSA,A,2,77,78,79,81,88,,,,,,,,2.0,1.8,0.9
1459275598343;$GPGSV,2,1,07,04,,,21,21,,,34,24,,,29,29,,,32
1459275598343;$GPGSV,2,2,07,31,,,24,33,,,29,40,,,29
1459275598348;$GLGSV,2,1,08,78,71,282,18,77,37,171,20,79,30,326,19,88,52,354,16
1459275598349;$GLGSV,2,2,08,81,37,270,28,65,09,108,,87,17,040,,72,09,060,
1459275598350;$GPGGA,181958.0,3205.975039,N,03512.288924,E,1,00,1.8,731.6,M,19.0,M,,
1459275598350;$GNGNS,181958.0,3205.975039,N,03512.288924,E,NA,05,1.8,731.6,19.0,,
1459275598381;$GPVTG,316.4,T,313.5,M,0.0,N,0.0,K,A
1459275598392;$GPRMC,181958.0,A,3205.975039,N,03512.288924,E,0.0,316.4,290316,3.0,E,A
1459275598397;$GPGSA,A,1,,,,,,,,,,,,,,,
1459275598400;$GNGSA,A,2,,,,,,,,,,,,,2.0,1.8,0.9
1459275598401;$GNGSA,A,2,77,78,79,81,88,,,,,,,,2.0,1.8,0.9
1459275599342;$GPGSV,2,1,07,04,,,20,21,,,30,24,,,27,29,,,30
1459275599346;$GPGSV,2,2,07,31,,,23,33,,,29,40,,,29
1459275599347;$GLGSV,2,1,08,78,71,282,20,77,37,171,24,79,30,326,19,88,52,354,18
1459275599364;$GLGSV,2,2,08,81,37,270,30,65,09,108,,87,17,040,,72,09,060,
1459275599391;$GPGGA,181959.0,3205.975036,N,03512.288931,E,1,00,1.8,731.5,M,19.0,M,,
1459275599395;$GNGNS,181959.0,3205.975036,N,03512.288931,E,NA,05,1.8,731.5,19.0,,
1459275599397;$GPVTG,316.4,T,313.5,M,0.0,N,0.0,K,A
1459275599399;$GPRMC,181959.0,A,3205.975036,N,03512.288931,E,0.0,316.4,290316,3.0,E,A
1459275599403;$GPGSA,A,1,,,,,,,,,,,,,,,
1459275599405;$GNGSA,A,2,,,,,,,,,,,,,2.0,1.8,0.9
1459275599407;$GNGSA,A,2,77,78,79,81,88,,,,,,,,2.0,1.8,0.9
1459275600343;$GPGSV,2,1,07,04,,,20,21,,,29,24,,,31,29,,,25
1459275600345;$GPGSV,2,2,07,31,,,20,33,,,29,40,,,29
1459275600346;$GLGSV,2,1,08,78,71,282,20,77,37,171,20,79,30,326,14,88,52,354,18
1459275600362;$GLGSV,2,2,08,81,37,270,28,65,09,108,,87,17,040,,72,09,060,
1459275600369;$GPGGA,182000.0,3205.975026,N,03512.288959,E,1,00,1.8,731.5,M,19.0,M,,
1459275600392;$GNGNS,182000.0,3205.975026,N,03512.288959,E,NA,05,1.8,731.5,19.0,,
1459275600393;$GPVTG,316.4,T,313.5,M,0.0,N,0.0,K,A
1459275600393;$GPRMC,182000.0,A,3205.975026,N,03512.288959,E,0.0,316.4,290316,3.0,E,A
1459275600393;$GPGSA,A,1,,,,,,,,,,,,,,,
1459275600409;$GNGSA,A,2,,,,,,,,,,,,,2.0,1.8,0.9
1459275600418;$GNGSA,A,2,77,78,79,81,88,,,,,,,,2.0,1.8,0.9
1459275601343;$GPGSV,2,1,06,04,,,18,21,,,26,24,,,31,29,,,26
1459275601357;$GPGSV,2,2,06,31,,,27,33,,,29
1459275601361;$GLGSV,2,1,08,78,71,282,22,77,37,171,23,79,30,326,14,88,52,354,18
1459275601363;$GLGSV,2,2,08,81,37,270,27,65,09,108,,87,17,040,,72,09,060,
1459275601363;$GPGGA,182001.0,3205.975033,N,03512.288954,E,1,00,1.8,731.5,M,19.0,M,,
1459275601363;$GNGNS,182001.0,3205.975033,N,03512.288954,E,NA,05,1.8,731.5,19.0,,
1459275601365;$GPVTG,316.4,T,313.5,M,0.0,N,0.0,K,A
1459275601366;$GPRMC,182001.0,A,3205.975033,N,03512.288954,E,0.0,316.4,290316,3.0,E,A
1459275601366;$GPGSA,A,1,,,,,,,,,,,,,,,
1459275601368;$GNGSA,A,2,,,,,,,,,,,,,2.0,1.8,0.9
1459275601368;$GNGSA,A,2,77,78,79,81,88,,,,,,,,2.0,1.8,0.9
1459275602343;$GPGSV,2,1,06,04,,,18,21,,,28,24,,,28,29,,,28
1459275602356;$GPGSV,2,2,06,31,,,24,33,,,29
1459275602361;$GLGSV,2,1,08,78,71,282,19,77,37,171,24,79,30,326,18,88,52,354,19
1459275602372;$GLGSV,2,2,08,81,37,270,23,65,09,108,,87,17,040,,72,09,060,
1459275602387;$GPGGA,182002.0,3205.975059,N,03512.288896,E,1,00,1.8,731.6,M,19.0,M,,
1459275602388;$GNGNS,182002.0,3205.975059,N,03512.288896,E,NA,05,1.8,731.6,19.0,,
1459275602389;$GPVTG,316.4,T,313.5,M,0.0,N,0.0,K,A
1459275602389;$GPRMC,182002.0,A,3205.975059,N,03512.288896,E,0.0,316.4,290316,3.0,E,A
1459275602390;$GPGSA,A,1,,,,,,,,,,,,,,,
1459275602390;$GNGSA,A,2,,,,,,,,,,,,,2.0,1.8,0.9
1459275602391;$GNGSA,A,2,77,78,79,81,88,,,,,,,,2.0,1.8,0.9
1459275603341;$GPGSV,2,1,06,04,,,21,21,,,31,24,,,21,29,,,28
1459275603346;$GPGSV,2,2,06,31,,,30,33,,,29
1459275603347;$GLGSV,2,1,08,78,71,282,21,77,37,171,23,79,30,326,23,88,52,354,16
1459275603347;$GLGSV,2,2,08,81,37,270,19,65,09,108,,87,17,040,,72,09,060,
1459275603347;$GPGGA,182003.0,3205.975053,N,03512.288857,E,1,00,1.8,731.8,M,19.0,M,,
1459275603349;$GNGNS,182003.0,3205.975053,N,03512.288857,E,NA,05,1.8,731.8,19.0,,
1459275603350;$GPVTG,316.4,T,313.5,M,0.0,N,0.0,K,A
1459275603350;$GPRMC,182003.0,A,3205.975053,N,03512.288857,E,0.0,316.4,290316,3.0,E,A
1459275603350;$GPGSA,A,1,,,,,,,,,,,,,,,
1459275603351;$GNGSA,A,2,,,,,,,,,,,,,2.0,1.8,0.9
1459275603351;$GNGSA,A,2,77,78,79,81,88,,,,,,,,2.0,1.8,0.9
1459275604343;$GPGSV,2,1,06,04,,,23,21,,,27,24,,,25,29,,,30
1459275604360;$GPGSV,2,2,06,31,,,28,33,,,29
1459275604387;$GLGSV,2,1,08,78,71,282,20,77,37,171,19,79,30,326,23,88,52,354,16
1459275604394;$GLGSV,2,2,08,81,37,270,26,65,09,108,,87,17,040,,72,09,060,
1459275604399;$GPGGA,182004.0,3205.975074,N,03512.288855,E,1,00,1.8,731.6,M,19.0,M,,
1459275604404;$GNGNS,182004.0,3205.975074,N,03512.288855,E,NA,05,1.8,731.6,19.0,,
1459275604409;$GPVTG,316.4,T,313.5,M,0.0,N,0.0,K,A
1459275604439;$GPRMC,182004.0,A,3205.975074,N,03512.288855,E,0.0,316.4,290316,3.0,E,A
1459275604446;$GPGSA,A,1,,,,,,,,,,,,,,,
1459275604451;$GNGSA,A,2,,,,,,,,,,,,,2.0,1.8,0.9
1459275604455;$GNGSA,A,2,77,78,79,81,88,,,,,,,,2.0,1.8,0.9
1459275605342;$GPGSV,2,1,06,04,,,20,21,,,25,24,,,23,29,,,26
1459275605353;$GPGSV,2,2,06,31,,,27,33,,,29
1459275605365;$GLGSV,2,1,08,78,71,282,23,77,37,171,25,79,30,326,20,88,52,354,16
1459275605369;$GLGSV,2,2,08,81,37,270,28,65,09,108,,87,17,040,,72,09,060,
1459275605377;$GPGGA,182005.0,3205.975075,N,03512.288862,E,1,00,1.8,731.6,M,19.0,M,,
1459275605377;$GNGNS,182005.0,3205.975075,N,03512.288862,E,NA,05,1.8,731.6,19.0,,
1459275605378;$GPVTG,316.4,T,313.5,M,0.0,N,0.0,K,A
1459275605378;$GPRMC,182005.0,A,3205.975075,N,03512.288862,E,0.0,316.4,290316,3.0,E,A
1459275605379;$GPGSA,A,1,,,,,,,,,,,,,,,
1459275605379;$GNGSA,A,2,,,,,,,,,,,,,2.0,1.8,0.9
1459275605379;$GNGSA,A,2,77,78,79,81,88,,,,,,,,2.0,1.8,0.9
1459275606341;$GPGSV,2,1,06,04,,,22,21,,,26,24,,,24,29,,,29
1459275606349;$GPGSV,2,2,06,31,,,31,33,,,29
1459275606358;$GLGSV,2,1,08,78,71,282,19,77,37,171,25,79,30,326,22,88,52,354,18
1459275606396;$GLGSV,2,2,08,81,37,270,24,65,09,108,,87,17,040,,72,09,060,
1459275606401;$GPGGA,182006.0,3205.975039,N,03512.288891,E,1,00,1.8,731.5,M,19.0,M,,
1459275606415;$GNGNS,182006.0,3205.975039,N,03512.288891,E,NA,05,1.8,731.5,19.0,,
1459275606421;$GPVTG,316.4,T,313.5,M,0.0,N,0.0,K,A
1459275606424;$GPRMC,182006.0,A,3205.975039,N,03512.288891,E,0.0,316.4,290316,3.0,E,A
1459275606427;$GPGSA,A,1,,,,,,,,,,,,,,,
1459275606428;$GNGSA,A,2,,,,,,,,,,,,,2.0,1.8,0.9
1459275606428;$GNGSA,A,2,77,78,79,81,88,,,,,,,,2.0,1.8,0.9
1459275607341;$GPGSV,2,1,06,04,,,21,21,,,28,24,,,25,29,,,30
1459275607343;$GPGSV,2,2,06,31,,,28,33,,,29
1459275607365;$GLGSV,2,1,08,78,71,282,16,77,37,171,23,79,30,326,26,88,52,354,19
1459275607365;$GLGSV,2,2,08,81,37,270,24,65,09,108,,87,17,040,,72,09,060,
1459275607365;$GPGGA,182007.0,3205.975055,N,03512.288838,E,1,00,1.8,731.6,M,19.0,M,,
1459275607366;$GNGNS,182007.0,3205.975055,N,03512.288838,E,NA,05,1.8,731.6,19.0,,
1459275607367;$GPVTG,316.4,T,313.5,M,0.0,N,0.0,K,A
1459275607367;$GPRMC,182007.0,A,3205.975055,N,03512.288838,E,0.0,316.4,290316,3.0,E,A
1459275607368;$GPGSA,A,1,,,,,,,,,,,,,,,
1459275607368;$GNGSA,A,2,,,,,,,,,,,,,2.0,1.8,0.9
1459275607368;$GNGSA,A,2,77,78,79,81,88,,,,,,,,2.0,1.8,0.9
1459275608341;$GPGSV,2,1,06,04,,,19,21,,,26,24,,,24,29,,,27
1459275608343;$GPGSV,2,2,06,31,,,29,33,,,29
1459275608349;$GLGSV,2,1,08,78,71,282,22,77,37,171,18,79,30,326,24,88,52,354,19
1459275608355;$GLGSV,2,2,08,81,37,270,22,65,09,108,,87,17,040,,72,09,060,
1459275608363;$GPGGA,182008.0,3205.975054,N,03512.288864,E,1,00,1.8,731.4,M,19.0,M,,
1459275608363;$GNGNS,182008.0,3205.975054,N,03512.288864,E,NA,05,1.8,731.4,19.0,,
1459275608364;$GPVTG,316.4,T,313.5,M,0.0,N,0.0,K,A
1459275608364;$GPRMC,182008.0,A,3205.975054,N,03512.288864,E,0.0,316.4,290316,3.0,E,A
1459275608364;$GPGSA,A,1,,,,,,,,,,,,,,,
1459275608365;$GNGSA,A,2,,,,,,,,,,,,,2.0,1.8,0.9
1459275608365;$GNGSA,A,2,77,78,79,81,88,,,,,,,,2.0,1.8,0.9
